00:12:28  0000  24 47 50 47 4C 4C 2C 34 35 33 32 2E 33 34 39 32  $GPGLL,4532.3492
          0010  35 2C 4E 2C 30 37 33 33 37 2E 39 31 37 31 34 2C  5,N,07337.91714,
          0020  57 2C 30 30 31 32 32 38 2E 30 30 2C 41 2C 41 2A  W,001228.00,A,A*
          0030  37 31 0D 0A                                      71...
          
00:12:29  0000  24 47 50 52 4D 43 2C 30 30 31 32 32 39 2E 30 30  $GPRMC,001229.00
          0010  2C 41 2C 34 35 33 32 2E 33 35 31 31 30 2C 4E 2C  ,A,4532.35110,N,
          0020  30 37 33 33 37 2E 39 32 34 37 39 2C 57 2C 32 30  07337.92479,W,20
          0030  2E 39 32 30 2C 32 38 39 2E 33 36 2C 32 38 31 31  .920,289.36,2811
          0040  32 35 2C 2C 2C 41 2A 34 31 0D 0A                 25,,,A*41...
          
00:12:29  0000  24 47 50 56 54 47 2C 32 38 39 2E 33 36 2C 54 2C  $GPVTG,289.36,T,
          0010  2C 4D 2C 32 30 2E 39 32 30 2C 4E 2C 33 38 2E 37  ,M,20.920,N,38.7
          0020  34 33 2C 4B 2C 41 2A 33 39 0D 0A                 43,K,A*39...
          
00:12:29  0000  24 47 50 47 47 41 2C 30 30 31 32 32 39 2E 30 30  $GPGGA,001229.00
          0010  2C 34 35 33 32 2E 33 35 31 31 30 2C 4E 2C 30 37  ,4532.35110,N,07
          0020  33 33 37 2E 39 32 34 37 39 2C 57 2C 31 2C 31 30  337.92479,W,1,10
          0030  2C 31 2E 32 36 2C 35 36 2E 31 2C 4D 2C 2D 33 32  ,1.26,56.1,M,-32
          0040  2E 37 2C 4D 2C 2C 2A 35 43 0D 0A                 .7,M,,*5C...
          
00:12:29  0000  24 47 50 47 53 41 2C 41 2C 33 2C 31 34 2C 32 32  $GPGSA,A,3,14,22
          0010  2C 30 31 2C 31 37 2C 31 39 2C 30 32 2C 33 30 2C  ,01,17,19,02,30,
          0020  30 33 2C 30 36 2C 30 37 2C 2C 2C 32 2E 32 34 2C  03,06,07,,,2.24,
          0030  31 2E 32 36 2C 31 2E 38 36 2A 30 35 0D 0A        1.26,1.86*05...
          
00:12:29  0000  24 47 50 47 53 56 2C 34 2C 31 2C 31 33 2C 30 31  $GPGSV,4,1,13,01
          0010  2C 35 39 2C 30 37 33 2C 33 31 2C 30 32 2C 33 31  ,59,073,31,02,31
          0020  2C 30 34 39 2C 32 33 2C 30 33 2C 32 30 2C 31 32  ,049,23,03,20,12
          0030  31 2C 32 37 2C 30 36 2C 31 30 2C 32 30 39 2C 32  1,27,06,10,209,2
          0040  37 2A 37 36 0D 0A                                7*76...
          
00:12:29  0000  24 47 50 47 53 56 2C 34 2C 32 2C 31 33 2C 30 37  $GPGSV,4,2,13,07
          0010  2C 30 39 2C 31 38 32 2C 32 32 2C 30 38 2C 30 33  ,09,182,22,08,03
          0020  2C 30 38 30 2C 2C 31 33 2C 30 32 2C 32 36 35 2C  ,080,,13,02,265,
          0030  2C 31 34 2C 38 34 2C 32 37 37 2C 33 37 2A 37 35  ,14,84,277,37*75
          0040  0D 0A                                            ...
          
00:12:29  0000  24 47 50 47 53 56 2C 34 2C 33 2C 31 33 2C 31 37  $GPGSV,4,3,13,17
          0010  2C 35 37 2C 32 37 35 2C 33 34 2C 31 39 2C 33 35  ,57,275,34,19,35
          0020  2C 32 36 34 2C 33 32 2C 32 32 2C 36 37 2C 33 30  ,264,32,22,67,30
          0030  35 2C 33 33 2C 32 34 2C 30 36 2C 33 32 37 2C 30  5,33,24,06,327,0
          0040  39 2A 37 38 0D 0A                                9*78...
          
00:12:29  0000  24 47 50 47 53 56 2C 34 2C 34 2C 31 33 2C 33 30  $GPGSV,4,4,13,30
          0010  2C 32 37 2C 32 30 32 2C 32 39 2A 34 36 0D 0A     ,27,202,29*46...
          
00:12:29  0000  24 47 50 47 4C 4C 2C 34 35 33 32 2E 33 35 31 31  $GPGLL,4532.3511
          0010  30 2C 4E 2C 30 37 33 33 37 2E 39 32 34 37 39 2C  0,N,07337.92479,
          0020  57 2C 30 30 31 32 32 39 2E 30 30 2C 41 2C 41 2A  W,001229.00,A,A*
          0030  37 34 0D 0A                                      74...
          
00:12:30  0000  24 47 50 52 4D 43 2C 30 30 31 32 33 30 2E 30 30  $GPRMC,001230.00
          0010  2C 41 2C 34 35 33 32 2E 33 35 33 33 37 2C 4E 2C  ,A,4532.35337,N,
          0020  30 37 33 33 37 2E 39 33 32 37 35 2C 57 2C 32 31  07337.93275,W,21
          0030  2E 37 30 31 2C 32 39 32 2E 39 35 2C 32 38 31 31  .701,292.95,2811
          0040  32 35 2C 2C 2C 41 2A 34 41 0D 0A                 25,,,A*4A...
          
00:12:30  0000  24 47 50 56 54 47 2C 32 39 32 2E 39 35 2C 54 2C  $GPVTG,292.95,T,
          0010  2C 4D 2C 32 31 2E 37 30 31 2C 4E 2C 34 30 2E 31  ,M,21.701,N,40.1
          0020  39 31 2C 4B 2C 41 2A 33 30 0D 0A                 91,K,A*30...
          
00:12:30  0000  24 47 50 47 47 41 2C 30 30 31 32 33 30 2E 30 30  $GPGGA,001230.00
          0010  2C 34 35 33 32 2E 33 35 33 33 37 2C 4E 2C 30 37  ,4532.35337,N,07
          0020  33 33 37 2E 39 33 32 37 35 2C 57 2C 31 2C 31 30  337.93275,W,1,10
          0030  2C 31 2E 32 37 2C 35 35 2E 39 2C 4D 2C 2D 33 32  ,1.27,55.9,M,-32
          0040  2E 37 2C 4D 2C 2C 2A 35 32 0D 0A                 .7,M,,*52...
          
00:12:30  0000  24 47 50 47 53 41 2C 41 2C 33 2C 31 34 2C 32 32  $GPGSA,A,3,14,22
          0010  2C 30 31 2C 31 37 2C 31 39 2C 30 32 2C 33 30 2C  ,01,17,19,02,30,
          0020  30 33 2C 30 36 2C 30 37 2C 2C 2C 32 2E 31 36 2C  03,06,07,,,2.16,
          0030  31 2E 32 37 2C 31 2E 37 35 2A 30 39 0D 0A        1.27,1.75*09...
          
00:12:30  0000  24 47 50 47 53 56 2C 34 2C 31 2C 31 33 2C 30 31  $GPGSV,4,1,13,01
          0010  2C 35 39 2C 30 37 33 2C 33 39 2C 30 32 2C 33 31  ,59,073,39,02,31
          0020  2C 30 34 39 2C 32 39 2C 30 33 2C 32 30 2C 31 32  ,049,29,03,20,12
          0030  31 2C 33 31 2C 30 36 2C 31 30 2C 32 30 39 2C 32  1,31,06,10,209,2
          0040  33 2A 37 37 0D 0A                                3*77...
          
00:12:30  0000  24 47 50 47 53 56 2C 34 2C 32 2C 31 33 2C 30 37  $GPGSV,4,2,13,07
          0010  2C 30 39 2C 31 38 32 2C 32 38 2C 30 38 2C 30 33  ,09,182,28,08,03
          0020  2C 30 38 30 2C 2C 31 33 2C 30 32 2C 32 36 35 2C  ,080,,13,02,265,
          0030  2C 31 34 2C 38 34 2C 32 37 37 2C 34 31 2A 37 45  ,14,84,277,41*7E
          0040  0D 0A                                            ...
          
00:12:30  0000  24 47 50 47 53 56 2C 34 2C 33 2C 31 33 2C 31 37  $GPGSV,4,3,13,17
          0010  2C 35 37 2C 32 37 35 2C 33 33 2C 31 39 2C 33 35  ,57,275,33,19,35
          0020  2C 32 36 34 2C 33 32 2C 32 32 2C 36 37 2C 33 30  ,264,32,22,67,30
          0030  35 2C 33 37 2C 32 34 2C 30 36 2C 33 32 37 2C 30  5,37,24,06,327,0
          0040  38 2A 37 41 0D 0A                                8*7A...
          
00:12:30  0000  24 47 50 47 53 56 2C 34 2C 34 2C 31 33 2C 33 30  $GPGSV,4,4,13,30
          0010  2C 32 37 2C 32 30 32 2C 33 31 2A 34 46 0D 0A     ,27,202,31*4F...
          
00:12:30  0000  24 47 50 47 4C 4C 2C 34 35 33 32 2E 33 35 33 33  $GPGLL,4532.3533
          0010  37 2C 4E 2C 30 37 33 33 37 2E 39 33 32 37 35 2C  7,N,07337.93275,
          0020  57 2C 30 30 31 32 33 30 2E 30 30 2C 41 2C 41 2A  W,001230.00,A,A*
          0030  37 30 0D 0A                                      70...
          
00:12:31  0000  24 47 50 52 4D 43 2C 30 30 31 32 33 31 2E 30 30  $GPRMC,001231.00
          0010  2C 41 2C 34 35 33 32 2E 33 35 35 37 37 2C 4E 2C  ,A,4532.35577,N,
          0020  30 37 33 33 37 2E 39 34 30 39 34 2C 57 2C 32 32  07337.94094,W,22
          0030  2E 36 32 34 2C 32 39 33 2E 30 34 2C 32 38 31 31  .624,293.04,2811
          0040  32 35 2C 2C 2C 41 2A 34 46 0D 0A                 25,,,A*4F...
          
00:12:31  0000  24 47 50 56 54 47 2C 32 39 33 2E 30 34 2C 54 2C  $GPVTG,293.04,T,
          0010  2C 4D 2C 32 32 2E 36 32 34 2C 4E 2C 34 31 2E 38  ,M,22.624,N,41.8
          0020  39 39 2C 4B 2C 41 2A 33 43 0D 0A                 99,K,A*3C...
          
00:12:31  0000  24 47 50 47 47 41 2C 30 30 31 32 33 31 2E 30 30  $GPGGA,001231.00
          0010  2C 34 35 33 32 2E 33 35 35 37 37 2C 4E 2C 30 37  ,4532.35577,N,07
          0020  33 33 37 2E 39 34 30 39 34 2C 57 2C 31 2C 30 39  337.94094,W,1,09
          0030  2C 31 2E 32 37 2C 35 35 2E 37 2C 4D 2C 2D 33 32  ,1.27,55.7,M,-32
          0040  2E 37 2C 4D 2C 2C 2A 35 44 0D 0A                 .7,M,,*5D...
          
00:12:31  0000  24 47 50 47 53 41 2C 41 2C 33 2C 31 34 2C 32 32  $GPGSA,A,3,14,22
          0010  2C 30 31 2C 31 37 2C 31 39 2C 30 32 2C 33 30 2C  ,01,17,19,02,30,
          0020  30 33 2C 30 36 2C 2C 2C 2C 32 2E 31 36 2C 31 2E  03,06,,,,2.16,1.
          0030  32 37 2C 31 2E 37 35 2A 30 45 0D 0A              27,1.75*0E...
          
00:12:31  0000  24 47 50 47 53 56 2C 34 2C 31 2C 31 33 2C 30 31  $GPGSV,4,1,13,01
          0010  2C 35 39 2C 30 37 33 2C 33 34 2C 30 32 2C 33 31  ,59,073,34,02,31
          0020  2C 30 34 39 2C 32 37 2C 30 33 2C 32 30 2C 31 32  ,049,27,03,20,12
          0030  31 2C 33 30 2C 30 36 2C 31 30 2C 32 30 39 2C 32  1,30,06,10,209,2
          0040  38 2A 37 45 0D 0A                                8*7E...
          
00:12:31  0000  24 47 50 47 53 56 2C 34 2C 32 2C 31 33 2C 30 37  $GPGSV,4,2,13,07
          0010  2C 30 39 2C 31 38 32 2C 2C 30 38 2C 30 33 2C 30  ,09,182,,08,03,0
          0020  38 30 2C 2C 31 33 2C 30 32 2C 32 36 35 2C 32 31  80,,13,02,265,21
          0030  2C 31 34 2C 38 34 2C 32 37 37 2C 33 39 2A 37 38  ,14,84,277,39*78
          0040  0D 0A                                            ...
          
00:12:31  0000  24 47 50 47 53 56 2C 34 2C 33 2C 31 33 2C 31 37  $GPGSV,4,3,13,17
          0010  2C 35 37 2C 32 37 35 2C 33 31 2C 31 39 2C 33 35  ,57,275,31,19,35
          0020  2C 32 36 34 2C 33 31 2C 32 32 2C 36 37 2C 33 30  ,264,31,22,67,30
          0030  35 2C 33 36 2C 32 34 2C 30 36 2C 33 32 37 2C 2A  5,36,24,06,327,*
          0040  37 32 0D 0A                                      72...
          
00:12:31  0000  24 47 50 47 53 56 2C 34 2C 34 2C 31 33 2C 33 30  $GPGSV,4,4,13,30
          0010  2C 32 37 2C 32 30 32 2C 33 35 2A 34 42 0D 0A     ,27,202,35*4B...
          
00:12:31  0000  B5 62 0A 04 00 00 0E 34                          µb.....4.
          
00:12:31  0000  24 47 50 47 4C 4C 2C 34 35 33 32 2E 33 35 35 37  $GPGLL,4532.3557
          0010  37 2C 4E 2C 30 37 33 33 37 2E 39 34 30 39 34 2C  7,N,07337.94094,
          0020  57 2C 30 30 31 32 33 31 2E 30 30 2C 41 2C 41 2A  W,001231.00,A,A*
          0030  37 39 0D 0A                                      79...
          
00:12:32  0000  24 47 50 52 4D 43 2C 30 30 31 32 33 32 2E 30 30  $GPRMC,001232.00
          0010  2C 41 2C 34 35 33 32 2E 33 35 38 30 34 2C 4E 2C  ,A,4532.35804,N,
          0020  30 37 33 33 37 2E 39 34 39 30 30 2C 57 2C 32 31  07337.94900,W,21
          0030  2E 38 33 36 2C 32 39 32 2E 33 37 2C 32 38 31 31  .836,292.37,2811
          0040  32 35 2C 2C 2C 41 2A 34 45 0D 0A                 25,,,A*4E...
          
00:12:32  0000  24 47 50 56 54 47 2C 32 39 32 2E 33 37 2C 54 2C  $GPVTG,292.37,T,
          0010  2C 4D 2C 32 31 2E 38 33 36 2C 4E 2C 34 30 2E 34  ,M,21.836,N,40.4
          0020  34 31 2C 4B 2C 41 2A 33 42 0D 0A                 41,K,A*3B...
          
00:12:32  0000  24 47 50 47 47 41 2C 30 30 31 32 33 32 2E 30 30  $GPGGA,001232.00
          0010  2C 34 35 33 32 2E 33 35 38 30 34 2C 4E 2C 30 37  ,4532.35804,N,07
          0020  33 33 37 2E 39 34 39 30 30 2C 57 2C 31 2C 31 30  337.94900,W,1,10
          0030  2C 31 2E 32 37 2C 35 35 2E 39 2C 4D 2C 2D 33 32  ,1.27,55.9,M,-32
          0040  2E 37 2C 4D 2C 2C 2A 35 35 0D 0A                 .7,M,,*55...
          
00:12:32  0000  24 47 50 47 53 41 2C 41 2C 33 2C 31 34 2C 32 32  $GPGSA,A,3,14,22
          0010  2C 30 31 2C 31 37 2C 31 39 2C 30 32 2C 33 30 2C  ,01,17,19,02,30,
          0020  30 33 2C 30 36 2C 30 37 2C 2C 2C 32 2E 31 36 2C  03,06,07,,,2.16,
          0030  31 2E 32 37 2C 31 2E 37 35 2A 30 39 0D 0A        1.27,1.75*09...
          
00:12:32  0000  24 47 50 47 53 56 2C 34 2C 31 2C 31 33 2C 30 31  $GPGSV,4,1,13,01
          0010  2C 35 39 2C 30 37 33 2C 33 34 2C 30 32 2C 33 31  ,59,073,34,02,31
          0020  2C 30 34 39 2C 32 36 2C 30 33 2C 32 30 2C 31 32  ,049,26,03,20,12
          0030  31 2C 33 30 2C 30 36 2C 31 30 2C 32 30 39 2C 32  1,30,06,10,209,2
          0040  37 2A 37 30 0D 0A                                7*70...
          
00:12:32  0000  24 47 50 47 53 56 2C 34 2C 32 2C 31 33 2C 30 37  $GPGSV,4,2,13,07
          0010  2C 30 39 2C 31 38 32 2C 32 30 2C 30 38 2C 30 33  ,09,182,20,08,03
          0020  2C 30 38 30 2C 2C 31 33 2C 30 32 2C 32 36 35 2C  ,080,,13,02,265,
          0030  31 37 2C 31 34 2C 38 34 2C 32 37 37 2C 33 38 2A  17,14,84,277,38*
          0040  37 45 0D 0A                                      7E...
          
00:12:32  0000  24 47 50 47 53 56 2C 34 2C 33 2C 31 33 2C 31 37  $GPGSV,4,3,13,17
          0010  2C 35 37 2C 32 37 35 2C 32 38 2C 31 39 2C 33 35  ,57,275,28,19,35
          0020  2C 32 36 34 2C 32 36 2C 32 32 2C 36 37 2C 33 30  ,264,26,22,67,30
          0030  35 2C 33 36 2C 32 34 2C 30 36 2C 33 32 37 2C 2A  5,36,24,06,327,*
          0040  37 43 0D 0A                                      7C...
          
00:12:32  0000  24 47 50 47 53 56 2C 34 2C 34 2C 31 33 2C 33 30  $GPGSV,4,4,13,30
          0010  2C 32 37 2C 32 30 32 2C 33 30 2A 34 45 0D 0A     ,27,202,30*4E...
          
00:12:32  0000  24 47 50 47 4C 4C 2C 34 35 33 32 2E 33 35 38 30  $GPGLL,4532.3580
          0010  34 2C 4E 2C 30 37 33 33 37 2E 39 34 39 30 30 2C  4,N,07337.94900,
          0020  57 2C 30 30 31 32 33 32 2E 30 30 2C 41 2C 41 2A  W,001232.00,A,A*
          0030  37 37 0D 0A                                      77...
          
00:12:33  0000  24 47 50 52 4D 43 2C 30 30 31 32 33 33 2E 30 30  $GPRMC,001233.00
          0010  2C 41 2C 34 35 33 32 2E 33 36 30 34 32 2C 4E 2C  ,A,4532.36042,N,
          0020  30 37 33 33 37 2E 39 35 37 30 36 2C 57 2C 32 31  07337.95706,W,21
          0030  2E 39 38 36 2C 32 39 32 2E 34 31 2C 32 38 31 31  .986,292.41,2811
          0040  32 35 2C 2C 2C 41 2A 34 34 0D 0A                 25,,,A*44...
          
00:12:33  0000  B5 62 0A 04 00 00 0E 34                          µb.....4.
          
00:12:33  0000  24 47 50 56 54 47 2C 32 39 32 2E 34 31 2C 54 2C  $GPVTG,292.41,T,
          0010  2C 4D 2C 32 31 2E 39 38 36 2C 4E 2C 34 30 2E 37  ,M,21.986,N,40.7
          0020  31 38 2C 4B 2C 41 2A 33 46 0D 0A                 18,K,A*3F...
          
00:12:33  0000  24 47 50 47 47 41 2C 30 30 31 32 33 33 2E 30 30  $GPGGA,001233.00
          0010  2C 34 35 33 32 2E 33 36 30 34 32 2C 4E 2C 30 37  ,4532.36042,N,07
          0020  33 33 37 2E 39 35 37 30 36 2C 57 2C 31 2C 31 30  337.95706,W,1,10
          0030  2C 31 2E 32 33 2C 35 35 2E 35 2C 4D 2C 2D 33 32  ,1.23,55.5,M,-32
          0040  2E 37 2C 4D 2C 2C 2A 35 43 0D 0A                 .7,M,,*5C...
          
00:12:33  0000  24 47 50 47 53 41 2C 41 2C 33 2C 31 34 2C 32 32  $GPGSA,A,3,14,22
          0010  2C 30 31 2C 31 37 2C 31 39 2C 30 32 2C 33 30 2C  ,01,17,19,02,30,
          0020  30 33 2C 30 36 2C 30 37 2C 2C 2C 32 2E 31 33 2C  03,06,07,,,2.13,
          0030  31 2E 32 33 2C 31 2E 37 33 2A 30 45 0D 0A        1.23,1.73*0E...
          
00:12:33  0000  24 47 50 47 53 56 2C 34 2C 31 2C 31 33 2C 30 31  $GPGSV,4,1,13,01
          0010  2C 35 39 2C 30 37 33 2C 33 35 2C 30 32 2C 33 31  ,59,073,35,02,31
          0020  2C 30 34 39 2C 32 34 2C 30 33 2C 32 30 2C 31 32  ,049,24,03,20,12
          0030  31 2C 33 30 2C 30 36 2C 31 30 2C 32 30 39 2C 32  1,30,06,10,209,2
          0040  35 2A 37 31 0D 0A                                5*71...
          
00:12:33  0000  24 47 50 47 53 56 2C 34 2C 32 2C 31 33 2C 30 37  $GPGSV,4,2,13,07
          0010  2C 30 39 2C 31 38 32 2C 32 34 2C 30 38 2C 30 33  ,09,182,24,08,03
          0020  2C 30 38 30 2C 2C 31 33 2C 30 32 2C 32 36 35 2C  ,080,,13,02,265,
          0030  31 35 2C 31 34 2C 38 34 2C 32 37 37 2C 33 39 2A  15,14,84,277,39*
          0040  37 39 0D 0A                                      79...
          
00:12:33  0000  24 47 50 47 53 56 2C 34 2C 33 2C 31 33 2C 31 37  $GPGSV,4,3,13,17
          0010  2C 35 37 2C 32 37 35 2C 33 34 2C 31 39 2C 33 35  ,57,275,34,19,35
          0020  2C 32 36 34 2C 32 38 2C 32 32 2C 36 37 2C 33 30  ,264,28,22,67,30
          0030  35 2C 33 37 2C 32 34 2C 30 36 2C 33 32 37 2C 2A  5,37,24,06,327,*
          0040  37 45 0D 0A                                      7E...
          
00:12:33  0000  24 47 50 47 53 56 2C 34 2C 34 2C 31 33 2C 33 30  $GPGSV,4,4,13,30
          0010  2C 32 37 2C 32 30 32 2C 33 31 2A 34 46 0D 0A     ,27,202,31*4F...
          
00:12:33  0000  24 47 50 47 4C 4C 2C 34 35 33 32 2E 33 36 30 34  $GPGLL,4532.3604
          0010  32 2C 4E 2C 30 37 33 33 37 2E 39 35 37 30 36 2C  2,N,07337.95706,
          0020  57 2C 30 30 31 32 33 33 2E 30 30 2C 41 2C 41 2A  W,001233.00,A,A*
          0030  37 36 0D 0A                                      76...
          
00:12:34  0000  24 47 50 52 4D 43 2C 30 30 31 32 33 34 2E 30 30  $GPRMC,001234.00
          0010  2C 41 2C 34 35 33 32 2E 33 36 32 39 32 2C 4E 2C  ,A,4532.36292,N,
          0020  30 37 33 33 37 2E 39 36 34 39 32 2C 57 2C 32 31  07337.96492,W,21
          0030  2E 34 38 33 2C 32 39 34 2E 32 33 2C 32 38 31 31  .483,294.23,2811
          0040  32 35 2C 2C 2C 41 2A 34 42 0D 0A                 25,,,A*4B...
          
00:12:34  0000  24 47 50 56 54 47 2C 32 39 34 2E 32 33 2C 54 2C  $GPVTG,294.23,T,
          0010  2C 4D 2C 32 31 2E 34 38 33 2C 4E 2C 33 39 2E 37  ,M,21.483,N,39.7
          0020  38 36 2C 4B 2C 41 2A 33 43 0D 0A                 86,K,A*3C...
          
00:12:34  0000  24 47 50 47 47 41 2C 30 30 31 32 33 34 2E 30 30  $GPGGA,001234.00
          0010  2C 34 35 33 32 2E 33 36 32 39 32 2C 4E 2C 30 37  ,4532.36292,N,07
          0020  33 33 37 2E 39 36 34 39 32 2C 57 2C 31 2C 31 30  337.96492,W,1,10
          0030  2C 31 2E 32 33 2C 35 35 2E 31 2C 4D 2C 2D 33 32  ,1.23,55.1,M,-32
          0040  2E 37 2C 4D 2C 2C 2A 35 44 0D 0A                 .7,M,,*5D...
          
00:12:34  0000  24 47 50 47 53 41 2C 41 2C 33 2C 31 34 2C 32 32  $GPGSA,A,3,14,22
          0010  2C 30 31 2C 31 37 2C 31 39 2C 30 32 2C 33 30 2C  ,01,17,19,02,30,
          0020  30 33 2C 30 36 2C 30 37 2C 2C 2C 32 2E 31 33 2C  03,06,07,,,2.13,
          0030  31 2E 32 33 2C 31 2E 37 33 2A 30 45 0D 0A        1.23,1.73*0E...
          
00:12:34  0000  24 47 50 47 53 56 2C 34 2C 31 2C 31 33 2C 30 31  $GPGSV,4,1,13,01
          0010  2C 35 39 2C 30 37 33 2C 33 35 2C 30 32 2C 33 31  ,59,073,35,02,31
          0020  2C 30 34 39 2C 32 31 2C 30 33 2C 32 30 2C 31 32  ,049,21,03,20,12
          0030  31 2C 33 31 2C 30 36 2C 31 30 2C 32 30 39 2C 32  1,31,06,10,209,2
          0040  34 2A 37 34 0D 0A                                4*74...
          
00:12:34  0000  24 47 50 47 53 56 2C 34 2C 32 2C 31 33 2C 30 37  $GPGSV,4,2,13,07
          0010  2C 30 39 2C 31 38 32 2C 32 35 2C 30 38 2C 30 33  ,09,182,25,08,03
          0020  2C 30 38 30 2C 2C 31 33 2C 30 32 2C 32 36 35 2C  ,080,,13,02,265,
          0030  31 31 2C 31 34 2C 38 34 2C 32 37 37 2C 33 39 2A  11,14,84,277,39*
          0040  37 43 0D 0A                                      7C...
          
00:12:34  0000  24 47 50 47 53 56 2C 34 2C 33 2C 31 33 2C 31 37  $GPGSV,4,3,13,17
          0010  2C 35 37 2C 32 37 35 2C 33 34 2C 31 39 2C 33 35  ,57,275,34,19,35
          0020  2C 32 36 34 2C 32 39 2C 32 32 2C 36 37 2C 33 30  ,264,29,22,67,30
          0030  35 2C 33 37 2C 32 34 2C 30 36 2C 33 32 37 2C 2A  5,37,24,06,327,*
          0040  37 46 0D 0A                                      7F...
          
00:12:34  0000  24 47 50 47 53 56 2C 34 2C 34 2C 31 33 2C 33 30  $GPGSV,4,4,13,30
          0010  2C 32 37 2C 32 30 32 2C 33 35 2A 34 42 0D 0A     ,27,202,35*4B...
          
00:12:34  0000  24 47 50 47 4C 4C 2C 34 35 33 32 2E 33 36 32 39  $GPGLL,4532.3629
          0010  32 2C 4E 2C 30 37 33 33 37 2E 39 36 34 39 32 2C  2,N,07337.96492,
          0020  57 2C 30 30 31 32 33 34 2E 30 30 2C 41 2C 41 2A  W,001234.00,A,A*
          0030  37 33 0D 0A                                      73...
          
00:12:34  0000  B5 62 06 13 00 00 19 51                          µb.....Q.
          
00:12:35  0000  24 47 50 52 4D 43 2C 30 30 31 32 33 35 2E 30 30  $GPRMC,001235.00
          0010  2C 41 2C 34 35 33 32 2E 33 36 35 30 33 2C 4E 2C  ,A,4532.36503,N,
          0020  30 37 33 33 37 2E 39 37 32 36 34 2C 57 2C 32 30  07337.97264,W,20
          0030  2E 39 32 35 2C 32 39 31 2E 38 33 2C 32 38 31 31  .925,291.83,2811
          0040  32 35 2C 2C 2C 41 2A 34 34 0D 0A                 25,,,A*44...
          
00:12:35  0000  24 47 50 56 54 47 2C 32 39 31 2E 38 33 2C 54 2C  $GPVTG,291.83,T,
          0010  2C 4D 2C 32 30 2E 39 32 35 2C 4E 2C 33 38 2E 37  ,M,20.925,N,38.7
          0020  35 33 2C 4B 2C 41 2A 33 41 0D 0A                 53,K,A*3A...
          
00:12:35  0000  24 47 50 47 47 41 2C 30 30 31 32 33 35 2E 30 30  $GPGGA,001235.00
          0010  2C 34 35 33 32 2E 33 36 35 30 33 2C 4E 2C 30 37  ,4532.36503,N,07
          0020  33 33 37 2E 39 37 32 36 34 2C 57 2C 31 2C 31 30  337.97264,W,1,10
          0030  2C 31 2E 32 33 2C 35 34 2E 39 2C 4D 2C 2D 33 32  ,1.23,54.9,M,-32
          0040  2E 37 2C 4D 2C 2C 2A 35 34 0D 0A                 .7,M,,*54...
          
00:12:35  0000  24 47 50 47 53 41 2C 41 2C 33 2C 31 34 2C 32 32  $GPGSA,A,3,14,22
          0010  2C 30 31 2C 31 37 2C 31 39 2C 30 32 2C 33 30 2C  ,01,17,19,02,30,
          0020  30 33 2C 30 36 2C 30 37 2C 2C 2C 32 2E 31 33 2C  03,06,07,,,2.13,
          0030  31 2E 32 33 2C 31 2E 37 33 2A 30 45 0D 0A        1.23,1.73*0E...
          
00:12:35  0000  24 47 50 47 53 56 2C 34 2C 31 2C 31 33 2C 30 31  $GPGSV,4,1,13,01
          0010  2C 35 39 2C 30 37 33 2C 33 37 2C 30 32 2C 33 31  ,59,073,37,02,31
          0020  2C 30 34 39 2C 32 39 2C 30 33 2C 32 30 2C 31 32  ,049,29,03,20,12
          0030  31 2C 33 31 2C 30 36 2C 31 30 2C 32 30 39 2C 32  1,31,06,10,209,2
          0040  34 2A 37 45 0D 0A                                4*7E...
          
00:12:35  0000  24 47 50 47 53 56 2C 34 2C 32 2C 31 33 2C 30 37  $GPGSV,4,2,13,07
          0010  2C 30 39 2C 31 38 32 2C 32 34 2C 30 38 2C 30 33  ,09,182,24,08,03
          0020  2C 30 38 30 2C 2C 31 33 2C 30 32 2C 32 36 35 2C  ,080,,13,02,265,
          0030  31 31 2C 31 34 2C 38 34 2C 32 37 37 2C 34 31 2A  11,14,84,277,41*
          0040  37 32 0D 0A                                      72...
          
00:12:35  0000  24 47 50 47 53 56 2C 34 2C 33 2C 31 33 2C 31 37  $GPGSV,4,3,13,17
          0010  2C 35 37 2C 32 37 35 2C 33 34 2C 31 39 2C 33 35  ,57,275,34,19,35
          0020  2C 32 36 34 2C 33 33 2C 32 32 2C 36 37 2C 33 30  ,264,33,22,67,30
          0030  35 2C 33 39 2C 32 34 2C 30 36 2C 33 32 37 2C 32  5,39,24,06,327,2
          0040  31 2A 37 39 0D 0A                                1*79...
          
00:12:35  0000  24 47 50 47 53 56 2C 34 2C 34 2C 31 33 2C 33 30  $GPGSV,4,4,13,30
          0010  2C 32 37 2C 32 30 32 2C 33 33 2A 34 44 0D 0A     ,27,202,33*4D...
          
00:12:35  0000  24 47 50 47 4C 4C 2C 34 35 33 32 2E 33 36 35 30  $GPGLL,4532.3650
          0010  33 2C 4E 2C 30 37 33 33 37 2E 39 37 32 36 34 2C  3,N,07337.97264,
          0020  57 2C 30 30 31 32 33 35 2E 30 30 2C 41 2C 41 2A  W,001235.00,A,A*
          0030  37 33 0D 0A                                      73...
          
00:12:35  0000  B5 62 06 13 00 00 19 51                          µb.....Q.
          
00:12:36  0000  24 47 50 52 4D 43 2C 30 30 31 32 33 36 2E 30 30  $GPRMC,001236.00
          0010  2C 41 2C 34 35 33 32 2E 33 36 37 30 33 2C 4E 2C  ,A,4532.36703,N,
          0020  30 37 33 33 37 2E 39 38 30 31 36 2C 57 2C 32 30  07337.98016,W,20
          0030  2E 31 30 32 2C 32 39 30 2E 30 38 2C 32 38 31 31  .102,290.08,2811
          0040  32 35 2C 2C 2C 41 2A 34 32 0D 0A                 25,,,A*42...
          
00:12:36  0000  24 47 50 56 54 47 2C 32 39 30 2E 30 38 2C 54 2C  $GPVTG,290.08,T,
          0010  2C 4D 2C 32 30 2E 31 30 32 2C 4E 2C 33 37 2E 32  ,M,20.102,N,37.2
          0020  32 39 2C 4B 2C 41 2A 33 32 0D 0A                 29,K,A*32...
          
00:12:36  0000  24 47 50 47 47 41 2C 30 30 31 32 33 36 2E 30 30  $GPGGA,001236.00
          0010  2C 34 35 33 32 2E 33 36 37 30 33 2C 4E 2C 30 37  ,4532.36703,N,07
          0020  33 33 37 2E 39 38 30 31 36 2C 57 2C 31 2C 31 30  337.98016,W,1,10
          0030  2C 31 2E 32 33 2C 35 34 2E 37 2C 4D 2C 2D 33 32  ,1.23,54.7,M,-32
          0040  2E 37 2C 4D 2C 2C 2A 35 33 0D 0A                 .7,M,,*53...
          
00:12:36  0000  24 47 50 47 53 41 2C 41 2C 33 2C 31 34 2C 32 32  $GPGSA,A,3,14,22
          0010  2C 30 31 2C 31 37 2C 31 39 2C 30 32 2C 33 30 2C  ,01,17,19,02,30,
          0020  30 33 2C 30 36 2C 30 37 2C 2C 2C 32 2E 31 33 2C  03,06,07,,,2.13,
          0030  31 2E 32 33 2C 31 2E 37 33 2A 30 45 0D 0A        1.23,1.73*0E...
          
00:12:36  0000  24 47 50 47 53 56 2C 34 2C 31 2C 31 33 2C 30 31  $GPGSV,4,1,13,01
          0010  2C 35 39 2C 30 37 33 2C 33 36 2C 30 32 2C 33 31  ,59,073,36,02,31
          0020  2C 30 34 39 2C 32 30 2C 30 33 2C 32 30 2C 31 32  ,049,20,03,20,12
          0030  31 2C 33 30 2C 30 36 2C 31 30 2C 32 30 39 2C 32  1,30,06,10,209,2
          0040  32 2A 37 31 0D 0A                                2*71...
          
00:12:36  0000  24 47 50 47 53 56 2C 34 2C 32 2C 31 33 2C 30 37  $GPGSV,4,2,13,07
          0010  2C 30 39 2C 31 38 32 2C 32 32 2C 30 38 2C 30 33  ,09,182,22,08,03
          0020  2C 30 38 30 2C 2C 31 33 2C 30 32 2C 32 36 35 2C  ,080,,13,02,265,
          0030  30 38 2C 31 34 2C 38 34 2C 32 37 37 2C 33 37 2A  08,14,84,277,37*
          0040  37 44 0D 0A                                      7D...
          
00:12:36  0000  24 47 50 47 53 56 2C 34 2C 33 2C 31 33 2C 31 37  $GPGSV,4,3,13,17
          0010  2C 35 37 2C 32 37 35 2C 33 31 2C 31 39 2C 33 35  ,57,275,31,19,35
          0020  2C 32 36 34 2C 33 32 2C 32 32 2C 36 37 2C 33 30  ,264,32,22,67,30
          0030  35 2C 33 37 2C 32 34 2C 30 36 2C 33 32 37 2C 31  5,37,24,06,327,1
          0040  38 2A 37 39 0D 0A                                8*79...
          
00:12:36  0000  24 47 50 47 53 56 2C 34 2C 34 2C 31 33 2C 33 30  $GPGSV,4,4,13,30
          0010  2C 32 37 2C 32 30 32 2C 32 37 2A 34 38 0D 0A     ,27,202,27*48...
          
00:12:36  0000  24 47 50 47 4C 4C 2C 34 35 33 32 2E 33 36 37 30  $GPGLL,4532.3670
          0010  33 2C 4E 2C 30 37 33 33 37 2E 39 38 30 31 36 2C  3,N,07337.98016,
          0020  57 2C 30 30 31 32 33 36 2E 30 30 2C 41 2C 41 2A  W,001236.00,A,A*
          0030  37 41 0D 0A                                      7A...
          
00:12:37  0000  24 47 50 52 4D 43 2C 30 30 31 32 33 37 2E 30 30  $GPRMC,001237.00
          0010  2C 41 2C 34 35 33 32 2E 33 36 39 32 30 2C 4E 2C  ,A,4532.36920,N,
          0020  30 37 33 33 37 2E 39 38 37 33 35 2C 57 2C 31 39  07337.98735,W,19
          0030  2E 35 32 32 2C 32 39 32 2E 36 39 2C 32 38 31 31  .522,292.69,2811
          0040  32 35 2C 2C 2C 41 2A 34 33 0D 0A                 25,,,A*43...
          
00:12:37  0000  24 47 50 56 54 47 2C 32 39 32 2E 36 39 2C 54 2C  $GPVTG,292.69,T,
          0010  2C 4D 2C 31 39 2E 35 32 32 2C 4E 2C 33 36 2E 31  ,M,19.522,N,36.1
          0020  35 34 2C 4B 2C 41 2A 33 33 0D 0A                 54,K,A*33...
          
00:12:37  0000  B5 62 06 06 00 00 0C 2A                          µb.....*.
          
00:12:37  0000  24 47 50 47 47 41 2C 30 30 31 32 33 37 2E 30 30  $GPGGA,001237.00
          0010  2C 34 35 33 32 2E 33 36 39 32 30 2C 4E 2C 30 37  ,4532.36920,N,07
          0020  33 33 37 2E 39 38 37 33 35 2C 57 2C 31 2C 31 30  337.98735,W,1,10
          0030  2C 31 2E 32 33 2C 35 34 2E 36 2C 4D 2C 2D 33 32  ,1.23,54.6,M,-32
          0040  2E 37 2C 4D 2C 2C 2A 35 41 0D 0A                 .7,M,,*5A...
          
00:12:37  0000  24 47 50 47 53 41 2C 41 2C 33 2C 31 34 2C 32 32  $GPGSA,A,3,14,22
          0010  2C 30 31 2C 31 37 2C 31 39 2C 30 32 2C 33 30 2C  ,01,17,19,02,30,
          0020  30 33 2C 30 36 2C 30 37 2C 2C 2C 32 2E 31 33 2C  03,06,07,,,2.13,
          0030  31 2E 32 33 2C 31 2E 37 33 2A 30 45 0D 0A        1.23,1.73*0E...
          
00:12:37  0000  24 47 50 47 53 56 2C 34 2C 31 2C 31 33 2C 30 31  $GPGSV,4,1,13,01
          0010  2C 35 39 2C 30 37 33 2C 33 36 2C 30 32 2C 33 31  ,59,073,36,02,31
          0020  2C 30 34 39 2C 32 32 2C 30 33 2C 32 30 2C 31 32  ,049,22,03,20,12
          0030  31 2C 33 30 2C 30 36 2C 31 30 2C 32 30 39 2C 32  1,30,06,10,209,2
          0040  32 2A 37 33 0D 0A                                2*73...
          
00:12:37  0000  24 47 50 47 53 56 2C 34 2C 32 2C 31 33 2C 30 37  $GPGSV,4,2,13,07
          0010  2C 30 39 2C 31 38 32 2C 32 32 2C 30 38 2C 30 33  ,09,182,22,08,03
          0020  2C 30 38 30 2C 2C 31 33 2C 30 32 2C 32 36 35 2C  ,080,,13,02,265,
          0030  30 38 2C 31 34 2C 38 34 2C 32 37 37 2C 33 39 2A  08,14,84,277,39*
          0040  37 33 0D 0A                                      73...
          
00:12:37  0000  24 47 50 47 53 56 2C 34 2C 33 2C 31 33 2C 31 37  $GPGSV,4,3,13,17
          0010  2C 35 37 2C 32 37 35 2C 33 31 2C 31 39 2C 33 35  ,57,275,31,19,35
          0020  2C 32 36 34 2C 33 36 2C 32 32 2C 36 37 2C 33 30  ,264,36,22,67,30
          0030  35 2C 33 37 2C 32 34 2C 30 36 2C 33 32 37 2C 31  5,37,24,06,327,1
          0040  38 2A 37 44 0D 0A                                8*7D...
          
00:12:37  0000  24 47 50 47 53 56 2C 34 2C 34 2C 31 33 2C 33 30  $GPGSV,4,4,13,30
          0010  2C 32 37 2C 32 30 32 2C 33 36 2A 34 38 0D 0A     ,27,202,36*48...
          
00:12:37  0000  24 47 50 47 4C 4C 2C 34 35 33 32 2E 33 36 39 32  $GPGLL,4532.3692
          0010  30 2C 4E 2C 30 37 33 33 37 2E 39 38 37 33 35 2C  0,N,07337.98735,
          0020  57 2C 30 30 31 32 33 37 2E 30 30 2C 41 2C 41 2A  W,001237.00,A,A*
          0030  37 32 0D 0A                                      72...
          
00:12:38  0000  24 47 50 52 4D 43 2C 30 30 31 32 33 38 2E 30 30  $GPRMC,001238.00
          0010  2C 41 2C 34 35 33 32 2E 33 37 31 33 37 2C 4E 2C  ,A,4532.37137,N,
          0020  30 37 33 33 37 2E 39 39 34 32 37 2C 57 2C 31 39  07337.99427,W,19
          0030  2E 30 30 30 2C 32 39 33 2E 30 33 2C 32 38 31 31  .000,293.03,2811
          0040  32 35 2C 2C 2C 41 2A 34 41 0D 0A                 25,,,A*4A...
          
00:12:38  0000  B5 62 06 06 00 00 0C 2A                          µb.....*.
          
00:12:38  0000  24 47 50 56 54 47 2C 32 39 33 2E 30 33 2C 54 2C  $GPVTG,293.03,T,
          0010  2C 4D 2C 31 39 2E 30 30 30 2C 4E 2C 33 35 2E 31  ,M,19.000,N,35.1
          0020  38 38 2C 4B 2C 41 2A 33 39 0D 0A                 88,K,A*39...
          
00:12:38  0000  24 47 50 47 47 41 2C 30 30 31 32 33 38 2E 30 30  $GPGGA,001238.00
          0010  2C 34 35 33 32 2E 33 37 31 33 37 2C 4E 2C 30 37  ,4532.37137,N,07
          0020  33 33 37 2E 39 39 34 32 37 2C 57 2C 31 2C 31 30  337.99427,W,1,10
          0030  2C 31 2E 32 37 2C 35 34 2E 33 2C 4D 2C 2D 33 32  ,1.27,54.3,M,-32
          0040  2E 37 2C 4D 2C 2C 2A 35 41 0D 0A                 .7,M,,*5A...
          
00:12:38  0000  24 47 50 47 53 41 2C 41 2C 33 2C 31 34 2C 32 32  $GPGSA,A,3,14,22
          0010  2C 30 31 2C 31 37 2C 31 39 2C 30 32 2C 33 30 2C  ,01,17,19,02,30,
          0020  30 33 2C 30 36 2C 30 37 2C 2C 2C 32 2E 31 36 2C  03,06,07,,,2.16,
          0030  31 2E 32 37 2C 31 2E 37 35 2A 30 39 0D 0A        1.27,1.75*09...
          
00:12:38  0000  24 47 50 47 53 56 2C 34 2C 31 2C 31 33 2C 30 31  $GPGSV,4,1,13,01
          0010  2C 35 39 2C 30 37 33 2C 33 36 2C 30 32 2C 33 31  ,59,073,36,02,31
          0020  2C 30 34 39 2C 32 33 2C 30 33 2C 32 30 2C 31 32  ,049,23,03,20,12
          0030  31 2C 33 32 2C 30 36 2C 31 30 2C 32 30 39 2C 32  1,32,06,10,209,2
          0040  32 2A 37 30 0D 0A                                2*70...
          
00:12:38  0000  24 47 50 47 53 56 2C 34 2C 32 2C 31 33 2C 30 37  $GPGSV,4,2,13,07
          0010  2C 30 39 2C 31 38 32 2C 32 33 2C 30 38 2C 30 33  ,09,182,23,08,03
          0020  2C 30 38 30 2C 2C 31 33 2C 30 32 2C 32 36 35 2C  ,080,,13,02,265,
          0030  31 30 2C 31 34 2C 38 34 2C 32 37 37 2C 34 31 2A  10,14,84,277,41*
          0040  37 34 0D 0A                                      74...
          
00:12:38  0000  24 47 50 47 53 56 2C 34 2C 33 2C 31 33 2C 31 37  $GPGSV,4,3,13,17
          0010  2C 35 37 2C 32 37 35 2C 33 35 2C 31 39 2C 33 35  ,57,275,35,19,35
          0020  2C 32 36 34 2C 33 33 2C 32 32 2C 36 37 2C 33 30  ,264,33,22,67,30
          0030  35 2C 33 39 2C 32 34 2C 30 36 2C 33 32 37 2C 31  5,39,24,06,327,1
          0040  39 2A 37 33 0D 0A                                9*73...
          
00:12:38  0000  24 47 50 47 53 56 2C 34 2C 34 2C 31 33 2C 33 30  $GPGSV,4,4,13,30
          0010  2C 32 37 2C 32 30 32 2C 33 39 2A 34 37 0D 0A     ,27,202,39*47...
          
00:12:38  0000  24 47 50 47 4C 4C 2C 34 35 33 32 2E 33 37 31 33  $GPGLL,4532.3713
          0010  37 2C 4E 2C 30 37 33 33 37 2E 39 39 34 32 37 2C  7,N,07337.99427,
          0020  57 2C 30 30 31 32 33 38 2E 30 30 2C 41 2C 41 2A  W,001238.00,A,A*
          0030  37 33 0D 0A                                      73...
          
00:12:39  0000  24 47 50 52 4D 43 2C 30 30 31 32 33 39 2E 30 30  $GPRMC,001239.00
          0010  2C 41 2C 34 35 33 32 2E 33 37 33 30 39 2C 4E 2C  ,A,4532.37309,N,
          0020  30 37 33 33 38 2E 30 30 31 32 30 2C 57 2C 31 38  07338.00120,W,18
          0030  2E 36 34 39 2C 32 39 31 2E 35 32 2C 32 38 31 31  .649,291.52,2811
          0040  32 35 2C 2C 2C 41 2A 34 35 0D 0A                 25,,,A*45...
          
00:12:39  0000  24 47 50 56 54 47 2C 32 39 31 2E 35 32 2C 54 2C  $GPVTG,291.52,T,
          0010  2C 4D 2C 31 38 2E 36 34 39 2C 4E 2C 33 34 2E 35  ,M,18.649,N,34.5
          0020  33 39 2C 4B 2C 41 2A 33 41 0D 0A                 39,K,A*3A...
          
00:12:39  0000  B5 62 06 70 00 00 76 68                          µb.p..vh.
          
00:12:39  0000  24 47 50 47 47 41 2C 30 30 31 32 33 39 2E 30 30  $GPGGA,001239.00
          0010  2C 34 35 33 32 2E 33 37 33 30 39 2C 4E 2C 30 37  ,4532.37309,N,07
          0020  33 33 38 2E 30 30 31 32 30 2C 57 2C 31 2C 30 39  338.00120,W,1,09
          0030  2C 31 2E 32 37 2C 35 34 2E 38 2C 4D 2C 2D 33 32  ,1.27,54.8,M,-32
          0040  2E 37 2C 4D 2C 2C 2A 35 41 0D 0A                 .7,M,,*5A...
          
00:12:39  0000  24 47 50 47 53 41 2C 41 2C 33 2C 31 34 2C 32 32  $GPGSA,A,3,14,22
          0010  2C 30 31 2C 31 37 2C 31 39 2C 30 32 2C 33 30 2C  ,01,17,19,02,30,
          0020  30 33 2C 30 36 2C 2C 2C 2C 32 2E 31 36 2C 31 2E  03,06,,,,2.16,1.
          0030  32 37 2C 31 2E 37 35 2A 30 45 0D 0A              27,1.75*0E...
          
00:12:39  0000  24 47 50 47 53 56 2C 34 2C 31 2C 31 33 2C 30 31  $GPGSV,4,1,13,01
          0010  2C 35 39 2C 30 37 33 2C 33 35 2C 30 32 2C 33 31  ,59,073,35,02,31
          0020  2C 30 34 39 2C 33 34 2C 30 33 2C 32 30 2C 31 32  ,049,34,03,20,12
          0030  31 2C 33 35 2C 30 36 2C 31 30 2C 32 30 39 2C 33  1,35,06,10,209,3
          0040  30 2A 37 31 0D 0A                                0*71...
          
00:12:39  0000  24 47 50 47 53 56 2C 34 2C 32 2C 31 33 2C 30 37  $GPGSV,4,2,13,07
          0010  2C 30 39 2C 31 38 32 2C 2C 30 38 2C 30 33 2C 30  ,09,182,,08,03,0
          0020  38 30 2C 2C 31 33 2C 30 32 2C 32 36 35 2C 30 39  80,,13,02,265,09
          0030  2C 31 34 2C 38 34 2C 32 37 37 2C 34 31 2A 37 44  ,14,84,277,41*7D
          0040  0D 0A                                            ...
          
00:12:39  0000  24 47 50 47 53 56 2C 34 2C 33 2C 31 33 2C 31 37  $GPGSV,4,3,13,17
          0010  2C 35 37 2C 32 37 35 2C 33 37 2C 31 39 2C 33 35  ,57,275,37,19,35
          0020  2C 32 36 34 2C 33 32 2C 32 32 2C 36 37 2C 33 30  ,264,32,22,67,30
          0030  35 2C 33 39 2C 32 34 2C 30 36 2C 33 32 37 2C 32  5,39,24,06,327,2
          0040  30 2A 37 41 0D 0A                                0*7A...
          
00:12:39  0000  24 47 50 47 53 56 2C 34 2C 34 2C 31 33 2C 33 30  $GPGSV,4,4,13,30
          0010  2C 32 37 2C 32 30 32 2C 33 36 2A 34 38 0D 0A     ,27,202,36*48...
          
00:12:39  0000  24 47 50 47 4C 4C 2C 34 35 33 32 2E 33 37 33 30  $GPGLL,4532.3730
          0010  39 2C 4E 2C 30 37 33 33 38 2E 30 30 31 32 30 2C  9,N,07338.00120,
          0020  57 2C 30 30 31 32 33 39 2E 30 30 2C 41 2C 41 2A  W,001239.00,A,A*
          0030  37 30 0D 0A                                      70...
          
00:12:40  0000  24 47 50 52 4D 43 2C 30 30 31 32 34 30 2E 30 30  $GPRMC,001240.00
          0010  2C 41 2C 34 35 33 32 2E 33 37 34 36 32 2C 4E 2C  ,A,4532.37462,N,
          0020  30 37 33 33 38 2E 30 30 37 38 37 2C 57 2C 31 37  07338.00787,W,17
          0030  2E 38 36 39 2C 32 39 30 2E 35 35 2C 32 38 31 31  .869,290.55,2811
          0040  32 35 2C 2C 2C 41 2A 34 46 0D 0A                 25,,,A*4F...
          
00:12:40  0000  24 47 50 56 54 47 2C 32 39 30 2E 35 35 2C 54 2C  $GPVTG,290.55,T,
          0010  2C 4D 2C 31 37 2E 38 36 39 2C 4E 2C 33 33 2E 30  ,M,17.869,N,33.0
          0020  39 33 2C 4B 2C 41 2A 33 44 0D 0A                 93,K,A*3D...
          
00:12:40  0000  B5 62 06 70 00 00 76 68                          µb.p..vh.
          
00:12:40  0000  24 47 50 47 47 41 2C 30 30 31 32 34 30 2E 30 30  $GPGGA,001240.00
          0010  2C 34 35 33 32 2E 33 37 34 36 32 2C 4E 2C 30 37  ,4532.37462,N,07
          0020  33 33 38 2E 30 30 37 38 37 2C 57 2C 31 2C 31 30  338.00787,W,1,10
          0030  2C 31 2E 32 37 2C 35 35 2E 38 2C 4D 2C 2D 33 32  ,1.27,55.8,M,-32
          0040  2E 37 2C 4D 2C 2C 2A 35 43 0D 0A                 .7,M,,*5C...
          
00:12:40  0000  24 47 50 47 53 41 2C 41 2C 33 2C 31 34 2C 32 32  $GPGSA,A,3,14,22
          0010  2C 30 31 2C 31 37 2C 31 39 2C 30 32 2C 33 30 2C  ,01,17,19,02,30,
          0020  30 33 2C 30 36 2C 30 37 2C 2C 2C 32 2E 31 36 2C  03,06,07,,,2.16,
          0030  31 2E 32 37 2C 31 2E 37 35 2A 30 39 0D 0A        1.27,1.75*09...
          
00:12:40  0000  24 47 50 47 53 56 2C 34 2C 31 2C 31 33 2C 30 31  $GPGSV,4,1,13,01
          0010  2C 35 39 2C 30 37 33 2C 33 37 2C 30 32 2C 33 31  ,59,073,37,02,31
          0020  2C 30 34 39 2C 32 33 2C 30 33 2C 32 30 2C 31 32  ,049,23,03,20,12
          0030  31 2C 33 31 2C 30 36 2C 31 30 2C 32 30 39 2C 33  1,31,06,10,209,3
          0040  34 2A 37 35 0D 0A                                4*75...
          
00:12:40  0000  24 47 50 47 53 56 2C 34 2C 32 2C 31 33 2C 30 37  $GPGSV,4,2,13,07
          0010  2C 30 39 2C 31 38 32 2C 32 31 2C 30 38 2C 30 33  ,09,182,21,08,03
          0020  2C 30 38 30 2C 2C 31 33 2C 30 32 2C 32 36 35 2C  ,080,,13,02,265,
          0030  30 39 2C 31 34 2C 38 34 2C 32 37 37 2C 34 31 2A  09,14,84,277,41*
          0040  37 45 0D 0A                                      7E...
          
00:12:40  0000  24 47 50 47 53 56 2C 34 2C 33 2C 31 33 2C 31 37  $GPGSV,4,3,13,17
          0010  2C 35 37 2C 32 37 35 2C 33 35 2C 31 39 2C 33 35  ,57,275,35,19,35
          0020  2C 32 36 34 2C 33 32 2C 32 32 2C 36 37 2C 33 30  ,264,32,22,67,30
          0030  35 2C 33 39 2C 32 34 2C 30 36 2C 33 32 37 2C 32  5,39,24,06,327,2
          0040  32 2A 37 41 0D 0A                                2*7A...
          
00:12:40  0000  24 47 50 47 53 56 2C 34 2C 34 2C 31 33 2C 33 30  $GPGSV,4,4,13,30
          0010  2C 32 37 2C 32 30 32 2C 33 35 2A 34 42 0D 0A     ,27,202,35*4B...
          
00:12:40  0000  24 47 50 47 4C 4C 2C 34 35 33 32 2E 33 37 34 36  $GPGLL,4532.3746
          0010  32 2C 4E 2C 30 37 33 33 38 2E 30 30 37 38 37 2C  2,N,07338.00787,
          0020  57 2C 30 30 31 32 34 30 2E 30 30 2C 41 2C 41 2A  W,001240.00,A,A*
          0030  37 46 0D 0A                                      7F...
          
00:12:41  0000  24 47 50 52 4D 43 2C 30 30 31 32 34 31 2E 30 30  $GPRMC,001241.00
          0010  2C 41 2C 34 35 33 32 2E 33 37 36 34 31 2C 4E 2C  ,A,4532.37641,N,
          0020  30 37 33 33 38 2E 30 31 34 32 38 2C 57 2C 31 37  07338.01428,W,17
          0030  2E 31 37 34 2C 32 39 31 2E 37 39 2C 32 38 31 31  .174,291.79,2811
          0040  32 35 2C 2C 2C 41 2A 34 30 0D 0A                 25,,,A*40...
          
00:12:41  0000  24 47 50 56 54 47 2C 32 39 31 2E 37 39 2C 54 2C  $GPVTG,291.79,T,
          0010  2C 4D 2C 31 37 2E 31 37 34 2C 4E 2C 33 31 2E 38  ,M,17.174,N,31.8
          0020  30 36 2C 4B 2C 41 2A 33 31 0D 0A                 06,K,A*31...
          
00:12:41  0000  B5 62 06 61 00 00 67 3B                          µb.a..g;.
          
00:12:41  0000  24 47 50 47 47 41 2C 30 30 31 32 34 31 2E 30 30  $GPGGA,001241.00
          0010  2C 34 35 33 32 2E 33 37 36 34 31 2C 4E 2C 30 37  ,4532.37641,N,07
          0020  33 33 38 2E 30 31 34 32 38 2C 57 2C 31 2C 31 30  338.01428,W,1,10
          0030  2C 31 2E 32 37 2C 35 36 2E 30 2C 4D 2C 2D 33 32  ,1.27,56.0,M,-32
          0040  2E 37 2C 4D 2C 2C 2A 35 32 0D 0A                 .7,M,,*52...
          
00:12:41  0000  24 47 50 47 53 41 2C 41 2C 33 2C 31 34 2C 32 32  $GPGSA,A,3,14,22
          0010  2C 30 31 2C 31 37 2C 31 39 2C 30 32 2C 33 30 2C  ,01,17,19,02,30,
          0020  30 33 2C 30 36 2C 30 37 2C 2C 2C 32 2E 31 36 2C  03,06,07,,,2.16,
          0030  31 2E 32 37 2C 31 2E 37 35 2A 30 39 0D 0A        1.27,1.75*09...
          
00:12:41  0000  24 47 50 47 53 56 2C 34 2C 31 2C 31 33 2C 30 31  $GPGSV,4,1,13,01
          0010  2C 35 39 2C 30 37 33 2C 33 34 2C 30 32 2C 33 31  ,59,073,34,02,31
          0020  2C 30 34 39 2C 32 35 2C 30 33 2C 32 30 2C 31 32  ,049,25,03,20,12
          0030  31 2C 33 31 2C 30 36 2C 31 30 2C 32 30 39 2C 33  1,31,06,10,209,3
          0040  33 2A 37 37 0D 0A                                3*77...
          
00:12:41  0000  24 47 50 47 53 56 2C 34 2C 32 2C 31 33 2C 30 37  $GPGSV,4,2,13,07
          0010  2C 30 39 2C 31 38 32 2C 32 34 2C 30 38 2C 30 33  ,09,182,24,08,03
          0020  2C 30 38 30 2C 2C 31 33 2C 30 32 2C 32 36 35 2C  ,080,,13,02,265,
          0030  30 39 2C 31 34 2C 38 34 2C 32 37 37 2C 33 35 2A  09,14,84,277,35*
          0040  37 38 0D 0A                                      78...
          
00:12:41  0000  24 47 50 47 53 56 2C 34 2C 33 2C 31 33 2C 31 37  $GPGSV,4,3,13,17
          0010  2C 35 37 2C 32 37 35 2C 33 35 2C 31 39 2C 33 35  ,57,275,35,19,35
          0020  2C 32 36 34 2C 33 31 2C 32 32 2C 36 37 2C 33 30  ,264,31,22,67,30
          0030  35 2C 33 35 2C 32 34 2C 30 36 2C 33 32 37 2C 32  5,35,24,06,327,2
          0040  39 2A 37 45 0D 0A                                9*7E...
          
00:12:41  0000  24 47 50 47 53 56 2C 34 2C 34 2C 31 33 2C 33 30  $GPGSV,4,4,13,30
          0010  2C 32 37 2C 32 30 32 2C 33 35 2A 34 42 0D 0A     ,27,202,35*4B...
          
00:12:41  0000  24 47 50 47 4C 4C 2C 34 35 33 32 2E 33 37 36 34  $GPGLL,4532.3764
          0010  31 2C 4E 2C 30 37 33 33 38 2E 30 31 34 32 38 2C  1,N,07338.01428,
          0020  57 2C 30 30 31 32 34 31 2E 30 30 2C 41 2C 41 2A  W,001241.00,A,A*
          0030  37 41 0D 0A                                      7A...
          
00:12:42  0000  24 47 50 52 4D 43 2C 30 30 31 32 34 32 2E 30 30  $GPRMC,001242.00
          0010  2C 41 2C 34 35 33 32 2E 33 37 38 31 38 2C 4E 2C  ,A,4532.37818,N,
          0020  30 37 33 33 38 2E 30 32 30 32 38 2C 57 2C 31 36  07338.02028,W,16
          0030  2E 31 31 38 2C 32 39 31 2E 39 36 2C 32 38 31 31  .118,291.96,2811
          0040  32 35 2C 2C 2C 41 2A 34 43 0D 0A                 25,,,A*4C...
          
00:12:42  0000  24 47 50 56 54 47 2C 32 39 31 2E 39 36 2C 54 2C  $GPVTG,291.96,T,
          0010  2C 4D 2C 31 36 2E 31 31 38 2C 4E 2C 32 39 2E 38  ,M,16.118,N,29.8
          0020  35 31 2C 4B 2C 41 2A 33 30 0D 0A                 51,K,A*30...
          
00:12:42  0000  B5 62 06 61 00 00 67 3B                          µb.a..g;.
          
00:12:42  0000  24 47 50 47 47 41 2C 30 30 31 32 34 32 2E 30 30  $GPGGA,001242.00
          0010  2C 34 35 33 32 2E 33 37 38 31 38 2C 4E 2C 30 37  ,4532.37818,N,07
          0020  33 33 38 2E 30 32 30 32 38 2C 57 2C 31 2C 30 39  338.02028,W,1,09
          0030  2C 31 2E 32 37 2C 35 36 2E 32 2C 4D 2C 2D 33 32  ,1.27,56.2,M,-32
          0040  2E 37 2C 4D 2C 2C 2A 35 45 0D 0A                 .7,M,,*5E...
          
00:12:42  0000  24 47 50 47 53 41 2C 41 2C 33 2C 31 34 2C 32 32  $GPGSA,A,3,14,22
          0010  2C 30 31 2C 31 37 2C 31 39 2C 30 32 2C 33 30 2C  ,01,17,19,02,30,
          0020  30 33 2C 30 36 2C 2C 2C 2C 32 2E 31 36 2C 31 2E  03,06,,,,2.16,1.
          0030  32 37 2C 31 2E 37 35 2A 30 45 0D 0A              27,1.75*0E...
          
00:12:42  0000  24 47 50 47 53 56 2C 34 2C 31 2C 31 33 2C 30 31  $GPGSV,4,1,13,01
          0010  2C 35 39 2C 30 37 33 2C 33 36 2C 30 32 2C 33 31  ,59,073,36,02,31
          0020  2C 30 34 39 2C 33 31 2C 30 33 2C 32 30 2C 31 32  ,049,31,03,20,12
          0030  31 2C 33 32 2C 30 36 2C 31 30 2C 32 30 39 2C 32  1,32,06,10,209,2
          0040  39 2A 37 38 0D 0A                                9*78...
          
00:12:42  0000  24 47 50 47 53 56 2C 34 2C 32 2C 31 33 2C 30 37  $GPGSV,4,2,13,07
          0010  2C 30 39 2C 31 38 32 2C 2C 30 38 2C 30 33 2C 30  ,09,182,,08,03,0
          0020  38 30 2C 2C 31 33 2C 30 32 2C 32 36 35 2C 30 39  80,,13,02,265,09
          0030  2C 31 34 2C 38 34 2C 32 37 37 2C 33 39 2A 37 32  ,14,84,277,39*72
          0040  0D 0A                                            ...
          
00:12:42  0000  24 47 50 47 53 56 2C 34 2C 33 2C 31 33 2C 31 37  $GPGSV,4,3,13,17
          0010  2C 35 37 2C 32 37 35 2C 33 35 2C 31 39 2C 33 35  ,57,275,35,19,35
          0020  2C 32 36 34 2C 32 37 2C 32 32 2C 36 37 2C 33 30  ,264,27,22,67,30
          0030  35 2C 34 30 2C 32 34 2C 30 36 2C 33 32 37 2C 32  5,40,24,06,327,2
          0040  39 2A 37 42 0D 0A                                9*7B...
          
00:12:42  0000  24 47 50 47 53 56 2C 34 2C 34 2C 31 33 2C 33 30  $GPGSV,4,4,13,30
          0010  2C 32 37 2C 32 30 32 2C 33 39 2A 34 37 0D 0A     ,27,202,39*47...
          
00:12:42  0000  24 47 50 47 4C 4C 2C 34 35 33 32 2E 33 37 38 31  $GPGLL,4532.3781
          0010  38 2C 4E 2C 30 37 33 33 38 2E 30 32 30 32 38 2C  8,N,07338.02028,
          0020  57 2C 30 30 31 32 34 32 2E 30 30 2C 41 2C 41 2A  W,001242.00,A,A*
          0030  37 43 0D 0A                                      7C...
          
00:12:43  0000  24 47 50 52 4D 43 2C 30 30 31 32 34 33 2E 30 30  $GPRMC,001243.00
          0010  2C 41 2C 34 35 33 32 2E 33 37 39 35 37 2C 4E 2C  ,A,4532.37957,N,
          0020  30 37 33 33 38 2E 30 32 35 34 30 2C 57 2C 31 33  07338.02540,W,13
          0030  2E 31 33 36 2C 32 39 33 2E 33 38 2C 32 38 31 31  .136,293.38,2811
          0040  32 35 2C 2C 2C 41 2A 34 33 0D 0A                 25,,,A*43...
          
00:12:43  0000  24 47 50 56 54 47 2C 32 39 33 2E 33 38 2C 54 2C  $GPVTG,293.38,T,
          0010  2C 4D 2C 31 33 2E 31 33 36 2C 4E 2C 32 34 2E 33  ,M,13.136,N,24.3
          0020  32 38 2C 4B 2C 41 2A 33 37 0D 0A                 28,K,A*37...
          
00:12:43  0000  24 47 50 47 47 41 2C 30 30 31 32 34 33 2E 30 30  $GPGGA,001243.00
          0010  2C 34 35 33 32 2E 33 37 39 35 37 2C 4E 2C 30 37  ,4532.37957,N,07
          0020  33 33 38 2E 30 32 35 34 30 2C 57 2C 31 2C 30 39  338.02540,W,1,09
          0030  2C 31 2E 32 37 2C 35 36 2E 35 2C 4D 2C 2D 33 32  ,1.27,56.5,M,-32
          0040  2E 37 2C 4D 2C 2C 2A 35 39 0D 0A                 .7,M,,*59...
          
00:12:43  0000  24 47 50 47 53 41 2C 41 2C 33 2C 31 34 2C 32 32  $GPGSA,A,3,14,22
          0010  2C 30 31 2C 31 37 2C 31 39 2C 30 32 2C 33 30 2C  ,01,17,19,02,30,
          0020  30 33 2C 30 36 2C 2C 2C 2C 32 2E 31 36 2C 31 2E  03,06,,,,2.16,1.
          0030  32 37 2C 31 2E 37 35 2A 30 45 0D 0A              27,1.75*0E...
          
00:12:43  0000  24 47 50 47 53 56 2C 34 2C 31 2C 31 33 2C 30 31  $GPGSV,4,1,13,01
          0010  2C 35 39 2C 30 37 33 2C 33 37 2C 30 32 2C 33 31  ,59,073,37,02,31
          0020  2C 30 34 39 2C 32 35 2C 30 33 2C 32 30 2C 31 32  ,049,25,03,20,12
          0030  31 2C 33 31 2C 30 36 2C 31 30 2C 32 30 39 2C 31  1,31,06,10,209,1
          0040  39 2A 37 43 0D 0A                                9*7C...
          
00:12:43  0000  24 47 50 47 53 56 2C 34 2C 32 2C 31 33 2C 30 37  $GPGSV,4,2,13,07
          0010  2C 30 39 2C 31 38 32 2C 2C 30 38 2C 30 33 2C 30  ,09,182,,08,03,0
          0020  38 30 2C 2C 31 33 2C 30 32 2C 32 36 35 2C 2C 31  80,,13,02,265,,1
          0030  34 2C 38 34 2C 32 37 37 2C 33 39 2A 37 42 0D 0A  4,84,277,39*7B...
          
00:12:43  0000  24 47 50 47 53 56 2C 34 2C 33 2C 31 33 2C 31 37  $GPGSV,4,3,13,17
          0010  2C 35 37 2C 32 37 35 2C 33 34 2C 31 39 2C 33 35  ,57,275,34,19,35
          0020  2C 32 36 34 2C 32 36 2C 32 32 2C 36 37 2C 33 30  ,264,26,22,67,30
          0030  35 2C 34 30 2C 32 34 2C 30 36 2C 33 32 37 2C 32  5,40,24,06,327,2
          0040  38 2A 37 41 0D 0A                                8*7A...
          
00:12:43  0000  24 47 50 47 53 56 2C 34 2C 34 2C 31 33 2C 33 30  $GPGSV,4,4,13,30
          0010  2C 32 37 2C 32 30 32 2C 33 35 2A 34 42 0D 0A     ,27,202,35*4B...
          
00:12:43  0000  24 47 50 47 4C 4C 2C 34 35 33 32 2E 33 37 39 35  $GPGLL,4532.3795
          0010  37 2C 4E 2C 30 37 33 33 38 2E 30 32 35 34 30 2C  7,N,07338.02540,
          0020  57 2C 30 30 31 32 34 33 2E 30 30 2C 41 2C 41 2A  W,001243.00,A,A*
          0030  37 43 0D 0A                                      7C...
          
00:12:43  0000  B5 62 06 12 00 00 18 4E                          µb.....N.
          
00:12:44  0000  24 47 50 52 4D 43 2C 30 30 31 32 34 34 2E 30 30  $GPRMC,001244.00
          0010  2C 41 2C 34 35 33 32 2E 33 38 30 35 36 2C 4E 2C  ,A,4532.38056,N,
          0020  30 37 33 33 38 2E 30 32 39 36 32 2C 57 2C 31 30  07338.02962,W,10
          0030  2E 36 30 31 2C 32 39 31 2E 30 32 2C 32 38 31 31  .601,291.02,2811
          0040  32 35 2C 2C 2C 41 2A 34 34 0D 0A                 25,,,A*44...
          
00:12:44  0000  24 47 50 56 54 47 2C 32 39 31 2E 30 32 2C 54 2C  $GPVTG,291.02,T,
          0010  2C 4D 2C 31 30 2E 36 30 31 2C 4E 2C 31 39 2E 36  ,M,10.601,N,19.6
          0020  33 34 2C 4B 2C 41 2A 33 41 0D 0A                 34,K,A*3A...
          
00:12:44  0000  24 47 50 47 47 41 2C 30 30 31 32 34 34 2E 30 30  $GPGGA,001244.00
          0010  2C 34 35 33 32 2E 33 38 30 35 36 2C 4E 2C 30 37  ,4532.38056,N,07
          0020  33 33 38 2E 30 32 39 36 32 2C 57 2C 31 2C 30 39  338.02962,W,1,09
          0030  2C 31 2E 32 37 2C 35 37 2E 30 2C 4D 2C 2D 33 32  ,1.27,57.0,M,-32
          0040  2E 37 2C 4D 2C 2C 2A 35 31 0D 0A                 .7,M,,*51...
          
00:12:44  0000  24 47 50 47 53 41 2C 41 2C 33 2C 31 34 2C 32 32  $GPGSA,A,3,14,22
          0010  2C 30 31 2C 31 37 2C 31 39 2C 30 32 2C 33 30 2C  ,01,17,19,02,30,
          0020  30 33 2C 30 36 2C 2C 2C 2C 32 2E 31 36 2C 31 2E  03,06,,,,2.16,1.
          0030  32 37 2C 31 2E 37 35 2A 30 45 0D 0A              27,1.75*0E...
          
00:12:44  0000  24 47 50 47 53 56 2C 34 2C 31 2C 31 33 2C 30 31  $GPGSV,4,1,13,01
          0010  2C 35 39 2C 30 37 33 2C 33 35 2C 30 32 2C 33 31  ,59,073,35,02,31
          0020  2C 30 34 39 2C 32 36 2C 30 33 2C 32 30 2C 31 32  ,049,26,03,20,12
          0030  31 2C 33 31 2C 30 36 2C 31 30 2C 32 30 39 2C 31  1,31,06,10,209,1
          0040  39 2A 37 44 0D 0A                                9*7D...
          
00:12:44  0000  24 47 50 47 53 56 2C 34 2C 32 2C 31 33 2C 30 37  $GPGSV,4,2,13,07
          0010  2C 30 39 2C 31 38 32 2C 2C 30 38 2C 30 33 2C 30  ,09,182,,08,03,0
          0020  38 30 2C 2C 31 33 2C 30 32 2C 32 36 35 2C 2C 31  80,,13,02,265,,1
          0030  34 2C 38 34 2C 32 37 37 2C 33 39 2A 37 42 0D 0A  4,84,277,39*7B...
          
00:12:44  0000  24 47 50 47 53 56 2C 34 2C 33 2C 31 33 2C 31 37  $GPGSV,4,3,13,17
          0010  2C 35 37 2C 32 37 35 2C 33 34 2C 31 39 2C 33 35  ,57,275,34,19,35
          0020  2C 32 36 34 2C 32 37 2C 32 32 2C 36 37 2C 33 30  ,264,27,22,67,30
          0030  35 2C 33 38 2C 32 34 2C 30 36 2C 33 32 37 2C 32  5,38,24,06,327,2
          0040  37 2A 37 42 0D 0A                                7*7B...
          
00:12:44  0000  24 47 50 47 53 56 2C 34 2C 34 2C 31 33 2C 33 30  $GPGSV,4,4,13,30
          0010  2C 32 37 2C 32 30 32 2C 32 39 2A 34 36 0D 0A     ,27,202,29*46...
          
00:12:44  0000  24 47 50 47 4C 4C 2C 34 35 33 32 2E 33 38 30 35  $GPGLL,4532.3805
          0010  36 2C 4E 2C 30 37 33 33 38 2E 30 32 39 36 32 2C  6,N,07338.02962,
          0020  57 2C 30 30 31 32 34 34 2E 30 30 2C 41 2C 41 2A  W,001244.00,A,A*
          0030  37 30 0D 0A                                      70...
          
00:12:45  0000  24 47 50 52 4D 43 2C 30 30 31 32 34 35 2E 30 30  $GPRMC,001245.00
          0010  2C 41 2C 34 35 33 32 2E 33 38 31 36 37 2C 4E 2C  ,A,4532.38167,N,
          0020  30 37 33 33 38 2E 30 33 33 32 34 2C 57 2C 39 2E  07338.03324,W,9.
          0030  32 39 34 2C 32 39 33 2E 37 33 2C 32 38 31 31 32  294,293.73,28112
          0040  35 2C 2C 2C 41 2A 37 42 0D 0A                    5,,,A*7B...
          
00:12:45  0000  24 47 50 56 54 47 2C 32 39 33 2E 37 33 2C 54 2C  $GPVTG,293.73,T,
          0010  2C 4D 2C 39 2E 32 39 34 2C 4E 2C 31 37 2E 32 31  ,M,9.294,N,17.21
          0020  32 2C 4B 2C 41 2A 30 30 0D 0A                    2,K,A*00...
          
00:12:45  0000  B5 62 06 12 00 00 18 4E                          µb.....N.
          
00:12:45  0000  24 47 50 47 47 41 2C 30 30 31 32 34 35 2E 30 30  $GPGGA,001245.00
          0010  2C 34 35 33 32 2E 33 38 31 36 37 2C 4E 2C 30 37  ,4532.38167,N,07
          0020  33 33 38 2E 30 33 33 32 34 2C 57 2C 31 2C 30 38  338.03324,W,1,08
          0030  2C 31 2E 32 39 2C 35 36 2E 36 2C 4D 2C 2D 33 32  ,1.29,56.6,M,-32
          0040  2E 37 2C 4D 2C 2C 2A 35 32 0D 0A                 .7,M,,*52...
          
00:12:45  0000  24 47 50 47 53 41 2C 41 2C 33 2C 31 34 2C 32 32  $GPGSA,A,3,14,22
          0010  2C 30 31 2C 31 37 2C 31 39 2C 30 32 2C 33 30 2C  ,01,17,19,02,30,
          0020  30 33 2C 2C 2C 2C 2C 32 2E 33 36 2C 31 2E 32 39  03,,,,,2.36,1.29
          0030  2C 31 2E 39 38 2A 30 37 0D 0A                    ,1.98*07...
          
00:12:45  0000  24 47 50 47 53 56 2C 34 2C 31 2C 31 33 2C 30 31  $GPGSV,4,1,13,01
          0010  2C 35 39 2C 30 37 33 2C 33 37 2C 30 32 2C 33 31  ,59,073,37,02,31
          0020  2C 30 34 39 2C 33 31 2C 30 33 2C 32 30 2C 31 32  ,049,31,03,20,12
          0030  31 2C 33 31 2C 30 36 2C 31 30 2C 32 30 39 2C 31  1,31,06,10,209,1
          0040  38 2A 37 38 0D 0A                                8*78...
          
00:12:45  0000  24 47 50 47 53 56 2C 34 2C 32 2C 31 33 2C 30 37  $GPGSV,4,2,13,07
          0010  2C 30 39 2C 31 38 32 2C 2C 30 38 2C 30 33 2C 30  ,09,182,,08,03,0
          0020  38 30 2C 2C 31 33 2C 30 32 2C 32 36 35 2C 2C 31  80,,13,02,265,,1
          0030  34 2C 38 34 2C 32 37 37 2C 33 38 2A 37 41 0D 0A  4,84,277,38*7A...
          
00:12:45  0000  24 47 50 47 53 56 2C 34 2C 33 2C 31 33 2C 31 37  $GPGSV,4,3,13,17
          0010  2C 35 37 2C 32 37 35 2C 33 34 2C 31 39 2C 33 35  ,57,275,34,19,35
          0020  2C 32 36 34 2C 32 38 2C 32 32 2C 36 37 2C 33 30  ,264,28,22,67,30
          0030  35 2C 33 39 2C 32 34 2C 30 36 2C 33 32 37 2C 32  5,39,24,06,327,2
          0040  36 2A 37 34 0D 0A                                6*74...
          
00:12:45  0000  24 47 50 47 53 56 2C 34 2C 34 2C 31 33 2C 33 30  $GPGSV,4,4,13,30
          0010  2C 32 37 2C 32 30 32 2C 32 38 2A 34 37 0D 0A     ,27,202,28*47...
          
00:12:45  0000  24 47 50 47 4C 4C 2C 34 35 33 32 2E 33 38 31 36  $GPGLL,4532.3816
          0010  37 2C 4E 2C 30 37 33 33 38 2E 30 33 33 32 34 2C  7,N,07338.03324,
          0020  57 2C 30 30 31 32 34 35 2E 30 30 2C 41 2C 41 2A  W,001245.00,A,A*
          0030  37 42 0D 0A                                      7B...
          
00:12:46  0000  24 47 50 52 4D 43 2C 30 30 31 32 34 36 2E 30 30  $GPRMC,001246.00
          0010  2C 41 2C 34 35 33 32 2E 33 38 32 35 31 2C 4E 2C  ,A,4532.38251,N,
          0020  30 37 33 33 38 2E 30 33 36 35 34 2C 57 2C 38 2E  07338.03654,W,8.
          0030  36 39 35 2C 32 39 33 2E 35 39 2C 32 38 31 31 32  695,293.59,28112
          0040  35 2C 2C 2C 41 2A 37 30 0D 0A                    5,,,A*70...
          
00:12:46  0000  24 47 50 56 54 47 2C 32 39 33 2E 35 39 2C 54 2C  $GPVTG,293.59,T,
          0010  2C 4D 2C 38 2E 36 39 35 2C 4E 2C 31 36 2E 31 30  ,M,8.695,N,16.10
          0020  33 2C 4B 2C 41 2A 30 45 0D 0A                    3,K,A*0E...
          
00:12:46  0000  24 47 50 47 47 41 2C 30 30 31 32 34 36 2E 30 30  $GPGGA,001246.00
          0010  2C 34 35 33 32 2E 33 38 32 35 31 2C 4E 2C 30 37  ,4532.38251,N,07
          0020  33 33 38 2E 30 33 36 35 34 2C 57 2C 31 2C 31 30  338.03654,W,1,10
          0030  2C 31 2E 32 37 2C 35 36 2E 37 2C 4D 2C 2D 33 32  ,1.27,56.7,M,-32
          0040  2E 37 2C 4D 2C 2C 2A 35 33 0D 0A                 .7,M,,*53...
          
00:12:46  0000  B5 62 06 56 00 00 5C 1A                          µb.V..\..
          
00:12:46  0000  24 47 50 47 53 41 2C 41 2C 33 2C 31 34 2C 32 32  $GPGSA,A,3,14,22
          0010  2C 30 31 2C 31 37 2C 31 39 2C 30 32 2C 33 30 2C  ,01,17,19,02,30,
          0020  30 33 2C 30 36 2C 30 37 2C 2C 2C 32 2E 31 36 2C  03,06,07,,,2.16,
          0030  31 2E 32 37 2C 31 2E 37 35 2A 30 39 0D 0A        1.27,1.75*09...
          
00:12:46  0000  24 47 50 47 53 56 2C 34 2C 31 2C 31 33 2C 30 31  $GPGSV,4,1,13,01
          0010  2C 35 39 2C 30 37 33 2C 33 37 2C 30 32 2C 33 31  ,59,073,37,02,31
          0020  2C 30 34 39 2C 32 37 2C 30 33 2C 32 30 2C 31 32  ,049,27,03,20,12
          0030  31 2C 33 31 2C 30 36 2C 31 30 2C 32 30 39 2C 31  1,31,06,10,209,1
          0040  36 2A 37 31 0D 0A                                6*71...
          
00:12:46  0000  24 47 50 47 53 56 2C 34 2C 32 2C 31 33 2C 30 37  $GPGSV,4,2,13,07
          0010  2C 30 39 2C 31 38 32 2C 32 33 2C 30 38 2C 30 33  ,09,182,23,08,03
          0020  2C 30 38 30 2C 2C 31 33 2C 30 32 2C 32 36 35 2C  ,080,,13,02,265,
          0030  2C 31 34 2C 38 34 2C 32 37 37 2C 33 38 2A 37 42  ,14,84,277,38*7B
          0040  0D 0A                                            ...
          
00:12:46  0000  24 47 50 47 53 56 2C 34 2C 33 2C 31 33 2C 31 37  $GPGSV,4,3,13,17
          0010  2C 35 37 2C 32 37 35 2C 33 32 2C 31 39 2C 33 35  ,57,275,32,19,35
          0020  2C 32 36 34 2C 32 38 2C 32 32 2C 36 37 2C 33 30  ,264,28,22,67,30
          0030  35 2C 33 38 2C 32 34 2C 30 36 2C 33 32 37 2C 32  5,38,24,06,327,2
          0040  35 2A 37 30 0D 0A                                5*70...
          
00:12:46  0000  24 47 50 47 53 56 2C 34 2C 34 2C 31 33 2C 33 30  $GPGSV,4,4,13,30
          0010  2C 32 37 2C 32 30 32 2C 32 32 2A 34 44 0D 0A     ,27,202,22*4D...
          
00:12:46  0000  24 47 50 47 4C 4C 2C 34 35 33 32 2E 33 38 32 35  $GPGLL,4532.3825
          0010  31 2C 4E 2C 30 37 33 33 38 2E 30 33 36 35 34 2C  1,N,07338.03654,
          0020  57 2C 30 30 31 32 34 36 2E 30 30 2C 41 2C 41 2A  W,001246.00,A,A*
          0030  37 43 0D 0A                                      7C...
          
00:12:47  0000  24 47 50 52 4D 43 2C 30 30 31 32 34 37 2E 30 30  $GPRMC,001247.00
          0010  2C 41 2C 34 35 33 32 2E 33 38 32 36 34 2C 4E 2C  ,A,4532.38264,N,
          0020  30 37 33 33 38 2E 30 33 39 32 38 2C 57 2C 35 2E  07338.03928,W,5.
          0030  38 36 34 2C 32 38 38 2E 30 38 2C 32 38 31 31 32  864,288.08,28112
          0040  35 2C 2C 2C 41 2A 37 30 0D 0A                    5,,,A*70...
          
00:12:47  0000  24 47 50 56 54 47 2C 32 38 38 2E 30 38 2C 54 2C  $GPVTG,288.08,T,
          0010  2C 4D 2C 35 2E 38 36 34 2C 4E 2C 31 30 2E 38 36  ,M,5.864,N,10.86
          0020  31 2C 4B 2C 41 2A 30 36 0D 0A                    1,K,A*06...
          
00:12:47  0000  24 47 50 47 47 41 2C 30 30 31 32 34 37 2E 30 30  $GPGGA,001247.00
          0010  2C 34 35 33 32 2E 33 38 32 36 34 2C 4E 2C 30 37  ,4532.38264,N,07
          0020  33 33 38 2E 30 33 39 32 38 2C 57 2C 31 2C 30 39  338.03928,W,1,09
          0030  2C 31 2E 32 39 2C 35 36 2E 33 2C 4D 2C 2D 33 32  ,1.29,56.3,M,-32
