??:??:??  $GPGSV,4,1,13,01,59,073,36,02,31,049,17,03,20,121,27,06,10,209,19*7B
??:??:??  $GPGSV,4,2,13,07,09,182,27,08,03,080,,13,02,265,,14,84,277,38*7F
??:??:??  $GPGSV,4,3,13,17,57,275,36,19,35,264,26,22,67,305,34,24,06,327,09*78
??:??:??  $GPGSV,4,4,13,30,27,202,42*4B
00:12:27  $GPGLL,4532.34726,N,07337.90991,W,001227.00,A,A*71
00:12:28  $GPRMC,001228.00,A,4532.34925,N,07337.91714,W,19.487,289.16,281125,,,A*4C
00:12:28  $GPVTG,289.16,T,,M,19.487,N,36.091,K,A*37
00:12:28  $GPGGA,001228.00,4532.34925,N,07337.91714,W,1,10,1.26,56.1,M,-32.7,M,,*59
00:12:28  $GPGSA,A,3,14,22,01,17,19,02,30,03,06,07,,,2.24,1.26,1.86*05
00:12:28  $GPGSV,4,1,13,01,59,073,38,02,31,049,27,03,20,121,32,06,10,209,18*73
00:12:28  $GPGSV,4,2,13,07,09,182,25,08,03,080,,13,02,265,,14,84,277,42*70
00:12:28  $GPGSV,4,3,13,17,57,275,38,19,35,264,31,22,67,305,36,24,06,327,09*72
00:12:28  $GPGSV,4,4,13,30,27,202,36*48
00:12:28  $GPGLL,4532.34925,N,07337.91714,W,001228.00,A,A*71
00:12:29  $GPRMC,001229.00,A,4532.35110,N,07337.92479,W,20.920,289.36,281125,,,A*41
00:12:29  $GPVTG,289.36,T,,M,20.920,N,38.743,K,A*39
00:12:29  $GPGGA,001229.00,4532.35110,N,07337.92479,W,1,10,1.26,56.1,M,-32.7,M,,*5C
00:12:29  $GPGSA,A,3,14,22,01,17,19,02,30,03,06,07,,,2.24,1.26,1.86*05
00:12:29  $GPGSV,4,1,13,01,59,073,31,02,31,049,23,03,20,121,27,06,10,209,27*76
00:12:29  $GPGSV,4,2,13,07,09,182,22,08,03,080,,13,02,265,,14,84,277,37*75
00:12:29  $GPGSV,4,3,13,17,57,275,34,19,35,264,32,22,67,305,33,24,06,327,09*78
00:12:29  $GPGSV,4,4,13,30,27,202,29*46
00:12:29  $GPGLL,4532.35110,N,07337.92479,W,001229.00,A,A*74
00:12:30  $GPRMC,001230.00,A,4532.35337,N,07337.93275,W,21.701,292.95,281125,,,A*4A
00:12:30  $GPVTG,292.95,T,,M,21.701,N,40.191,K,A*30
00:12:30  $GPGGA,001230.00,4532.35337,N,07337.93275,W,1,10,1.27,55.9,M,-32.7,M,,*52
00:12:30  $GPGSA,A,3,14,22,01,17,19,02,30,03,06,07,,,2.16,1.27,1.75*09
00:12:30  $GPGSV,4,1,13,01,59,073,39,02,31,049,29,03,20,121,31,06,10,209,23*77
00:12:30  $GPGSV,4,2,13,07,09,182,28,08,03,080,,13,02,265,,14,84,277,41*7E
00:12:30  $GPGSV,4,3,13,17,57,275,33,19,35,264,32,22,67,305,37,24,06,327,08*7A
00:12:30  $GPGSV,4,4,13,30,27,202,31*4F
00:12:30  $GPGLL,4532.35337,N,07337.93275,W,001230.00,A,A*70
00:12:31  $GPRMC,001231.00,A,4532.35577,N,07337.94094,W,22.624,293.04,281125,,,A*4F
00:12:31  $GPVTG,293.04,T,,M,22.624,N,41.899,K,A*3C
00:12:31  $GPGGA,001231.00,4532.35577,N,07337.94094,W,1,09,1.27,55.7,M,-32.7,M,,*5D
00:12:31  $GPGSA,A,3,14,22,01,17,19,02,30,03,06,,,,2.16,1.27,1.75*0E
00:12:31  $GPGSV,4,1,13,01,59,073,34,02,31,049,27,03,20,121,30,06,10,209,28*7E
00:12:31  $GPGSV,4,2,13,07,09,182,,08,03,080,,13,02,265,21,14,84,277,39*78
00:12:31  $GPGSV,4,3,13,17,57,275,31,19,35,264,31,22,67,305,36,24,06,327,*72
00:12:31  $GPGSV,4,4,13,30,27,202,35*4B
00:12:31  $GPGLL,4532.35577,N,07337.94094,W,001231.00,A,A*79
00:12:32  $GPRMC,001232.00,A,4532.35804,N,07337.94900,W,21.836,292.37,281125,,,A*4E
00:12:32  $GPVTG,292.37,T,,M,21.836,N,40.441,K,A*3B
00:12:32  $GPGGA,001232.00,4532.35804,N,07337.94900,W,1,10,1.27,55.9,M,-32.7,M,,*55
00:12:32  $GPGSA,A,3,14,22,01,17,19,02,30,03,06,07,,,2.16,1.27,1.75*09
00:12:32  $GPGSV,4,1,13,01,59,073,34,02,31,049,26,03,20,121,30,06,10,209,27*70
00:12:32  $GPGSV,4,2,13,07,09,182,20,08,03,080,,13,02,265,17,14,84,277,38*7E
00:12:32  $GPGSV,4,3,13,17,57,275,28,19,35,264,26,22,67,305,36,24,06,327,*7C
00:12:32  $GPGSV,4,4,13,30,27,202,30*4E
00:12:32  $GPGLL,4532.35804,N,07337.94900,W,001232.00,A,A*77
00:12:33  $GPRMC,001233.00,A,4532.36042,N,07337.95706,W,21.986,292.41,281125,,,A*44
00:12:33  $GPVTG,292.41,T,,M,21.986,N,40.718,K,A*3F
00:12:33  $GPGGA,001233.00,4532.36042,N,07337.95706,W,1,10,1.23,55.5,M,-32.7,M,,*5C
00:12:33  $GPGSA,A,3,14,22,01,17,19,02,30,03,06,07,,,2.13,1.23,1.73*0E
00:12:33  $GPGSV,4,1,13,01,59,073,35,02,31,049,24,03,20,121,30,06,10,209,25*71
00:12:33  $GPGSV,4,2,13,07,09,182,24,08,03,080,,13,02,265,15,14,84,277,39*79
00:12:33  $GPGSV,4,3,13,17,57,275,34,19,35,264,28,22,67,305,37,24,06,327,*7E
00:12:33  $GPGSV,4,4,13,30,27,202,31*4F
00:12:33  $GPGLL,4532.36042,N,07337.95706,W,001233.00,A,A*76
00:12:34  $GPRMC,001234.00,A,4532.36292,N,07337.96492,W,21.483,294.23,281125,,,A*4B
00:12:34  $GPVTG,294.23,T,,M,21.483,N,39.786,K,A*3C
00:12:34  $GPGGA,001234.00,4532.36292,N,07337.96492,W,1,10,1.23,55.1,M,-32.7,M,,*5D
00:12:34  $GPGSA,A,3,14,22,01,17,19,02,30,03,06,07,,,2.13,1.23,1.73*0E
00:12:34  $GPGSV,4,1,13,01,59,073,35,02,31,049,21,03,20,121,31,06,10,209,24*74
00:12:34  $GPGSV,4,2,13,07,09,182,25,08,03,080,,13,02,265,11,14,84,277,39*7C
00:12:34  $GPGSV,4,3,13,17,57,275,34,19,35,264,29,22,67,305,37,24,06,327,*7F
00:12:34  $GPGSV,4,4,13,30,27,202,35*4B
00:12:34  $GPGLL,4532.36292,N,07337.96492,W,001234.00,A,A*73
00:12:35  $GPRMC,001235.00,A,4532.36503,N,07337.97264,W,20.925,291.83,281125,,,A*44
00:12:35  $GPVTG,291.83,T,,M,20.925,N,38.753,K,A*3A
00:12:35  $GPGGA,001235.00,4532.36503,N,07337.97264,W,1,10,1.23,54.9,M,-32.7,M,,*54
00:12:35  $GPGSA,A,3,14,22,01,17,19,02,30,03,06,07,,,2.13,1.23,1.73*0E
00:12:35  $GPGSV,4,1,13,01,59,073,37,02,31,049,29,03,20,121,31,06,10,209,24*7E
00:12:35  $GPGSV,4,2,13,07,09,182,24,08,03,080,,13,02,265,11,14,84,277,41*72
00:12:35  $GPGSV,4,3,13,17,57,275,34,19,35,264,33,22,67,305,39,24,06,327,21*79
00:12:35  $GPGSV,4,4,13,30,27,202,33*4D
00:12:35  $GPGLL,4532.36503,N,07337.97264,W,001235.00,A,A*73
00:12:36  $GPRMC,001236.00,A,4532.36703,N,07337.98016,W,20.102,290.08,281125,,,A*42
00:12:36  $GPVTG,290.08,T,,M,20.102,N,37.229,K,A*32
00:12:36  $GPGGA,001236.00,4532.36703,N,07337.98016,W,1,10,1.23,54.7,M,-32.7,M,,*53
00:12:36  $GPGSA,A,3,14,22,01,17,19,02,30,03,06,07,,,2.13,1.23,1.73*0E
00:12:36  $GPGSV,4,1,13,01,59,073,36,02,31,049,20,03,20,121,30,06,10,209,22*71
00:12:36  $GPGSV,4,2,13,07,09,182,22,08,03,080,,13,02,265,08,14,84,277,37*7D
00:12:36  $GPGSV,4,3,13,17,57,275,31,19,35,264,32,22,67,305,37,24,06,327,18*79
00:12:36  $GPGSV,4,4,13,30,27,202,27*48
00:12:36  $GPGLL,4532.36703,N,07337.98016,W,001236.00,A,A*7A
00:12:37  $GPRMC,001237.00,A,4532.36920,N,07337.98735,W,19.522,292.69,281125,,,A*43
00:12:37  $GPVTG,292.69,T,,M,19.522,N,36.154,K,A*33
00:12:37  $GPGGA,001237.00,4532.36920,N,07337.98735,W,1,10,1.23,54.6,M,-32.7,M,,*5A
00:12:37  $GPGSA,A,3,14,22,01,17,19,02,30,03,06,07,,,2.13,1.23,1.73*0E
00:12:37  $GPGSV,4,1,13,01,59,073,36,02,31,049,22,03,20,121,30,06,10,209,22*73
00:12:37  $GPGSV,4,2,13,07,09,182,22,08,03,080,,13,02,265,08,14,84,277,39*73
00:12:37  $GPGSV,4,3,13,17,57,275,31,19,35,264,36,22,67,305,37,24,06,327,18*7D
00:12:37  $GPGSV,4,4,13,30,27,202,36*48
00:12:37  $GPGLL,4532.36920,N,07337.98735,W,001237.00,A,A*72
00:12:38  $GPRMC,001238.00,A,4532.37137,N,07337.99427,W,19.000,293.03,281125,,,A*4A
00:12:38  $GPVTG,293.03,T,,M,19.000,N,35.188,K,A*39
00:12:38  $GPGGA,001238.00,4532.37137,N,07337.99427,W,1,10,1.27,54.3,M,-32.7,M,,*5A
00:12:38  $GPGSA,A,3,14,22,01,17,19,02,30,03,06,07,,,2.16,1.27,1.75*09
00:12:38  $GPGSV,4,1,13,01,59,073,36,02,31,049,23,03,20,121,32,06,10,209,22*70
00:12:38  $GPGSV,4,2,13,07,09,182,23,08,03,080,,13,02,265,10,14,84,277,41*74
00:12:38  $GPGSV,4,3,13,17,57,275,35,19,35,264,33,22,67,305,39,24,06,327,19*73
00:12:38  $GPGSV,4,4,13,30,27,202,39*47
00:12:38  $GPGLL,4532.37137,N,07337.99427,W,001238.00,A,A*73
00:12:39  $GPRMC,001239.00,A,4532.37309,N,07338.00120,W,18.649,291.52,281125,,,A*45
00:12:39  $GPVTG,291.52,T,,M,18.649,N,34.539,K,A*3A
00:12:39  $GPGGA,001239.00,4532.37309,N,07338.00120,W,1,09,1.27,54.8,M,-32.7,M,,*5A
00:12:39  $GPGSA,A,3,14,22,01,17,19,02,30,03,06,,,,2.16,1.27,1.75*0E
00:12:39  $GPGSV,4,1,13,01,59,073,35,02,31,049,34,03,20,121,35,06,10,209,30*71
00:12:39  $GPGSV,4,2,13,07,09,182,,08,03,080,,13,02,265,09,14,84,277,41*7D
00:12:39  $GPGSV,4,3,13,17,57,275,37,19,35,264,32,22,67,305,39,24,06,327,20*7A
00:12:39  $GPGSV,4,4,13,30,27,202,36*48
00:12:39  $GPGLL,4532.37309,N,07338.00120,W,001239.00,A,A*70
00:12:40  $GPRMC,001240.00,A,4532.37462,N,07338.00787,W,17.869,290.55,281125,,,A*4F
00:12:40  $GPVTG,290.55,T,,M,17.869,N,33.093,K,A*3D
00:12:40  $GPGGA,001240.00,4532.37462,N,07338.00787,W,1,10,1.27,55.8,M,-32.7,M,,*5C
00:12:40  $GPGSA,A,3,14,22,01,17,19,02,30,03,06,07,,,2.16,1.27,1.75*09
00:12:40  $GPGSV,4,1,13,01,59,073,37,02,31,049,23,03,20,121,31,06,10,209,34*75
00:12:40  $GPGSV,4,2,13,07,09,182,21,08,03,080,,13,02,265,09,14,84,277,41*7E
00:12:40  $GPGSV,4,3,13,17,57,275,35,19,35,264,32,22,67,305,39,24,06,327,22*7A
00:12:40  $GPGSV,4,4,13,30,27,202,35*4B
00:12:40  $GPGLL,4532.37462,N,07338.00787,W,001240.00,A,A*7F
00:12:41  $GPRMC,001241.00,A,4532.37641,N,07338.01428,W,17.174,291.79,281125,,,A*40
00:12:41  $GPVTG,291.79,T,,M,17.174,N,31.806,K,A*31
00:12:41  $GPGGA,001241.00,4532.37641,N,07338.01428,W,1,10,1.27,56.0,M,-32.7,M,,*52
00:12:41  $GPGSA,A,3,14,22,01,17,19,02,30,03,06,07,,,2.16,1.27,1.75*09
00:12:41  $GPGSV,4,1,13,01,59,073,34,02,31,049,25,03,20,121,31,06,10,209,33*77
00:12:41  $GPGSV,4,2,13,07,09,182,24,08,03,080,,13,02,265,09,14,84,277,35*78
00:12:41  $GPGSV,4,3,13,17,57,275,35,19,35,264,31,22,67,305,35,24,06,327,29*7E
00:12:41  $GPGSV,4,4,13,30,27,202,35*4B
00:12:41  $GPGLL,4532.37641,N,07338.01428,W,001241.00,A,A*7A
00:12:42  $GPRMC,001242.00,A,4532.37818,N,07338.02028,W,16.118,291.96,281125,,,A*4C
00:12:42  $GPVTG,291.96,T,,M,16.118,N,29.851,K,A*30
00:12:42  $GPGGA,001242.00,4532.37818,N,07338.02028,W,1,09,1.27,56.2,M,-32.7,M,,*5E
00:12:42  $GPGSA,A,3,14,22,01,17,19,02,30,03,06,,,,2.16,1.27,1.75*0E
00:12:42  $GPGSV,4,1,13,01,59,073,36,02,31,049,31,03,20,121,32,06,10,209,29*78
00:12:42  $GPGSV,4,2,13,07,09,182,,08,03,080,,13,02,265,09,14,84,277,39*72
00:12:42  $GPGSV,4,3,13,17,57,275,35,19,35,264,27,22,67,305,40,24,06,327,29*7B
00:12:42  $GPGSV,4,4,13,30,27,202,39*47
00:12:42  $GPGLL,4532.37818,N,07338.02028,W,001242.00,A,A*7C
00:12:43  $GPRMC,001243.00,A,4532.37957,N,07338.02540,W,13.136,293.38,281125,,,A*43
00:12:43  $GPVTG,293.38,T,,M,13.136,N,24.328,K,A*37
00:12:43  $GPGGA,001243.00,4532.37957,N,07338.02540,W,1,09,1.27,56.5,M,-32.7,M,,*59
00:12:43  $GPGSA,A,3,14,22,01,17,19,02,30,03,06,,,,2.16,1.27,1.75*0E
00:12:43  $GPGSV,4,1,13,01,59,073,37,02,31,049,25,03,20,121,31,06,10,209,19*7C
00:12:43  $GPGSV,4,2,13,07,09,182,,08,03,080,,13,02,265,,14,84,277,39*7B
00:12:43  $GPGSV,4,3,13,17,57,275,34,19,35,264,26,22,67,305,40,24,06,327,28*7A
00:12:43  $GPGSV,4,4,13,30,27,202,35*4B
00:12:43  $GPGLL,4532.37957,N,07338.02540,W,001243.00,A,A*7C
00:12:44  $GPRMC,001244.00,A,4532.38056,N,07338.02962,W,10.601,291.02,281125,,,A*44
00:12:44  $GPVTG,291.02,T,,M,10.601,N,19.634,K,A*3A
00:12:44  $GPGGA,001244.00,4532.38056,N,07338.02962,W,1,09,1.27,57.0,M,-32.7,M,,*51
00:12:44  $GPGSA,A,3,14,22,01,17,19,02,30,03,06,,,,2.16,1.27,1.75*0E
00:12:44  $GPGSV,4,1,13,01,59,073,35,02,31,049,26,03,20,121,31,06,10,209,19*7D
00:12:44  $GPGSV,4,2,13,07,09,182,,08,03,080,,13,02,265,,14,84,277,39*7B
00:12:44  $GPGSV,4,3,13,17,57,275,34,19,35,264,27,22,67,305,38,24,06,327,27*7B
00:12:44  $GPGSV,4,4,13,30,27,202,29*46
00:12:44  $GPGLL,4532.38056,N,07338.02962,W,001244.00,A,A*70
00:12:45  $GPRMC,001245.00,A,4532.38167,N,07338.03324,W,9.294,293.73,281125,,,A*7B
00:12:45  $GPVTG,293.73,T,,M,9.294,N,17.212,K,A*00
00:12:45  $GPGGA,001245.00,4532.38167,N,07338.03324,W,1,08,1.29,56.6,M,-32.7,M,,*52
00:12:45  $GPGSA,A,3,14,22,01,17,19,02,30,03,,,,,2.36,1.29,1.98*07
00:12:45  $GPGSV,4,1,13,01,59,073,37,02,31,049,31,03,20,121,31,06,10,209,18*78
00:12:45  $GPGSV,4,2,13,07,09,182,,08,03,080,,13,02,265,,14,84,277,38*7A
00:12:45  $GPGSV,4,3,13,17,57,275,34,19,35,264,28,22,67,305,39,24,06,327,26*74
00:12:45  $GPGSV,4,4,13,30,27,202,28*47
00:12:45  $GPGLL,4532.38167,N,07338.03324,W,001245.00,A,A*7B
00:12:46  $GPRMC,001246.00,A,4532.38251,N,07338.03654,W,8.695,293.59,281125,,,A*70
00:12:46  $GPVTG,293.59,T,,M,8.695,N,16.103,K,A*0E
00:12:46  $GPGGA,001246.00,4532.38251,N,07338.03654,W,1,10,1.27,56.7,M,-32.7,M,,*53
00:12:46  $GPGSA,A,3,14,22,01,17,19,02,30,03,06,07,,,2.16,1.27,1.75*09
00:12:46  $GPGSV,4,1,13,01,59,073,37,02,31,049,27,03,20,121,31,06,10,209,16*71
00:12:46  $GPGSV,4,2,13,07,09,182,23,08,03,080,,13,02,265,,14,84,277,38*7B
00:12:46  $GPGSV,4,3,13,17,57,275,32,19,35,264,28,22,67,305,38,24,06,327,25*70
00:12:46  $GPGSV,4,4,13,30,27,202,22*4D
00:12:46  $GPGLL,4532.38251,N,07338.03654,W,001246.00,A,A*7C
00:12:47  $GPRMC,001247.00,A,4532.38264,N,07338.03928,W,5.864,288.08,281125,,,A*70
00:12:47  $GPVTG,288.08,T,,M,5.864,N,10.861,K,A*06
00:12:47  $GPGGA,001247.00,4532.38264,N,07338.03928,W,1,09,1.29,56.3,M,-32.7,M,,*52
00:12:47  $GPGSA,A,3,14,22,01,17,19,02,30,03,07,,,,2.36,1.29,1.98*00
00:12:47  $GPGSV,4,1,13,01,59,072,35,02,31,049,32,03,20,121,30,06,10,209,*70
00:12:47  $GPGSV,4,2,13,07,09,182,22,08,03,080,,13,02,265,,14,84,277,37*75
00:12:47  $GPGSV,4,3,13,17,57,275,34,19,35,264,27,22,67,305,37,24,06,327,24*77
00:12:47  $GPGSV,4,4,13,30,27,202,20*4F
00:12:47  $GPGLL,4532.38264,N,07338.03928,W,001247.00,A,A*7F
00:12:48  $GPRMC,001248.00,A,4532.38286,N,07338.04144,W,5.179,287.65,281125,,,A*77
00:12:48  $GPVTG,287.65,T,,M,5.179,N,9.592,K,A*3E
00:12:48  $GPGGA,001248.00,4532.38286,N,07338.04144,W,1,09,1.29,56.5,M,-32.7,M,,*52
00:12:48  $GPGSA,A,3,14,22,01,17,19,02,30,03,07,,,,2.36,1.29,1.98*00
00:12:48  $GPGSV,4,1,13,01,59,072,35,02,30,049,31,03,20,121,30,06,10,209,*72
00:12:48  $GPGSV,4,2,13,07,09,182,21,08,03,080,,13,02,265,,14,84,277,38*79
00:12:48  $GPGSV,4,3,13,17,57,275,34,19,35,264,31,22,67,305,36,24,06,327,24*71
00:12:48  $GPGSV,4,4,13,30,27,202,19*45
00:12:48  $GPGLL,4532.38286,N,07338.04144,W,001248.00,A,A*79
00:12:49  $GPRMC,001249.00,A,4532.38308,N,07338.04272,W,3.119,292.74,281125,,,A*73
00:12:49  $GPVTG,292.74,T,,M,3.119,N,5.776,K,A*3E
00:12:49  $GPGGA,001249.00,4532.38308,N,07338.04272,W,1,09,1.26,57.5,M,-32.7,M,,*5C
00:12:49  $GPGSA,A,3,14,22,01,17,19,02,30,03,07,,,,2.24,1.26,1.85*00
00:12:49  $GPGSV,4,1,13,01,59,072,30,02,30,049,32,03,21,121,31,06,10,209,*74
00:12:49  $GPGSV,4,2,13,07,09,182,20,08,03,080,,13,02,265,,14,84,277,36*76
00:12:49  $GPGSV,4,3,13,17,57,275,34,19,35,264,27,22,67,305,35,24,06,327,25*74
00:12:49  $GPGSV,4,4,13,30,27,202,19*45
00:12:49  $GPGLL,4532.38308,N,07338.04272,W,001249.00,A,A*79
00:12:50  $GPRMC,001250.00,A,4532.38317,N,07338.04374,W,1.815,,281125,,,A*61
00:12:50  $GPVTG,,T,,M,1.815,N,3.362,K,A*2A
00:12:50  $GPGGA,001250.00,4532.38317,N,07338.04374,W,1,10,1.26,57.9,M,-32.7,M,,*59
00:12:50  $GPGSA,A,3,14,22,01,17,19,02,30,03,06,07,,,2.24,1.26,1.85*06
00:12:50  $GPGSV,4,1,13,01,59,072,37,02,30,049,32,03,21,121,30,06,10,209,17*74
00:12:50  $GPGSV,4,2,13,07,09,182,21,08,03,080,,13,02,265,,14,84,277,40*76
00:12:50  $GPGSV,4,3,13,17,57,275,34,19,35,264,28,22,67,305,37,24,06,327,24*78
00:12:50  $GPGSV,4,4,13,30,27,202,20*4F
00:12:50  $GPGLL,4532.38317,N,07338.04374,W,001250.00,A,A*78
00:12:51  $GPRMC,001251.00,A,4532.38341,N,07338.04476,W,2.849,294.57,281125,,,A*7F
00:12:51  $GPVTG,294.57,T,,M,2.849,N,5.276,K,A*31
00:12:51  $GPGGA,001251.00,4532.38341,N,07338.04476,W,1,10,1.29,57.9,M,-32.7,M,,*51
00:12:51  $GPGSA,A,3,14,22,01,17,19,02,30,03,06,07,,,2.36,1.29,1.98*06
00:12:51  $GPGSV,4,1,13,01,59,072,35,02,30,049,28,03,21,121,30,06,10,209,18*72
00:12:51  $GPGSV,4,2,13,07,09,182,21,08,03,080,,13,02,265,,14,84,277,40*76
00:12:51  $GPGSV,4,3,13,17,57,275,37,19,35,264,31,22,67,305,40,24,06,327,24*73
00:12:51  $GPGSV,4,4,13,30,27,202,21*4E
00:12:51  $GPGLL,4532.38341,N,07338.04476,W,001251.00,A,A*7F
00:12:52  $GPRMC,001252.00,A,4532.38380,N,07338.04658,W,5.528,294.43,281125,,,A*77
00:12:52  $GPVTG,294.43,T,,M,5.528,N,10.238,K,A*07
00:12:52  $GPGGA,001252.00,4532.38380,N,07338.04658,W,1,10,1.29,58.8,M,-32.7,M,,*5F
00:12:52  $GPGSA,A,3,14,22,01,17,19,02,30,03,06,07,,,2.36,1.29,1.98*06
00:12:52  $GPGSV,4,1,13,01,59,072,34,02,30,049,31,03,21,121,29,06,10,209,16*7D
00:12:52  $GPGSV,4,2,13,07,09,182,20,08,03,080,,13,02,265,,14,84,277,39*79
00:12:52  $GPGSV,4,3,13,17,57,275,35,19,35,264,24,22,67,305,37,24,06,327,22*73
00:12:52  $GPGSV,4,4,13,30,27,202,21*4E
00:12:52  $GPGLL,4532.38380,N,07338.04658,W,001252.00,A,A*7F
00:12:53  $GPRMC,001253.00,A,4532.38462,N,07338.04942,W,7.899,294.37,281125,,,A*7F
00:12:53  $GPVTG,294.37,T,,M,7.899,N,14.629,K,A*01
00:12:53  $GPGGA,001253.00,4532.38462,N,07338.04942,W,1,09,1.29,58.5,M,-32.7,M,,*54
00:12:53  $GPGSA,A,3,14,22,01,17,19,02,30,03,06,,,,2.36,1.29,1.98*01
00:12:53  $GPGSV,4,1,13,01,59,072,34,02,30,049,31,03,21,121,29,06,10,209,15*7E
00:12:53  $GPGSV,4,2,13,07,08,181,,08,03,080,,13,02,265,,14,84,277,41*76
00:12:53  $GPGSV,4,3,13,17,57,275,35,19,35,264,32,22,67,305,39,24,06,327,22*7A
00:12:53  $GPGSV,4,4,13,30,27,202,22*4D
00:12:53  $GPGLL,4532.38462,N,07338.04942,W,001253.00,A,A*71
00:12:54  $GPRMC,001254.00,A,4532.38372,N,07338.05375,W,9.986,291.62,281125,,,A*75
00:12:54  $GPVTG,291.62,T,,M,9.986,N,18.494,K,A*0D
00:12:54  $GPGGA,001254.00,4532.38372,N,07338.05375,W,1,10,1.29,62.7,M,-32.7,M,,*59
00:12:54  $GPGSA,A,3,14,22,01,17,19,02,30,03,06,07,,,2.36,1.29,1.98*06
00:12:54  $GPGSV,4,1,13,01,59,072,36,02,30,049,39,03,21,121,30,06,10,209,13*7A
00:12:54  $GPGSV,4,2,13,07,08,181,21,08,03,080,,13,02,265,,14,84,277,39*7A
00:12:54  $GPGSV,4,3,13,17,57,275,35,19,35,264,28,22,67,305,35,24,06,327,22*7D
00:12:54  $GPGSV,4,4,13,30,27,202,20*4F
00:12:54  $GPGLL,4532.38372,N,07338.05375,W,001254.00,A,A*7F
00:12:55  $GPRMC,001255.00,A,4532.38309,N,07338.05897,W,11.978,285.86,281125,,,A*48
00:12:55  $GPVTG,285.86,T,,M,11.978,N,22.184,K,A*37
00:12:55  $GPGGA,001255.00,4532.38309,N,07338.05897,W,1,10,1.23,65.5,M,-32.7,M,,*5C
00:12:55  $GPGSA,A,3,14,22,01,17,19,02,30,03,06,07,,,2.12,1.23,1.73*0F
00:12:55  $GPGSV,4,1,13,01,59,072,36,02,30,049,42,03,21,121,31,06,10,209,15*71
00:12:55  $GPGSV,4,2,13,07,08,181,28,08,03,080,,13,02,265,,14,84,277,42*7F
00:12:55  $GPGSV,4,3,13,17,57,275,38,19,35,264,36,22,67,305,39,24,06,327,22*73
00:12:55  $GPGSV,4,4,13,30,27,202,20*4F
00:12:55  $GPGLL,4532.38309,N,07338.05897,W,001255.00,A,A*75
00:12:56  $GPRMC,001256.00,A,4532.38382,N,07338.06446,W,13.731,285.34,281125,,,A*43
00:12:56  $GPVTG,285.34,T,,M,13.731,N,25.431,K,A*33
00:12:56  $GPGGA,001256.00,4532.38382,N,07338.06446,W,1,10,1.23,66.9,M,-32.7,M,,*50
00:12:56  $GPGSA,A,3,14,22,01,17,19,02,30,03,06,07,,,2.12,1.23,1.73*0F
00:12:56  $GPGSV,4,1,13,01,59,072,36,02,30,049,38,03,21,121,31,06,10,209,32*79
00:12:56  $GPGSV,4,2,13,07,08,181,34,08,03,080,,13,02,265,,14,84,277,40*70
00:12:56  $GPGSV,4,3,13,17,57,275,35,19,35,264,35,22,67,305,38,24,06,327,21*7F
00:12:56  $GPGSV,4,4,13,30,27,202,36*48
00:12:56  $GPGLL,4532.38382,N,07338.06446,W,001256.00,A,A*76
00:12:57  $GPRMC,001257.00,A,4532.38560,N,07338.07027,W,16.449,291.37,281125,,,A*45
00:12:57  $GPVTG,291.37,T,,M,16.449,N,30.464,K,A*38
00:12:57  $GPGGA,001257.00,4532.38560,N,07338.07027,W,1,10,1.23,66.6,M,-32.7,M,,*56
00:12:57  $GPGSA,A,3,14,22,01,17,19,02,30,03,06,07,,,2.12,1.23,1.73*0F
00:12:57  $GPGSV,4,1,13,01,59,072,34,02,30,049,27,03,21,121,30,06,10,209,28*7F
00:12:57  $GPGSV,4,2,13,07,08,181,31,08,03,080,,13,02,265,,14,84,277,38*7A
00:12:57  $GPGSV,4,3,13,17,57,275,33,19,35,264,31,22,67,305,36,24,06,327,21*73
00:12:57  $GPGSV,4,4,13,30,27,202,34*4A
00:12:57  $GPGLL,4532.38560,N,07338.07027,W,001257.00,A,A*7F
00:12:58  $GPRMC,001258.00,A,4532.38758,N,07338.07682,W,18.297,291.96,281125,,,A*4A
00:12:58  $GPVTG,291.96,T,,M,18.297,N,33.886,K,A*3B
00:12:58  $GPGGA,001258.00,4532.38758,N,07338.07682,W,1,10,1.26,66.1,M,-32.7,M,,*5B
00:12:58  $GPGSA,A,3,14,22,01,17,19,02,30,03,06,07,,,2.24,1.26,1.85*06
00:12:58  $GPGSV,4,1,13,01,59,072,39,02,30,049,33,03,21,121,31,06,10,209,26*78
00:12:58  $GPGSV,4,2,13,07,08,181,24,08,03,080,,13,02,265,,14,84,277,40*71
00:12:58  $GPGSV,4,3,13,17,57,275,36,19,35,264,30,22,67,305,38,24,06,327,22*7A
00:12:58  $GPGSV,4,4,13,30,27,202,28*47
00:12:58  $GPGLL,4532.38758,N,07338.07682,W,001258.00,A,A*70
00:12:59  $GPRMC,001259.00,A,4532.39004,N,07338.08378,W,20.077,296.32,281125,,,A*45
00:12:59  $GPVTG,296.32,T,,M,20.077,N,37.183,K,A*3D
00:12:59  $GPGGA,001259.00,4532.39004,N,07338.08378,W,1,10,1.23,66.2,M,-32.7,M,,*5C
00:12:59  $GPGSA,A,3,14,22,01,17,19,02,30,03,06,07,,,2.12,1.23,1.73*0F
00:12:59  $GPGSV,4,1,13,01,59,072,33,02,30,049,33,03,21,121,31,06,10,209,22*76
00:12:59  $GPGSV,4,2,13,07,08,181,22,08,03,080,,13,02,265,,14,84,277,39*79
00:12:59  $GPGSV,4,3,13,17,57,275,33,19,35,264,25,22,67,305,36,24,06,327,25*72
00:12:59  $GPGSV,4,4,13,30,27,202,24*4B
00:12:59  $GPGLL,4532.39004,N,07338.08378,W,001259.00,A,A*71
00:13:00  $GPRMC,001300.00,A,4532.39215,N,07338.09092,W,19.819,294.35,281125,,,A*43
00:13:00  $GPVTG,294.35,T,,M,19.819,N,36.704,K,A*3A
00:13:00  $GPGGA,001300.00,4532.39215,N,07338.09092,W,1,08,1.29,67.2,M,-32.7,M,,*57
00:13:00  $GPGSA,A,3,14,22,01,17,19,02,30,03,,,,,2.36,1.29,1.97*08
00:13:00  $GPGSV,4,1,13,01,59,072,38,02,30,049,36,03,21,121,30,06,10,209,*79
00:13:00  $GPGSV,4,2,13,07,08,181,22,08,03,080,,13,02,265,,14,85,272,39*7D
00:13:00  $GPGSV,4,3,13,17,57,275,34,19,35,264,25,22,67,305,36,24,06,327,26*76
00:13:00  $GPGSV,4,4,13,30,27,202,23*4C
00:13:00  $GPGLL,4532.39215,N,07338.09092,W,001300.00,A,A*78
00:13:01  $GPRMC,001301.00,A,4532.39436,N,07338.09816,W,19.868,291.95,281125,,,A*48
00:13:01  $GPVTG,291.95,T,,M,19.868,N,36.795,K,A*3B
00:13:01  $GPGGA,001301.00,4532.39436,N,07338.09816,W,1,09,1.26,67.0,M,-32.7,M,,*59
00:13:01  $GPGSA,A,3,14,22,01,17,19,02,30,03,07,,,,2.23,1.26,1.85*07
00:13:01  $GPGSV,4,1,13,01,59,072,36,02,30,049,31,03,21,121,28,06,10,209,*79
00:13:01  $GPGSV,4,2,13,07,08,181,22,08,03,080,,13,02,265,,14,85,272,38*7C
00:13:01  $GPGSV,4,3,13,17,57,275,33,19,35,264,25,22,67,305,38,24,06,327,25*7C
00:13:01  $GPGSV,4,4,13,30,27,202,19*45
00:13:01  $GPGLL,4532.39436,N,07338.09816,W,001301.00,A,A*7A
00:13:02  $GPRMC,001302.00,A,4532.39702,N,07338.10531,W,20.073,297.41,281125,,,A*48
00:13:02  $GPVTG,297.41,T,,M,20.073,N,37.174,K,A*34
00:13:02  $GPGGA,001302.00,4532.39702,N,07338.10531,W,1,09,1.26,66.1,M,-32.7,M,,*5E
00:13:02  $GPGSA,A,3,14,22,01,17,19,02,30,03,07,,,,2.23,1.26,1.85*07
00:13:02  $GPGSV,4,1,13,01,59,072,37,02,30,049,31,03,21,121,33,06,10,209,*72
00:13:02  $GPGSV,4,2,13,07,08,181,21,08,03,080,,13,02,265,,14,85,272,37*70
00:13:02  $GPGSV,4,3,13,17,57,275,32,19,35,264,31,22,67,305,37,24,06,327,24*76
00:13:02  $GPGSV,4,4,13,30,27,202,19*45
00:13:02  $GPGLL,4532.39702,N,07338.10531,W,001302.00,A,A*7D
00:13:03  $GPRMC,001303.00,A,4532.39923,N,07338.11259,W,19.944,291.66,281125,,,A*48
00:13:03  $GPVTG,291.66,T,,M,19.944,N,36.936,K,A*3F
00:13:03  $GPGGA,001303.00,4532.39923,N,07338.11259,W,1,10,1.26,65.5,M,-32.7,M,,*55
00:13:03  $GPGSA,A,3,14,22,01,17,19,02,30,03,06,07,,,2.23,1.26,1.85*01
00:13:03  $GPGSV,4,1,13,01,59,072,39,02,30,049,34,03,21,121,33,06,10,209,14*7C
00:13:03  $GPGSV,4,2,13,07,08,181,18,08,03,080,,13,02,265,,14,85,272,41*7B
00:13:03  $GPGSV,4,3,13,17,58,276,35,19,35,264,34,22,67,305,38,24,06,327,24*77
00:13:03  $GPGSV,4,4,13,30,27,202,19*45
00:13:03  $GPGLL,4532.39923,N,07338.11259,W,001303.00,A,A*79
00:13:04  $GPRMC,001304.00,A,4532.40157,N,07338.11972,W,19.904,294.50,281125,,,A*4C
00:13:04  $GPVTG,294.50,T,,M,19.904,N,36.862,K,A*3B
00:13:04  $GPGGA,001304.00,4532.40157,N,07338.11972,W,1,09,1.29,66.0,M,-32.7,M,,*54
00:13:04  $GPGSA,A,3,14,22,01,17,19,02,30,03,06,,,,2.36,1.29,1.97*0E
00:13:04  $GPGSV,4,1,13,01,59,072,35,02,30,049,30,03,21,121,32,06,10,209,20*72
00:13:04  $GPGSV,4,2,13,07,08,181,,08,03,080,,13,02,265,,14,85,272,39*7D
00:13:04  $GPGSV,4,3,13,17,58,276,34,19,35,264,30,22,67,305,34,24,06,327,24*7E
00:13:04  $GPGSV,4,4,13,30,27,202,28*47
00:13:04  $GPGLL,4532.40157,N,07338.11972,W,001304.00,A,A*79
00:13:05  $GPRMC,001305.00,A,4532.40418,N,07338.12714,W,20.864,294.40,281125,,,A*42
00:13:05  $GPVTG,294.40,T,,M,20.864,N,38.640,K,A*37
00:13:05  $GPGGA,001305.00,4532.40418,N,07338.12714,W,1,10,1.26,65.8,M,-32.7,M,,*5A
00:13:05  $GPGSA,A,3,14,22,01,17,19,02,30,03,06,07,,,2.16,1.26,1.75*08
00:13:05  $GPGSV,4,1,13,01,59,072,35,02,30,049,33,03,21,121,31,06,10,209,33*70
00:13:05  $GPGSV,4,2,13,07,08,181,21,08,03,080,,13,02,265,,14,85,272,39*7E
00:13:05  $GPGSV,4,3,13,17,58,276,30,19,35,264,30,22,67,305,37,24,06,327,22*7F
00:13:05  $GPGSV,4,4,13,30,27,202,37*49
00:13:05  $GPGLL,4532.40418,N,07338.12714,W,001305.00,A,A*7B
00:13:06  $GPRMC,001306.00,A,4532.40634,N,07338.13495,W,21.808,290.79,281125,,,A*43
00:13:06  $GPVTG,290.79,T,,M,21.808,N,40.389,K,A*3D
00:13:06  $GPGGA,001306.00,4532.40634,N,07338.13495,W,1,10,1.26,66.1,M,-32.7,M,,*54
00:13:06  $GPGSA,A,3,14,22,01,17,19,02,30,03,06,07,,,2.16,1.26,1.75*08
00:13:06  $GPGSV,4,1,13,01,59,072,36,02,30,049,28,03,21,121,35,06,10,209,24*7B
00:13:06  $GPGSV,4,2,13,07,08,181,20,08,03,080,,13,02,265,,14,85,272,41*70
00:13:06  $GPGSV,4,3,13,17,58,276,34,19,35,264,29,22,67,305,40,24,06,327,20*71
00:13:06  $GPGSV,4,4,13,30,27,202,32*4C
00:13:06  $GPGLL,4532.40634,N,07338.13495,W,001306.00,A,A*7F
00:13:07  $GPRMC,001307.00,A,4532.40917,N,07338.14320,W,23.084,292.90,281125,,,A*49
00:13:07  $GPVTG,292.90,T,,M,23.084,N,42.752,K,A*36
00:13:07  $GPGGA,001307.00,4532.40917,N,07338.14320,W,1,10,1.26,65.9,M,-32.7,M,,*5E
00:13:07  $GPGSA,A,3,14,22,01,17,19,02,30,03,06,07,,,2.16,1.26,1.75*08
00:13:07  $GPGSV,4,1,13,01,59,072,34,02,30,049,26,03,21,121,29,06,10,209,33*7C
00:13:07  $GPGSV,4,2,13,07,08,181,22,08,03,080,,13,02,265,,14,85,272,38*7C
00:13:07  $GPGSV,4,3,13,17,58,276,33,19,35,264,19,22,67,305,37,24,06,327,19*7F
00:13:07  $GPGSV,4,4,13,30,27,202,31*4F
00:13:07  $GPGLL,4532.40917,N,07338.14320,W,001307.00,A,A*7E
00:13:08  $GPRMC,001308.00,A,4532.41206,N,07338.15190,W,24.183,294.64,281125,,,A*48
00:13:08  $GPVTG,294.64,T,,M,24.183,N,44.787,K,A*34
00:13:08  $GPGGA,001308.00,4532.41206,N,07338.15190,W,1,09,1.26,65.1,M,-32.7,M,,*53
00:13:08  $GPGSA,A,3,14,22,01,17,19,02,30,03,06,,,,2.16,1.26,1.75*0F
00:13:08  $GPGSV,4,1,13,01,59,072,35,02,30,049,26,03,21,121,30,06,10,209,21*76
00:13:08  $GPGSV,4,2,13,07,08,181,,08,03,080,,13,02,265,,14,85,272,39*7D
00:13:08  $GPGSV,4,3,13,17,58,276,34,19,35,264,22,22,67,305,35,24,06,327,18*73
00:13:08  $GPGSV,4,4,13,30,27,202,23*4C
00:13:08  $GPGLL,4532.41206,N,07338.15190,W,001308.00,A,A*73
00:13:09  $GPRMC,001309.00,A,4532.41508,N,07338.16089,W,24.882,294.03,281125,,,A*43
00:13:09  $GPVTG,294.03,T,,M,24.882,N,46.081,K,A*3E
00:13:09  $GPGGA,001309.00,4532.41508,N,07338.16089,W,1,10,1.26,64.2,M,-32.7,M,,*5B
00:13:09  $GPGSA,A,3,14,22,01,17,19,02,30,03,06,07,,,2.16,1.26,1.75*08
00:13:09  $GPGSV,4,1,13,01,59,072,33,02,30,049,26,03,21,121,30,06,10,209,18*7A
00:13:09  $GPGSV,4,2,13,07,08,181,21,08,03,080,,13,02,265,,14,85,272,39*7E
00:13:09  $GPGSV,4,3,13,17,58,276,33,19,35,264,24,22,67,305,37,24,06,327,16*7E
00:13:09  $GPGSV,4,4,13,30,27,202,23*4C
00:13:09  $GPGLL,4532.41508,N,07338.16089,W,001309.00,A,A*71
00:13:10  $GPRMC,001310.00,A,4532.41766,N,07338.17027,W,25.447,290.61,281125,,,A*40
00:13:10  $GPVTG,290.61,T,,M,25.447,N,47.128,K,A*39
00:13:10  $GPGGA,001310.00,4532.41766,N,07338.17027,W,1,08,1.29,63.4,M,-32.7,M,,*5B
00:13:10  $GPGSA,A,3,14,22,01,17,19,02,30,03,,,,,2.36,1.29,1.97*08
00:13:10  $GPGSV,4,1,13,01,59,072,36,02,30,049,31,03,21,121,34,06,10,209,*74
00:13:10  $GPGSV,4,2,13,07,08,181,,08,03,080,,13,02,265,,14,85,272,39*7D
00:13:10  $GPGSV,4,3,13,17,58,276,32,19,35,264,30,22,67,305,37,24,06,327,14*78
00:13:10  $GPGSV,4,4,13,30,27,202,23*4C
00:13:10  $GPGLL,4532.41766,N,07338.17027,W,001310.00,A,A*76
00:13:11  $GPRMC,001311.00,A,4532.42044,N,07338.17953,W,25.331,292.24,281125,,,A*4A
00:13:11  $GPVTG,292.24,T,,M,25.331,N,46.913,K,A*3D
00:13:11  $GPGGA,001311.00,4532.42044,N,07338.17953,W,1,09,1.29,63.1,M,-32.7,M,,*50
00:13:11  $GPGSA,A,3,14,22,01,17,19,02,30,03,06,,,,2.36,1.29,1.97*0E
00:13:11  $GPGSV,4,1,13,01,59,072,40,02,30,049,29,03,21,121,30,06,10,209,19*70
00:13:11  $GPGSV,4,2,13,07,08,181,,08,03,080,,13,02,265,,14,85,272,41*72
00:13:11  $GPGSV,4,3,13,17,58,276,36,19,35,264,28,22,67,305,36,24,06,327,17*77
00:13:11  $GPGSV,4,4,13,30,27,202,26*49
00:13:11  $GPGLL,4532.42044,N,07338.17953,W,001311.00,A,A*79
00:13:12  $GPRMC,001312.00,A,4532.42327,N,07338.18892,W,25.922,292.29,281125,,,A*49
00:13:12  $GPVTG,292.29,T,,M,25.922,N,48.007,K,A*3A
00:13:12  $GPGGA,001312.00,4532.42327,N,07338.18892,W,1,09,1.29,63.0,M,-32.7,M,,*57
00:13:12  $GPGSA,A,3,14,22,01,17,19,02,30,03,06,,,,2.36,1.29,1.97*0E
00:13:12  $GPGSV,4,1,13,01,59,072,37,02,30,049,29,03,21,121,30,06,10,209,20*7A
00:13:12  $GPGSV,4,2,13,07,08,181,,08,03,080,,13,02,265,,14,85,272,40*73
00:13:12  $GPGSV,4,3,13,17,58,276,33,19,35,264,27,22,67,305,35,24,06,327,17*7E
00:13:12  $GPGSV,4,4,13,30,27,202,26*49
00:13:12  $GPGLL,4532.42327,N,07338.18892,W,001312.00,A,A*7F
00:13:13  $GPRMC,001313.00,A,4532.42659,N,07338.19829,W,25.835,294.09,281125,,,A*46
00:13:13  $GPVTG,294.09,T,,M,25.835,N,47.847,K,A*3A
00:13:13  $GPGGA,001313.00,4532.42659,N,07338.19829,W,1,09,1.29,62.4,M,-32.7,M,,*5E
00:13:13  $GPGSA,A,3,14,22,01,17,19,02,30,03,06,,,,2.36,1.29,1.97*0E
00:13:13  $GPGSV,4,1,13,01,59,072,37,02,30,049,28,03,21,121,32,06,10,209,23*7A
00:13:13  $GPGSV,4,2,13,07,08,181,,08,03,080,,13,02,265,,14,85,272,39*7D
00:13:13  $GPGSV,4,3,13,17,58,276,34,19,35,264,26,22,67,305,35,24,06,327,27*7B
00:13:13  $GPGSV,4,4,13,30,27,202,38*46
00:13:13  $GPGLL,4532.42659,N,07338.19829,W,001313.00,A,A*73
00:13:14  $GPRMC,001314.00,A,4532.42960,N,07338.20775,W,26.085,292.96,281125,,,A*48
00:13:14  $GPVTG,292.96,T,,M,26.085,N,48.309,K,A*34
00:13:14  $GPGGA,001314.00,4532.42960,N,07338.20775,W,1,09,1.26,62.2,M,-32.7,M,,*59
00:13:14  $GPGSA,A,3,14,22,01,17,19,02,30,03,06,,,,2.16,1.26,1.75*0F
00:13:14  $GPGSV,4,1,13,01,59,072,38,02,30,049,26,03,21,121,31,06,10,209,22*79
00:13:14  $GPGSV,4,2,13,07,08,181,,08,03,080,,13,02,265,,14,85,272,42*71
00:13:14  $GPGSV,4,3,13,17,58,276,36,19,35,264,24,22,67,305,35,24,06,327,22*7E
00:13:14  $GPGSV,4,4,13,30,27,202,26*49
00:13:14  $GPGLL,4532.42960,N,07338.20775,W,001314.00,A,A*7D
00:13:15  $GPRMC,001315.00,A,4532.43279,N,07338.21724,W,26.184,293.18,281125,,,A*49
00:13:15  $GPVTG,293.18,T,,M,26.184,N,48.492,K,A*36
00:13:15  $GPGGA,001315.00,4532.43279,N,07338.21724,W,1,09,1.26,61.0,M,-32.7,M,,*5E
00:13:15  $GPGSA,A,3,14,22,01,17,19,02,30,03,06,,,,2.16,1.26,1.75*0F
00:13:15  $GPGSV,4,1,13,01,59,072,37,02,30,049,25,03,21,121,32,06,10,209,21*75
00:13:15  $GPGSV,4,2,13,07,08,181,,08,03,080,,13,02,265,,14,85,272,41*72
00:13:15  $GPGSV,4,3,13,17,58,276,32,19,35,264,24,22,67,305,38,24,06,327,23*76
00:13:15  $GPGSV,4,4,13,30,27,202,38*46
00:13:15  $GPGLL,4532.43279,N,07338.21724,W,001315.00,A,A*7B
00:13:16  $GPRMC,001316.00,A,4532.43612,N,07338.22662,W,26.280,294.42,281125,,,A*4C
00:13:16  $GPVTG,294.42,T,,M,26.280,N,48.671,K,A*36
00:13:16  $GPGGA,001316.00,4532.43612,N,07338.22662,W,1,09,1.26,59.7,M,-32.7,M,,*58
00:13:16  $GPGSA,A,3,14,22,01,17,19,02,30,03,06,,,,2.16,1.26,1.75*0F
00:13:16  $GPGSV,4,1,13,01,59,072,38,02,30,049,32,03,21,121,32,06,10,209,21*7C
00:13:16  $GPGSV,4,2,13,07,08,181,,08,03,080,,13,02,265,,14,85,272,41*72
00:13:16  $GPGSV,4,3,13,17,58,276,29,19,35,264,25,22,67,305,40,24,06,327,23*72
00:13:16  $GPGSV,4,4,13,30,27,201,37*4A
00:13:16  $GPGLL,4532.43612,N,07338.22662,W,001316.00,A,A*71
00:13:17  $GPRMC,001317.00,A,4532.43882,N,07338.23606,W,25.765,291.67,281125,,,A*46
00:13:17  $GPVTG,291.67,T,,M,25.765,N,47.718,K,A*38
00:13:17  $GPGGA,001317.00,4532.43882,N,07338.23606,W,1,10,1.26,59.6,M,-32.7,M,,*54
00:13:17  $GPGSA,A,3,14,22,01,17,19,02,30,03,06,07,,,2.16,1.26,1.75*08
00:13:17  $GPGSV,4,1,13,01,59,072,35,02,30,049,26,03,21,121,27,06,10,209,20*71
00:13:17  $GPGSV,4,2,13,07,08,181,19,08,03,080,,13,02,265,,14,85,272,37*7B
00:13:17  $GPGSV,4,3,13,17,58,276,28,19,35,264,30,22,67,305,35,24,06,327,20*76
00:13:17  $GPGSV,4,4,13,30,27,201,30*4D
00:13:17  $GPGLL,4532.43882,N,07338.23606,W,001317.00,A,A*74
00:13:18  $GPRMC,001318.00,A,4532.44196,N,07338.24556,W,25.862,294.48,281125,,,A*43
00:13:18  $GPVTG,294.48,T,,M,25.862,N,47.896,K,A*31
00:13:18  $GPGGA,001318.00,4532.44196,N,07338.24556,W,1,09,1.26,57.8,M,-32.7,M,,*59
00:13:18  $GPGSA,A,3,14,22,01,17,19,02,30,03,06,,,,2.16,1.26,1.75*0F
00:13:18  $GPGSV,4,1,14,01,59,072,37,02,30,049,25,03,21,121,32,06,10,209,34*76
00:13:18  $GPGSV,4,2,14,07,08,181,,08,03,080,,13,02,265,,14,85,272,41*75
00:13:18  $GPGSV,4,3,14,17,58,276,33,19,35,264,30,22,67,305,36,24,06,327,18*73
00:13:18  $GPGSV,4,4,14,30,27,201,34,46,32,212,39*76
00:13:18  $GPGLL,4532.44196,N,07338.24556,W,001318.00,A,A*71
00:13:19  $GPRMC,001319.00,A,4532.44482,N,07338.25487,W,25.263,292.56,281125,,,A*4C
00:13:19  $GPVTG,292.56,T,,M,25.263,N,46.787,K,A*3D
00:13:19  $GPGGA,001319.00,4532.44482,N,07338.25487,W,1,10,1.26,56.3,M,-32.7,M,,*56
00:13:19  $GPGSA,A,3,14,22,01,17,19,02,30,03,06,07,,,2.16,1.26,1.75*08
00:13:19  $GPGSV,4,1,14,01,59,072,38,02,30,049,27,03,21,121,32,06,10,209,28*76
00:13:19  $GPGSV,4,2,14,07,08,181,19,08,03,080,,13,02,265,,14,85,272,40*7C
00:13:19  $GPGSV,4,3,14,17,58,276,32,19,35,264,29,22,67,305,38,24,06,327,21*7E
00:13:19  $GPGSV,4,4,14,30,27,201,36,46,32,212,39*74
00:13:19  $GPGLL,4532.44482,N,07338.25487,W,001319.00,A,A*7C
00:13:20  $GPRMC,001320.00,A,4532.44714,N,07338.26358,W,23.220,292.99,281125,,,A*4E
00:13:20  $GPVTG,292.99,T,,M,23.220,N,43.003,K,A*31
00:13:20  $GPGGA,001320.00,4532.44714,N,07338.26358,W,1,10,1.29,56.0,M,-32.7,M,,*5A
00:13:20  $GPGSA,A,3,14,22,01,17,19,02,30,03,06,07,,,2.18,1.29,1.76*0A
00:13:20  $GPGSV,4,1,14,01,59,072,34,02,30,049,26,03,21,121,30,06,10,209,35*75
00:13:20  $GPGSV,4,2,14,07,08,181,28,08,03,080,,13,02,265,,14,85,272,39*70
00:13:20  $GPGSV,4,3,14,17,58,276,40,19,35,264,28,22,67,305,34,24,06,327,17*73
00:13:20  $GPGSV,4,4,14,30,27,201,35,46,32,212,35*7B
00:13:20  $GPGLL,4532.44714,N,07338.26358,W,001320.00,A,A*7C
00:13:21  $GPRMC,001321.00,A,4532.44977,N,07338.27221,W,23.763,292.18,281125,,,A*41
00:13:21  $GPVTG,292.18,T,,M,23.763,N,44.009,K,A*37
00:13:21  $GPGGA,001321.00,4532.44977,N,07338.27221,W,1,10,1.23,55.6,M,-32.7,M,,*51
00:13:21  $GPGSA,A,3,14,22,01,17,19,02,30,03,06,07,,,2.12,1.23,1.72*0E
00:13:21  $GPGSV,4,1,14,01,59,072,37,02,30,049,24,03,21,121,31,06,10,209,33*73
00:13:21  $GPGSV,4,2,14,07,08,181,28,08,03,080,,13,02,265,,14,85,272,40*7E
00:13:21  $GPGSV,4,3,14,17,58,276,36,19,35,264,29,22,67,305,38,24,06,327,15*7D
00:13:21  $GPGSV,4,4,14,30,27,201,38,46,32,212,32*71
00:13:21  $GPGLL,4532.44977,N,07338.27221,W,001321.00,A,A*78
00:13:22  $GPRMC,001322.00,A,4532.45261,N,07338.28087,W,23.857,294.15,281125,,,A*4D
00:13:22  $GPVTG,294.15,T,,M,23.857,N,44.182,K,A*36
00:13:22  $GPGGA,001322.00,4532.45261,N,07338.28087,W,1,10,1.23,55.3,M,-32.7,M,,*5B
00:13:22  $GPGSA,A,3,14,22,01,17,19,02,30,03,06,07,,,2.12,1.23,1.72*0E
00:13:22  $GPGSV,4,1,14,01,59,072,38,02,30,049,24,03,21,121,32,06,10,209,29*74
00:13:22  $GPGSV,4,2,14,07,08,181,27,08,03,080,,13,02,265,,14,85,272,42*73
00:13:22  $GPGSV,4,3,14,17,58,276,38,19,35,264,30,22,67,305,39,24,06,327,15*7A
00:13:22  $GPGSV,4,4,14,30,27,201,34,46,32,212,33*7C
00:13:22  $GPGLL,4532.45261,N,07338.28087,W,001322.00,A,A*77
00:13:23  $GPRMC,001323.00,A,4532.45546,N,07338.28966,W,23.901,291.64,281125,,,A*49
00:13:23  $GPVTG,291.64,T,,M,23.901,N,44.265,K,A*3D
00:13:23  $GPGGA,001323.00,4532.45546,N,07338.28966,W,1,10,1.23,54.4,M,-32.7,M,,*58
00:13:23  $GPGSA,A,3,14,22,01,17,19,02,30,03,06,07,,,2.12,1.23,1.72*0E
00:13:23  $GPGSV,4,1,14,01,59,072,37,02,30,049,21,03,21,121,32,06,10,209,26*71
00:13:23  $GPGSV,4,2,14,07,08,181,27,08,03,080,,13,02,265,,14,85,272,40*71
00:13:23  $GPGSV,4,3,14,17,58,276,36,19,35,264,31,22,67,305,37,24,06,327,15*7B
00:13:23  $GPGSV,4,4,14,30,27,201,34,46,32,212,29*77
00:13:23  $GPGLL,4532.45546,N,07338.28966,W,001323.00,A,A*72
00:13:24  $GPRMC,001324.00,A,4532.45836,N,07338.29847,W,23.725,292.70,281125,,,A*49
00:13:24  $GPVTG,292.70,T,,M,23.725,N,43.939,K,A*36
00:13:24  $GPGGA,001324.00,4532.45836,N,07338.29847,W,1,10,1.23,53.1,M,-32.7,M,,*54
00:13:24  $GPGSA,A,3,14,22,01,17,19,02,30,03,06,07,,,2.12,1.23,1.72*0E
00:13:24  $GPGSV,4,1,14,01,59,072,37,02,30,049,24,03,21,121,32,06,10,209,26*74
00:13:24  $GPGSV,4,2,14,07,08,181,25,08,03,080,,13,02,265,,14,85,272,40*73
00:13:24  $GPGSV,4,3,14,17,58,276,38,19,35,264,31,22,67,305,37,24,06,327,14*74
00:13:24  $GPGSV,4,4,14,30,27,201,34,46,32,212,38*77
00:13:24  $GPGLL,4532.45836,N,07338.29847,W,001324.00,A,A*7C
00:13:25  $GPRMC,001325.00,A,4532.46099,N,07338.30751,W,24.626,291.72,281125,,,A*42
00:13:25  $GPVTG,291.72,T,,M,24.626,N,45.608,K,A*39
00:13:25  $GPGGA,001325.00,4532.46099,N,07338.30751,W,1,10,1.26,52.5,M,-32.7,M,,*5B
00:13:25  $GPGSA,A,3,14,22,01,17,19,02,30,03,06,07,,,2.16,1.26,1.75*08
00:13:25  $GPGSV,4,1,14,01,59,072,34,02,30,049,22,03,21,121,32,06,10,209,32*74
00:13:25  $GPGSV,4,2,14,07,08,181,31,08,03,080,,13,02,265,,14,85,272,40*76
00:13:25  $GPGSV,4,3,14,17,58,276,36,19,35,264,26,22,67,305,36,24,06,327,12*7B
00:13:25  $GPGSV,4,4,14,30,27,201,34,46,32,212,38*77
00:13:25  $GPGLL,4532.46099,N,07338.30751,W,001325.00,A,A*73
00:13:26  $GPRMC,001326.00,A,4532.46370,N,07338.31685,W,25.456,291.84,281125,,,A*41
00:13:26  $GPVTG,291.84,T,,M,25.456,N,47.145,K,A*38
00:13:26  $GPGGA,001326.00,4532.46370,N,07338.31685,W,1,09,1.26,51.7,M,-32.7,M,,*5C
00:13:26  $GPGSA,A,3,14,22,01,17,19,02,30,03,06,,,,2.16,1.26,1.75*0F
00:13:26  $GPGSV,4,1,14,01,59,072,36,02,30,049,24,03,21,121,32,06,10,209,32*70
00:13:26  $GPGSV,4,2,14,07,08,181,,08,03,080,,13,02,265,,14,85,272,40*74
00:13:26  $GPGSV,4,3,14,17,58,276,36,19,35,264,31,22,67,305,34,24,06,327,11*7C
00:13:26  $GPGSV,4,4,14,30,27,201,36,46,32,212,30*7D
00:13:26  $GPGLL,4532.46370,N,07338.31685,W,001326.00,A,A*7D
00:13:27  $GPRMC,001327.00,A,4532.46639,N,07338.32630,W,25.856,292.61,281125,,,A*41
00:13:27  $GPVTG,292.61,T,,M,25.856,N,47.885,K,A*39
00:13:27  $GPGGA,001327.00,4532.46639,N,07338.32630,W,1,10,1.26,51.5,M,-32.7,M,,*52
00:13:27  $GPGSA,A,3,14,22,01,17,19,02,30,03,06,07,,,2.23,1.26,1.84*00
00:13:27  $GPGSV,4,1,14,01,59,072,36,02,30,049,29,03,21,121,31,06,10,209,34*78
00:13:27  $GPGSV,4,2,14,07,08,181,29,08,03,080,,13,02,265,,14,85,272,42*7D
00:13:27  $GPGSV,4,3,14,17,58,276,36,19,35,264,30,22,67,305,36,24,06,327,10*7E
00:13:27  $GPGSV,4,4,14,30,27,201,35,46,32,212,36*78
00:13:27  $GPGLL,4532.46639,N,07338.32630,W,001327.00,A,A*79
00:13:28  $GPRMC,001328.00,A,4532.46938,N,07338.33547,W,25.066,292.78,281125,,,A*41
00:13:28  $GPVTG,292.78,T,,M,25.066,N,46.423,K,A*3B
00:13:28  $GPGGA,001328.00,4532.46938,N,07338.33547,W,1,10,1.26,51.4,M,-32.7,M,,*50
00:13:28  $GPGSA,A,3,14,22,01,17,19,02,30,03,06,07,,,2.23,1.26,1.84*00
00:13:28  $GPGSV,4,1,14,01,59,072,32,02,30,049,22,03,21,121,31,06,10,209,27*75
00:13:28  $GPGSV,4,2,14,07,08,181,29,08,03,080,,13,02,265,,14,85,272,41*7E
00:13:28  $GPGSV,4,3,14,17,58,276,36,19,35,264,29,22,67,305,38,24,06,327,13*7B
00:13:28  $GPGSV,4,4,14,30,27,201,39,46,32,212,33*71
00:13:28  $GPGLL,4532.46938,N,07338.33547,W,001328.00,A,A*7A
00:13:29  $GPRMC,001329.00,A,4532.47206,N,07338.34440,W,24.228,292.70,281125,,,A*47
00:13:29  $GPVTG,292.70,T,,M,24.228,N,44.870,K,A*32
00:13:29  $GPGGA,001329.00,4532.47206,N,07338.34440,W,1,10,1.29,50.8,M,-32.7,M,,*55
00:13:29  $GPGSA,A,3,14,22,01,17,19,02,30,03,06,07,,,2.35,1.29,1.97*0A
00:13:29  $GPGSV,4,1,14,01,59,072,35,02,30,049,22,03,21,121,31,06,10,209,27*72
00:13:29  $GPGSV,4,2,14,07,08,181,33,08,03,080,,13,02,265,20,14,85,272,40*76
00:13:29  $GPGSV,4,3,14,17,58,276,36,19,35,264,30,22,67,305,37,24,06,327,14*7B
00:13:29  $GPGSV,4,4,14,30,27,201,35,46,32,212,37*79
00:13:29  $GPGLL,4532.47206,N,07338.34440,W,001329.00,A,A*7D
00:13:30  $GPRMC,001330.00,A,4532.47459,N,07338.35309,W,23.269,292.33,281125,,,A*4D
00:13:30  $GPVTG,292.33,T,,M,23.269,N,43.094,K,A*32
00:13:30  $GPGGA,001330.00,4532.47459,N,07338.35309,W,1,09,1.26,50.4,M,-32.7,M,,*51
00:13:30  $GPGSA,A,3,14,22,01,17,19,02,30,03,06,,,,2.16,1.26,1.75*0F
00:13:30  $GPGSV,4,1,14,01,59,072,31,02,30,049,22,03,21,121,32,06,10,209,35*76
00:13:30  $GPGSV,4,2,14,07,08,181,,08,03,080,,13,02,265,19,14,85,272,39*72
00:13:30  $GPGSV,4,3,14,17,58,276,36,19,35,264,24,22,67,305,34,24,06,327,13*7A
00:13:30  $GPGSV,4,4,14,30,27,201,37,46,32,212,39*75
00:13:30  $GPGLL,4532.47459,N,07338.35309,W,001330.00,A,A*72
00:13:31  $GPRMC,001331.00,A,4532.47704,N,07338.36154,W,22.934,292.35,281125,,,A*4A
00:13:31  $GPVTG,292.35,T,,M,22.934,N,42.474,K,A*3D
00:13:31  $GPGGA,001331.00,4532.47704,N,07338.36154,W,1,10,1.26,50.4,M,-32.7,M,,*5A
00:13:31  $GPGSA,A,3,14,22,01,17,19,02,30,03,06,07,,,2.16,1.26,1.75*08
00:13:31  $GPGSV,4,1,14,01,59,072,35,02,30,049,19,03,21,121,31,06,10,209,35*79
00:13:31  $GPGSV,4,2,14,07,08,181,35,08,03,080,,13,02,265,20,14,85,272,38*7F
00:13:31  $GPGSV,4,3,14,17,58,276,34,19,35,264,25,22,67,305,34,24,06,327,*7B
00:13:31  $GPGSV,4,4,14,30,27,201,35,46,32,212,31*7F
00:13:31  $GPGLL,4532.47704,N,07338.36154,W,001331.00,A,A*71
00:13:32  $GPRMC,001332.00,A,4532.47959,N,07338.36995,W,22.591,291.80,281125,,,A*44
00:13:32  $GPVTG,291.80,T,,M,22.591,N,41.838,K,A*34
00:13:32  $GPGGA,001332.00,4532.47959,N,07338.36995,W,1,09,1.26,49.6,M,-32.7,M,,*58
00:13:32  $GPGSA,A,3,14,22,01,17,19,02,30,03,06,,,,2.16,1.26,1.75*0F
00:13:32  $GPGSV,4,1,14,01,59,072,37,02,30,049,17,03,21,121,30,06,10,209,36*77
00:13:32  $GPGSV,4,2,14,07,08,181,,08,03,080,,13,02,265,20,14,85,272,39*78
00:13:32  $GPGSV,4,3,14,17,58,276,35,19,35,264,26,22,67,305,33,24,06,327,*7E
00:13:32  $GPGSV,4,4,14,30,27,201,35,46,32,212,27*78
00:13:32  $GPGLL,4532.47959,N,07338.36995,W,001332.00,A,A*71
00:13:33  $GPRMC,001333.00,A,4532.48199,N,07338.37818,W,21.929,291.62,281125,,,A*4B
00:13:33  $GPVTG,291.62,T,,M,21.929,N,40.612,K,A*33
00:13:33  $GPGGA,001333.00,4532.48199,N,07338.37818,W,1,10,1.26,48.7,M,-32.7,M,,*5F
00:13:33  $GPGSA,A,3,14,22,01,17,19,02,30,03,06,07,,,2.16,1.26,1.75*08
00:13:33  $GPGSV,4,1,13,01,59,072,36,02,30,049,17,03,21,121,31,06,10,209,33*75
00:13:33  $GPGSV,4,2,13,07,08,181,37,08,03,080,,13,02,265,20,14,85,272,39*7B
00:13:33  $GPGSV,4,3,13,17,58,276,36,19,35,264,27,22,67,305,33,24,06,327,*7B
00:13:33  $GPGSV,4,4,13,30,27,201,37*4A
00:13:33  $GPGLL,4532.48199,N,07338.37818,W,001333.00,A,A*7E
00:13:34  $GPRMC,001334.00,A,4532.48445,N,07338.38618,W,21.494,292.52,281125,,,A*42
00:13:34  $GPVTG,292.52,T,,M,21.494,N,39.807,K,A*3C
00:13:34  $GPGGA,001334.00,4532.48445,N,07338.38618,W,1,10,1.23,48.0,M,-32.7,M,,*5F
00:13:34  $GPGSA,A,3,14,22,01,17,19,02,30,03,06,07,,,2.12,1.23,1.72*0E
00:13:34  $GPGSV,4,1,13,01,59,072,35,02,30,049,20,03,21,121,31,06,10,209,29*79
00:13:34  $GPGSV,4,2,13,07,08,181,31,08,03,080,,13,02,265,20,14,85,272,42*71
00:13:34  $GPGSV,4,3,13,17,58,276,38,19,35,264,26,22,67,305,36,24,06,327,22*71
00:13:34  $GPGSV,4,4,13,30,27,201,40*4A
00:13:34  $GPGLL,4532.48445,N,07338.38618,W,001334.00,A,A*7C
00:13:35  $GPRMC,001335.00,A,4532.48695,N,07338.39411,W,21.238,292.69,281125,,,A*4E
00:13:35  $GPVTG,292.69,T,,M,21.238,N,39.333,K,A*38
00:13:35  $GPGGA,001335.00,4532.48695,N,07338.39411,W,1,10,1.23,47.1,M,-32.7,M,,*55
00:13:35  $GPGSA,A,3,14,22,01,17,19,02,30,03,06,07,,,2.12,1.23,1.72*0E
00:13:35  $GPGSV,4,1,13,01,59,072,37,02,30,049,23,03,21,121,31,06,10,209,31*71
00:13:35  $GPGSV,4,2,13,07,08,181,37,08,03,080,,13,02,265,22,14,85,272,42*75
00:13:35  $GPGSV,4,3,13,17,58,276,39,19,35,264,26,22,67,305,35,24,06,327,20*71
00:13:35  $GPGSV,4,4,13,30,27,201,38*45
00:13:35  $GPGLL,4532.48695,N,07338.39411,W,001335.00,A,A*78
00:13:36  $GPRMC,001336.00,A,4532.48922,N,07338.40168,W,20.183,292.58,281125,,,A*4B
00:13:36  $GPVTG,292.58,T,,M,20.183,N,37.378,K,A*39
00:13:36  $GPGGA,001336.00,4532.48922,N,07338.40168,W,1,10,1.23,46.5,M,-32.7,M,,*55
00:13:36  $GPGSA,A,3,14,22,01,17,19,02,30,03,06,07,,,2.12,1.23,1.72*0E
00:13:36  $GPGSV,4,1,13,01,59,072,34,02,30,049,23,03,21,121,30,06,10,209,34*76
00:13:36  $GPGSV,4,2,13,07,08,181,29,08,03,080,,13,02,265,21,14,85,272,40*7B
00:13:36  $GPGSV,4,3,13,17,58,276,36,19,35,264,25,22,67,305,35,24,06,327,19*77
00:13:36  $GPGSV,4,4,13,30,27,201,38*45
00:13:36  $GPGLL,4532.48922,N,07338.40168,W,001336.00,A,A*7D
00:13:37  $GPRMC,001337.00,A,4532.49132,N,07338.40912,W,19.475,291.88,281125,,,A*4F
00:13:37  $GPVTG,291.88,T,,M,19.475,N,36.067,K,A*3D
00:13:37  $GPGGA,001337.00,4532.49132,N,07338.40912,W,1,10,1.26,45.8,M,-32.7,M,,*52
00:13:37  $GPGSA,A,3,14,22,01,17,19,02,30,03,06,07,,,2.16,1.26,1.75*08
00:13:37  $GPGSV,4,1,13,01,59,072,37,02,30,049,31,03,21,121,31,06,10,209,37*74
00:13:37  $GPGSV,4,2,13,07,08,181,28,08,03,080,,13,02,265,20,14,85,272,42*79
00:13:37  $GPGSV,4,3,13,17,58,276,39,19,35,264,24,22,67,305,35,24,06,327,21*72
00:13:37  $GPGSV,4,4,13,30,27,201,38*45
00:13:37  $GPGLL,4532.49132,N,07338.40912,W,001337.00,A,A*71
00:13:38  $GPRMC,001338.00,A,4532.49337,N,07338.41628,W,19.078,291.48,281125,,,A*45
00:13:38  $GPVTG,291.48,T,,M,19.078,N,35.332,K,A*38
00:13:38  $GPGGA,001338.00,4532.49337,N,07338.41628,W,1,09,1.26,45.0,M,-32.7,M,,*5D
00:13:38  $GPGSA,A,3,14,22,01,17,19,02,30,03,06,,,,2.15,1.26,1.75*0C
00:13:38  $GPGSV,4,1,13,01,59,072,37,02,30,049,31,03,21,121,33,06,10,209,34*75
00:13:38  $GPGSV,4,2,13,07,08,181,,08,03,080,,13,02,265,20,14,85,272,41*70
00:13:38  $GPGSV,4,3,13,17,58,276,37,19,35,264,24,22,67,305,35,24,06,327,25*78
00:13:38  $GPGSV,4,4,13,30,27,201,37*4A
00:13:38  $GPGLL,4532.49337,N,07338.41628,W,001338.00,A,A*7E
00:13:39  $GPRMC,001339.00,A,4532.49529,N,07338.42330,W,18.757,291.53,281125,,,A*43
00:13:39  $GPVTG,291.53,T,,M,18.757,N,34.738,K,A*36
00:13:39  $GPGGA,001339.00,4532.49529,N,07338.42330,W,1,10,1.26,44.5,M,-32.7,M,,*56
00:13:39  $GPGSA,A,3,14,22,01,17,19,02,30,03,06,07,,,2.15,1.26,1.75*0B
00:13:39  $GPGSV,4,1,13,01,59,072,35,02,30,049,31,03,21,121,33,06,10,209,22*70
00:13:39  $GPGSV,4,2,13,07,08,181,25,08,03,080,,13,02,265,19,14,85,272,41*7D
00:13:39  $GPGSV,4,3,13,17,58,276,38,19,35,264,30,22,67,305,34,24,06,327,24*72
00:13:39  $GPGSV,4,4,13,30,27,201,39*44
00:13:39  $GPGLL,4532.49529,N,07338.42330,W,001339.00,A,A*79
00:13:40  $GPRMC,001340.00,A,4532.49780,N,07338.42971,W,18.348,300.92,281125,,,A*4D
00:13:40  $GPVTG,300.92,T,,M,18.348,N,33.980,K,A*32
00:13:40  $GPGGA,001340.00,4532.49780,N,07338.42971,W,1,10,1.23,44.0,M,-32.7,M,,*56
00:13:40  $GPGSA,A,3,14,22,01,17,19,02,30,03,06,07,,,2.12,1.23,1.72*0E
00:13:40  $GPGSV,4,1,13,01,59,072,33,02,30,049,29,03,21,121,34,06,10,209,19*70
00:13:40  $GPGSV,4,2,13,07,08,181,39,08,03,080,,13,02,265,27,14,85,272,40*7C
00:13:40  $GPGSV,4,3,13,17,58,276,29,19,35,264,37,22,67,305,30,24,06,327,24*71
00:13:40  $GPGSV,4,4,13,30,27,201,25*49
00:13:40  $GPGLL,4532.49780,N,07338.42971,W,001340.00,A,A*79
00:13:41  $GPRMC,001341.00,A,4532.50070,N,07338.43558,W,17.606,304.70,281125,,,A*42
00:13:41  $GPVTG,304.70,T,,M,17.606,N,32.606,K,A*3A
00:13:41  $GPGGA,001341.00,4532.50070,N,07338.43558,W,1,10,1.23,43.4,M,-32.7,M,,*52
00:13:41  $GPGSA,A,3,14,22,01,17,19,02,30,03,06,07,,,2.12,1.23,1.72*0E
00:13:41  $GPGSV,4,1,13,01,59,072,24,02,30,049,27,03,21,121,40,06,10,209,16*74
00:13:41  $GPGSV,4,2,13,07,08,181,30,08,03,080,,13,02,265,23,14,85,272,41*70
00:13:41  $GPGSV,4,3,13,17,58,276,33,19,35,264,35,22,67,305,37,24,06,327,22*79
00:13:41  $GPGSV,4,4,13,30,27,201,22*4E
00:13:41  $GPGLL,4532.50070,N,07338.43558,W,001341.00,A,A*7E
00:13:42  $GPRMC,001342.00,A,4532.50404,N,07338.44012,W,15.819,318.86,281125,,,A*4C
00:13:42  $GPVTG,318.86,T,,M,15.819,N,29.298,K,A*35
00:13:42  $GPGGA,001342.00,4532.50404,N,07338.44012,W,1,10,1.23,43.2,M,-32.7,M,,*5C
00:13:42  $GPGSA,A,3,14,22,01,17,19,02,30,03,06,07,,,2.12,1.23,1.72*0E
00:13:42  $GPGSV,4,1,13,01,59,072,34,02,30,049,37,03,21,121,42,06,10,209,10*70
00:13:42  $GPGSV,4,2,13,07,08,181,25,08,03,080,,13,02,265,23,14,85,272,39*7B
00:13:42  $GPGSV,4,3,13,17,58,276,33,19,35,264,34,22,67,305,30,24,06,327,20*7D
00:13:42  $GPGSV,4,4,13,30,27,201,19*46
00:13:42  $GPGLL,4532.50404,N,07338.44012,W,001342.00,A,A*76
00:13:43  $GPRMC,001343.00,A,4532.50801,N,07338.44367,W,16.231,332.89,281125,,,A*41
00:13:43  $GPVTG,332.89,T,,M,16.231,N,30.060,K,A*3C
00:13:43  $GPGGA,001343.00,4532.50801,N,07338.44367,W,1,09,1.25,43.1,M,-32.7,M,,*58
00:13:43  $GPGSA,A,3,14,22,01,17,19,02,30,03,07,,,,2.22,1.25,1.84*04
00:13:43  $GPGSV,4,1,13,01,59,072,40,02,30,049,35,03,21,121,37,06,10,209,08*7A
00:13:43  $GPGSV,4,2,13,07,08,181,26,08,03,080,,13,02,265,24,14,85,272,37*71
00:13:43  $GPGSV,4,3,13,17,58,276,28,19,35,264,42,22,67,305,36,24,06,327,18*7B
00:13:43  $GPGSV,4,4,13,30,27,201,15*4A
00:13:43  $GPGLL,4532.50801,N,07338.44367,W,001343.00,A,A*7F
00:13:44  $GPRMC,001344.00,A,4532.51142,N,07338.44622,W,13.425,336.18,281125,,,A*47
00:13:44  $GPVTG,336.18,T,,M,13.425,N,24.863,K,A*38
00:13:44  $GPGGA,001344.00,4532.51142,N,07338.44622,W,1,09,1.25,42.9,M,-32.7,M,,*5D
00:13:44  $GPGSA,A,3,14,22,01,17,19,02,30,03,07,,,,2.22,1.25,1.84*04
00:13:44  $GPGSV,4,1,13,01,59,072,40,02,30,049,37,03,21,121,34,06,10,209,07*74
00:13:44  $GPGSV,4,2,13,07,08,181,26,08,03,080,,13,02,265,23,14,85,272,37*76
00:13:44  $GPGSV,4,3,13,17,58,276,33,19,35,264,41,22,67,305,34,24,06,327,17*7F
00:13:44  $GPGSV,4,4,13,30,27,201,15*4A
00:13:44  $GPGLL,4532.51142,N,07338.44622,W,001344.00,A,A*73
00:13:45  $GPRMC,001345.00,A,4532.51430,N,07338.44825,W,9.664,336.88,281125,,,A*7A
00:13:45  $GPVTG,336.88,T,,M,9.664,N,17.898,K,A*09
00:13:45  $GPGGA,001345.00,4532.51430,N,07338.44825,W,1,09,1.25,42.6,M,-32.7,M,,*5A
00:13:45  $GPGSA,A,3,14,22,01,17,19,02,30,03,07,,,,2.22,1.25,1.83*03
00:13:45  $GPGSV,4,1,13,01,59,072,36,02,30,049,34,03,21,121,39,06,10,209,07*7B
00:13:45  $GPGSV,4,2,13,07,08,181,24,08,03,080,,13,02,265,22,14,85,272,29*7A
00:13:45  $GPGSV,4,3,13,17,58,276,33,19,35,264,40,22,67,305,33,24,06,327,16*78
00:13:45  $GPGSV,4,4,13,30,27,201,19*46
00:13:45  $GPGLL,4532.51430,N,07338.44825,W,001345.00,A,A*7B
00:13:46  $GPRMC,001346.00,A,4532.51592,N,07338.44938,W,4.906,335.99,281125,,,A*78
00:13:46  $GPVTG,335.99,T,,M,4.906,N,9.087,K,A*35
00:13:46  $GPGGA,001346.00,4532.51592,N,07338.44938,W,1,09,1.25,42.4,M,-32.7,M,,*5F
00:13:46  $GPGSA,A,3,14,22,01,17,19,02,30,03,07,,,,2.22,1.25,1.83*03
00:13:46  $GPGSV,4,1,13,01,59,072,36,02,30,049,32,03,21,121,33,06,10,209,08*78
00:13:46  $GPGSV,4,2,13,07,08,181,23,08,03,080,,13,02,265,23,14,85,272,34*70
00:13:46  $GPGSV,4,3,13,17,58,276,31,19,35,264,31,22,67,305,23,24,06,327,19*72
00:13:46  $GPGSV,4,4,13,30,27,201,25*49
00:13:46  $GPGLL,4532.51592,N,07338.44938,W,001346.00,A,A*7C
00:13:47  $GPRMC,001347.00,A,4532.51681,N,07338.44992,W,3.559,335.68,281125,,,A*77
00:13:47  $GPVTG,335.68,T,,M,3.559,N,6.591,K,A*37
00:13:47  $GPGGA,001347.00,4532.51681,N,07338.44992,W,1,09,1.34,42.4,M,-32.7,M,,*5F
00:13:47  $GPGSA,A,3,14,22,01,17,19,02,30,03,07,,,,2.28,1.34,1.84*0E
00:13:47  $GPGSV,4,1,13,01,59,072,35,02,30,049,27,03,21,121,34,06,10,209,08*78
00:13:47  $GPGSV,4,2,13,07,08,181,22,08,03,080,,13,02,265,23,14,85,272,35*70
00:13:47  $GPGSV,4,3,13,17,58,276,36,19,35,264,43,22,67,305,37,24,06,327,20*7F
00:13:47  $GPGSV,4,4,13,30,27,201,31*4C
00:13:47  $GPGLL,4532.51681,N,07338.44992,W,001347.00,A,A*7C
00:13:48  $GPRMC,001348.00,A,4532.51765,N,07338.45077,W,3.599,333.66,281125,,,A*74
00:13:48  $GPVTG,333.66,T,,M,3.599,N,6.665,K,A*3B
00:13:48  $GPGGA,001348.00,4532.51765,N,07338.45077,W,1,09,1.34,42.6,M,-32.7,M,,*5A
00:13:48  $GPGSA,A,3,14,22,01,17,19,02,30,03,07,,,,2.28,1.34,1.84*0E
00:13:48  $GPGSV,4,1,13,01,59,072,38,02,30,049,27,03,21,121,38,06,10,209,09*78
00:13:48  $GPGSV,4,2,13,07,08,181,23,08,03,080,,13,02,265,25,14,85,272,31*73
00:13:48  $GPGSV,4,3,13,17,58,276,30,19,35,264,28,22,67,305,38,24,06,327,21*7A
00:13:48  $GPGSV,4,4,13,30,27,201,33*4E
00:13:48  $GPGLL,4532.51765,N,07338.45077,W,001348.00,A,A*7B
00:13:49  $GPRMC,001349.00,A,4532.51919,N,07338.45188,W,6.392,325.88,281125,,,A*7E
00:13:49  $GPVTG,325.88,T,,M,6.392,N,11.838,K,A*04
00:13:49  $GPGGA,001349.00,4532.51919,N,07338.45188,W,1,10,1.25,42.9,M,-32.7,M,,*58
00:13:49  $GPGSA,A,3,14,22,01,17,19,02,30,03,06,07,,,2.22,1.25,1.83*05
00:13:49  $GPGSV,4,1,13,01,59,072,43,02,30,049,31,03,21,121,40,06,10,209,10*74
00:13:49  $GPGSV,4,2,13,07,08,181,23,08,03,080,,13,02,265,32,14,85,272,36*72
00:13:49  $GPGSV,4,3,13,17,58,276,29,19,35,264,41,22,67,305,37,24,06,327,20*73
00:13:49  $GPGSV,4,4,13,30,27,201,36*4B
00:13:49  $GPGLL,4532.51919,N,07338.45188,W,001349.00,A,A*7E
00:13:50  $GPRMC,001350.00,A,4532.52125,N,07338.45343,W,8.908,327.87,281125,,,A*7D
00:13:50  $GPVTG,327.87,T,,M,8.908,N,16.498,K,A*0F
00:13:50  $GPGGA,001350.00,4532.52125,N,07338.45343,W,1,10,1.25,42.6,M,-32.7,M,,*5E
00:13:50  $GPGSA,A,3,14,22,01,17,19,02,30,03,06,07,,,2.22,1.25,1.83*05
00:13:50  $GPGSV,4,1,13,01,59,072,40,02,30,049,34,03,21,121,39,06,10,209,23*7C
00:13:50  $GPGSV,4,2,13,07,08,181,22,08,03,080,,13,02,265,30,14,85,272,39*7E
00:13:50  $GPGSV,4,3,13,17,58,276,32,19,35,264,40,22,67,305,38,24,06,327,20*77
00:13:50  $GPGSV,4,4,13,30,27,201,26*4A
00:13:50  $GPGLL,4532.52125,N,07338.45343,W,001350.00,A,A*77
00:13:51  $GPRMC,001351.00,A,4532.52331,N,07338.45558,W,9.483,324.05,281125,,,A*71
00:13:51  $GPVTG,324.05,T,,M,9.483,N,17.563,K,A*0D
00:13:51  $GPGGA,001351.00,4532.52331,N,07338.45558,W,1,10,1.23,42.7,M,-32.7,M,,*53
00:13:51  $GPGSA,A,3,14,22,01,17,19,02,30,03,06,07,,,2.11,1.23,1.72*0D
00:13:51  $GPGSV,4,1,13,01,59,072,37,02,30,049,35,03,21,121,42,06,10,209,34*77
00:13:51  $GPGSV,4,2,13,07,08,181,21,08,03,080,,13,02,265,25,14,85,272,40*77
00:13:51  $GPGSV,4,3,13,17,58,276,32,19,35,264,34,22,67,305,21,24,06,327,19*76
00:13:51  $GPGSV,4,4,13,30,27,201,26*4A
00:13:51  $GPGLL,4532.52331,N,07338.45558,W,001351.00,A,A*7D
00:13:52  $GPRMC,001352.00,A,4532.52552,N,07338.45834,W,11.256,318.88,281125,,,A*4B
00:13:52  $GPVTG,318.88,T,,M,11.256,N,20.847,K,A*3F
00:13:52  $GPGGA,001352.00,4532.52552,N,07338.45834,W,1,10,1.23,42.5,M,-32.7,M,,*56
00:13:52  $GPGSA,A,3,14,22,01,17,19,02,30,03,06,07,,,2.11,1.23,1.72*0D
00:13:52  $GPGSV,4,1,13,01,59,072,32,02,30,049,29,03,21,121,38,06,10,209,31*77
00:13:52  $GPGSV,4,2,13,07,08,181,19,08,03,080,,13,02,265,24,14,85,272,36*7C
00:13:52  $GPGSV,4,3,13,17,58,276,35,19,35,264,34,22,67,305,29,24,06,327,18*78
00:13:52  $GPGSV,4,4,13,30,27,201,35*48
00:13:52  $GPGLL,4532.52552,N,07338.45834,W,001352.00,A,A*7A
00:13:53  $GPRMC,001353.00,A,4532.52778,N,07338.46139,W,10.948,314.24,281125,,,A*48
00:13:53  $GPVTG,314.24,T,,M,10.948,N,20.275,K,A*3B
00:13:53  $GPGGA,001353.00,4532.52778,N,07338.46139,W,1,09,1.26,41.8,M,-32.7,M,,*59
00:13:53  $GPGSA,A,3,14,22,01,17,19,02,30,03,06,,,,2.15,1.26,1.75*0C
00:13:53  $GPGSV,4,1,13,01,59,072,27,02,30,049,29,03,21,121,39,06,10,209,32*71
00:13:53  $GPGSV,4,2,13,07,08,181,,08,03,080,,13,02,265,22,14,85,272,42*71
00:13:53  $GPGSV,4,3,13,17,58,276,36,19,35,264,31,22,67,305,31,24,06,327,27*7B
00:13:53  $GPGSV,4,4,13,30,27,201,39*44
00:13:53  $GPGLL,4532.52778,N,07338.46139,W,001353.00,A,A*76
00:13:54  $GPRMC,001354.00,A,4532.52953,N,07338.46473,W,11.102,311.61,281125,,,A*40
00:13:54  $GPVTG,311.61,T,,M,11.102,N,20.561,K,A*3A
00:13:54  $GPGGA,001354.00,4532.52953,N,07338.46473,W,1,09,1.26,42.3,M,-32.7,M,,*5A
00:13:54  $GPGSA,A,3,14,22,01,17,19,02,30,03,06,,,,2.15,1.26,1.74*0D
00:13:54  $GPGSV,4,1,13,01,59,072,25,02,30,049,28,03,21,121,41,06,10,209,32*7D
00:13:54  $GPGSV,4,2,13,07,08,181,,08,03,080,,13,02,265,22,14,85,272,41*72
00:13:54  $GPGSV,4,3,13,17,58,276,28,19,35,264,23,22,67,305,29,24,06,327,24*7D
00:13:54  $GPGSV,4,4,13,30,27,201,42*48
00:13:54  $GPGLL,4532.52953,N,07338.46473,W,001354.00,A,A*7D
00:13:55  $GPRMC,001355.00,A,4532.53142,N,07338.46784,W,10.285,311.43,281125,,,A*4E
00:13:55  $GPVTG,311.43,T,,M,10.285,N,19.047,K,A*3C
00:13:55  $GPGGA,001355.00,4532.53142,N,07338.46784,W,1,10,1.26,42.4,M,-32.7,M,,*56
00:13:55  $GPGSA,A,3,14,22,01,17,19,02,30,03,06,07,,,2.15,1.26,1.74*0A
00:13:55  $GPGSV,4,1,13,01,59,072,26,02,30,049,29,03,21,121,37,06,10,209,25*78
00:13:55  $GPGSV,4,2,13,07,08,181,17,08,03,080,,13,02,265,20,14,85,272,23*72
00:13:55  $GPGSV,4,3,13,17,58,276,24,19,35,264,21,22,67,305,20,24,06,327,21*7F
00:13:55  $GPGSV,4,4,13,30,27,201,25*49
00:13:55  $GPGLL,4532.53142,N,07338.46784,W,001355.00,A,A*7E
00:13:56  $GPRMC,001356.00,A,4532.53341,N,07338.47134,W,10.951,310.18,281125,,,A*4D
00:13:56  $GPVTG,310.18,T,,M,10.951,N,20.281,K,A*33
00:13:56  $GPGGA,001356.00,4532.53341,N,07338.47134,W,1,09,1.33,42.1,M,-32.7,M,,*51
00:13:56  $GPGSA,A,3,22,01,17,19,02,30,03,06,07,,,,2.51,1.33,2.12*08
00:13:56  $GPGSV,4,1,13,01,59,072,23,02,30,049,22,03,21,121,29,06,10,209,22*7E
00:13:56  $GPGSV,4,2,13,07,08,181,16,08,03,080,,13,02,265,19,14,85,272,*78
00:13:56  $GPGSV,4,3,13,17,58,276,20,19,35,264,20,22,67,305,18,24,06,327,17*74
00:13:56  $GPGSV,4,4,13,30,27,201,21*4D
00:13:56  $GPGLL,4532.53341,N,07338.47134,W,001356.00,A,A*70
00:13:57  $GPRMC,001357.00,A,4532.53416,N,07338.47609,W,11.891,298.73,281125,,,A*40
00:13:57  $GPVTG,298.73,T,,M,11.891,N,22.022,K,A*3A
00:13:57  $GPGGA,001357.00,4532.53416,N,07338.47609,W,1,09,1.48,42.1,M,-32.7,M,,*50
00:13:57  $GPGSA,A,3,22,01,17,19,02,30,03,06,07,,,,3.39,1.48,3.05*0C
00:13:57  $GPGSV,4,1,13,01,59,072,19,02,30,049,19,03,21,121,27,06,10,209,20*73
00:13:57  $GPGSV,4,2,13,07,08,181,16,08,03,080,,13,02,265,21,14,85,272,*73
00:13:57  $GPGSV,4,3,13,17,58,276,26,19,35,264,33,22,67,305,14,24,06,327,15*7E
00:13:57  $GPGSV,4,4,13,30,27,201,18*47
00:13:57  $GPGLL,4532.53416,N,07338.47609,W,001357.00,A,A*7D
00:13:58  $GPRMC,001358.00,A,4532.53423,N,07338.48040,W,10.768,284.16,281125,,,A*4B
00:13:58  $GPVTG,284.16,T,,M,10.768,N,19.943,K,A*3A
00:13:58  $GPGGA,001358.00,4532.53423,N,07338.48040,W,1,08,1.45,40.9,M,-32.7,M,,*5B
00:13:58  $GPGSA,A,3,14,22,17,19,02,30,03,06,,,,,2.90,1.45,2.51*00
00:13:58  $GPGSV,4,1,13,01,58,071,,02,30,049,19,03,21,121,27,06,10,209,39*71
00:13:58  $GPGSV,4,2,13,07,08,181,,08,03,080,,13,02,265,,14,85,272,41*72
00:13:58  $GPGSV,4,3,13,17,58,276,42,19,35,264,33,22,67,305,33,24,06,327,15*79
00:13:58  $GPGSV,4,4,13,30,27,201,19*46
00:13:58  $GPGLL,4532.53423,N,07338.48040,W,001358.00,A,A*70
00:13:59  $GPRMC,001359.00,A,4532.53229,N,07338.48457,W,11.953,254.61,281125,,,A*4E
00:13:59  $GPVTG,254.61,T,,M,11.953,N,22.137,K,A*33
00:13:59  $GPGGA,001359.00,4532.53229,N,07338.48457,W,1,09,1.26,40.2,M,-32.7,M,,*5B
00:13:59  $GPGSA,A,3,14,22,01,17,19,02,30,03,06,,,,2.15,1.26,1.74*0D
00:13:59  $GPGSV,4,1,13,01,58,071,40,02,30,049,21,03,21,121,24,06,10,209,23*76
00:13:59  $GPGSV,4,2,13,07,08,181,,08,03,080,,13,02,265,,14,85,272,36*72
00:13:59  $GPGSV,4,3,13,17,58,276,37,19,35,264,30,22,67,305,41,24,06,327,18*70
00:13:59  $GPGSV,4,4,13,30,27,201,35*48
00:13:59  $GPGLL,4532.53229,N,07338.48457,W,001359.00,A,A*7F
00:14:00  $GPRMC,001400.00,A,4532.52903,N,07338.48777,W,11.961,228.34,281125,,,A*4C
00:14:00  $GPVTG,228.34,T,,M,11.961,N,22.151,K,A*39
00:14:00  $GPGGA,001400.00,4532.52903,N,07338.48777,W,1,09,1.26,41.8,M,-32.7,M,,*58
00:14:00  $GPGSA,A,3,14,22,01,17,19,02,30,03,06,,,,2.15,1.26,1.74*0D
00:14:00  $GPGSV,4,1,13,01,58,071,38,02,30,049,38,03,21,121,35,06,10,209,25*77
00:14:00  $GPGSV,4,2,13,07,08,181,,08,03,080,,13,02,265,,14,85,272,39*7D
00:14:00  $GPGSV,4,3,13,17,58,276,33,19,35,264,37,22,67,305,38,24,06,327,18*7D
00:14:00  $GPGSV,4,4,13,30,27,201,25*49
00:14:00  $GPGLL,4532.52903,N,07338.48777,W,001400.00,A,A*77
00:14:01  $GPRMC,001401.00,A,4532.52598,N,07338.49065,W,12.391,213.51,281125,,,A*4B
00:14:01  $GPVTG,213.51,T,,M,12.391,N,22.948,K,A*34
00:14:01  $GPGGA,001401.00,4532.52598,N,07338.49065,W,1,09,1.26,42.6,M,-32.7,M,,*5F
00:14:01  $GPGSA,A,3,14,22,01,17,19,02,30,03,06,,,,2.15,1.26,1.74*0D
00:14:01  $GPGSV,4,1,13,01,58,071,43,02,30,049,42,03,21,121,25,06,10,209,27*75
00:14:01  $GPGSV,4,2,13,07,08,181,,08,03,080,,13,02,265,,14,85,272,40*73
00:14:01  $GPGSV,4,3,13,17,58,276,42,19,35,264,30,22,67,305,38,24,06,327,21*76
00:14:01  $GPGSV,4,4,13,30,27,201,27*4B
00:14:01  $GPGLL,4532.52598,N,07338.49065,W,001401.00,A,A*7D
