00:06:39  $GPGLL,4532.53150,N,07337.11215,W,000639.00,A,A*73
00:06:40  $GPRMC,000640.00,A,4532.53111,N,07337.10927,W,6.213,104.16,281125,,,A*7D
00:06:40  $GPVTG,104.16,T,,M,6.213,N,11.506,K,A*0A
00:06:40  $GPGGA,000640.00,4532.53111,N,07337.10927,W,1,09,1.29,61.3,M,-32.7,M,,*5A
00:06:40  $GPGSA,A,3,14,22,01,17,02,19,30,03,06,,,,2.19,1.29,1.77*0D
00:06:40  $GPGSV,4,1,13,01,60,078,32,02,33,050,40,03,18,123,26,06,07,208,20*73
00:06:40  $GPGSV,4,2,13,07,11,182,,08,05,078,17,13,04,267,,14,82,291,31*77
00:06:40  $GPGSV,4,3,13,17,55,272,32,19,33,262,39,22,64,305,43,24,04,329,09*78
00:06:40  $GPGSV,4,4,13,30,30,203,24*4C
00:06:40  $GPGLL,4532.53111,N,07337.10927,W,000640.00,A,A*73
00:06:41  $GPRMC,000641.00,A,4532.53028,N,07337.10645,W,7.443,113.05,281125,,,A*7A
00:06:41  $GPVTG,113.05,T,,M,7.443,N,13.784,K,A*06
00:06:41  $GPGGA,000641.00,4532.53028,N,07337.10645,W,1,09,1.29,62.0,M,-32.7,M,,*5B
00:06:41  $GPGSA,A,3,14,22,01,17,02,19,30,03,06,,,,2.19,1.29,1.77*0D
00:06:41  $GPGSV,4,1,13,01,60,078,32,02,33,050,30,03,18,123,26,06,07,208,20*74
00:06:41  $GPGSV,4,2,13,07,11,182,,08,05,078,18,13,04,267,,14,82,291,31*78
00:06:41  $GPGSV,4,3,13,17,55,272,32,19,33,262,39,22,64,305,43,24,04,329,*71
00:06:41  $GPGSV,4,4,13,30,30,203,37*4E
00:06:41  $GPGLL,4532.53028,N,07337.10645,W,000641.00,A,A*72
00:06:42  $GPRMC,000642.00,A,4532.52918,N,07337.10352,W,9.144,119.95,281125,,,A*7E
00:06:42  $GPVTG,119.95,T,,M,9.144,N,16.935,K,A*08
00:06:42  $GPGGA,000642.00,4532.52918,N,07337.10352,W,1,10,1.29,62.5,M,-32.7,M,,*5D
00:06:42  $GPGSA,A,3,14,22,01,17,02,19,30,03,07,06,,,2.19,1.29,1.77*0A
00:06:42  $GPGSV,4,1,13,01,60,078,35,02,33,050,34,03,18,123,25,06,07,208,28*7C
00:06:42  $GPGSV,4,2,13,07,11,182,29,08,05,078,19,13,04,267,,14,82,291,32*71
00:06:42  $GPGSV,4,3,13,17,55,272,31,19,33,262,39,22,64,305,45,24,04,329,*74
00:06:42  $GPGSV,4,4,13,30,30,203,39*40
00:06:42  $GPGLL,4532.52918,N,07337.10352,W,000642.00,A,A*79
00:06:43  $GPRMC,000643.00,A,4532.52738,N,07337.09986,W,10.641,122.98,281125,,,A*47
00:06:43  $GPVTG,122.98,T,,M,10.641,N,19.708,K,A*38
00:06:43  $GPGGA,000643.00,4532.52738,N,07337.09986,W,1,10,1.29,63.8,M,-32.7,M,,*57
00:06:43  $GPGSA,A,3,14,22,01,17,02,19,30,03,07,06,,,2.19,1.29,1.77*0A
00:06:43  $GPGSV,4,1,13,01,60,078,31,02,33,050,34,03,18,123,24,06,07,208,20*71
00:06:43  $GPGSV,4,2,13,07,11,182,28,08,05,078,19,13,04,267,,14,82,291,32*70
00:06:43  $GPGSV,4,3,13,17,55,272,32,19,33,262,39,22,64,305,44,24,04,329,*76
00:06:43  $GPGSV,4,4,13,30,30,203,27*4F
00:06:43  $GPGLL,4532.52738,N,07337.09986,W,000643.00,A,A*7F
00:06:44  $GPRMC,000644.00,A,4532.52551,N,07337.09652,W,9.925,125.62,281125,,,A*7C
00:06:44  $GPVTG,125.62,T,,M,9.925,N,18.381,K,A*0B
00:06:44  $GPGGA,000644.00,4532.52551,N,07337.09652,W,1,10,1.29,65.6,M,-32.7,M,,*53
00:06:44  $GPGSA,A,3,14,22,01,17,02,19,30,03,07,06,,,2.19,1.29,1.77*0A
00:06:44  $GPGSV,4,1,13,01,60,078,34,02,33,050,30,03,18,123,23,06,07,208,22*75
00:06:44  $GPGSV,4,2,13,07,11,182,27,08,05,078,18,13,04,267,,14,82,291,31*7D
00:06:44  $GPGSV,4,3,13,17,55,272,32,19,33,262,42,22,64,305,44,24,04,329,*7A
00:06:44  $GPGSV,4,4,13,30,30,203,33*4A
00:06:44  $GPGLL,4532.52551,N,07337.09652,W,000644.00,A,A*73
00:06:45  $GPRMC,000645.00,A,4532.52405,N,07337.09340,W,9.626,125.55,281125,,,A*73
00:06:45  $GPVTG,125.55,T,,M,9.626,N,17.828,K,A*04
00:06:45  $GPGGA,000645.00,4532.52405,N,07337.09340,W,1,10,1.29,66.7,M,-32.7,M,,*56
00:06:45  $GPGSA,A,3,14,22,01,17,02,19,30,03,07,06,,,2.19,1.29,1.77*0A
00:06:45  $GPGSV,4,1,13,01,60,078,34,02,33,050,31,03,18,123,24,06,07,208,23*72
00:06:45  $GPGSV,4,2,13,07,11,182,32,08,05,078,18,13,04,267,,14,82,291,31*79
00:06:45  $GPGSV,4,3,13,17,55,272,28,19,33,262,39,22,64,305,45,24,04,329,*7C
00:06:45  $GPGSV,4,4,13,30,30,203,36*4F
00:06:45  $GPGLL,4532.52405,N,07337.09340,W,000645.00,A,A*74
00:06:46  $GPRMC,000646.00,A,4532.52253,N,07337.08994,W,10.772,124.71,281125,,,A*48
00:06:46  $GPVTG,124.71,T,,M,10.772,N,19.950,K,A*3B
00:06:46  $GPGGA,000646.00,4532.52253,N,07337.08994,W,1,10,1.29,67.1,M,-32.7,M,,*55
00:06:46  $GPGSA,A,3,14,22,01,17,02,19,30,03,07,06,,,2.19,1.29,1.77*0A
00:06:46  $GPGSV,4,1,13,01,60,078,34,02,33,050,34,03,18,123,24,06,07,208,24*70
00:06:46  $GPGSV,4,2,13,07,11,182,26,08,05,078,18,13,04,267,,14,82,291,32*7F
00:06:46  $GPGSV,4,3,13,17,55,272,29,19,33,262,37,22,64,305,45,24,04,329,*73
00:06:46  $GPGSV,4,4,13,30,30,203,28*40
00:06:46  $GPGLL,4532.52253,N,07337.08994,W,000646.00,A,A*70
00:06:47  $GPRMC,000647.00,A,4532.52067,N,07337.08632,W,11.126,125.76,281125,,,A*4F
00:06:47  $GPVTG,125.76,T,,M,11.126,N,20.606,K,A*3D
00:06:47  $GPGGA,000647.00,4532.52067,N,07337.08632,W,1,10,1.29,68.6,M,-32.7,M,,*5A
00:06:47  $GPGSA,A,3,14,22,01,17,02,19,30,03,07,06,,,2.19,1.29,1.77*0A
00:06:47  $GPGSV,4,1,13,01,60,078,35,02,33,050,26,03,18,123,23,06,07,208,30*70
00:06:47  $GPGSV,4,2,13,07,11,182,25,08,05,078,18,13,04,267,,14,82,291,32*7C
00:06:47  $GPGSV,4,3,13,17,55,272,29,19,33,262,41,22,64,305,45,24,04,329,*72
00:06:47  $GPGSV,4,4,13,30,30,203,28*40
00:06:47  $GPGLL,4532.52067,N,07337.08632,W,000647.00,A,A*77
00:06:48  $GPRMC,000648.00,A,4532.51866,N,07337.08261,W,12.175,128.10,281125,,,A*40
00:06:48  $GPVTG,128.10,T,,M,12.175,N,22.549,K,A*3F
00:06:48  $GPGGA,000648.00,4532.51866,N,07337.08261,W,1,10,1.29,69.2,M,-32.7,M,,*58
00:06:48  $GPGSA,A,3,14,22,01,17,02,19,30,03,07,06,,,2.19,1.29,1.77*0A
00:06:48  $GPGSV,4,1,13,01,60,078,33,02,33,050,28,03,18,123,23,06,07,208,22*7B
00:06:48  $GPGSV,4,2,13,07,11,182,23,08,05,078,17,13,04,267,,14,82,291,32*75
00:06:48  $GPGSV,4,3,13,17,55,272,32,19,33,262,40,22,64,305,45,24,04,329,*79
00:06:48  $GPGSV,4,4,13,30,30,203,27*4F
00:06:48  $GPGLL,4532.51866,N,07337.08261,W,000648.00,A,A*70
00:06:49  $GPRMC,000649.00,A,4532.51758,N,07337.07909,W,9.607,122.51,281125,,,A*7E
00:06:49  $GPVTG,122.51,T,,M,9.607,N,17.792,K,A*0A
00:06:49  $GPGGA,000649.00,4532.51758,N,07337.07909,W,1,10,1.24,69.5,M,-32.7,M,,*5B
00:06:49  $GPGSA,A,3,14,22,01,17,02,19,30,03,07,06,,,2.16,1.24,1.77*08
00:06:49  $GPGSV,4,1,13,01,60,077,36,02,33,050,36,03,18,123,23,06,07,208,20*7C
00:06:49  $GPGSV,4,2,13,07,11,182,24,08,05,078,17,13,04,267,,14,82,291,33*73
00:06:49  $GPGSV,4,3,13,17,55,272,35,19,33,262,43,22,64,305,45,24,04,329,*7D
00:06:49  $GPGSV,4,4,13,30,30,203,32*4B
00:06:49  $GPGLL,4532.51758,N,07337.07909,W,000649.00,A,A*79
00:06:50  $GPRMC,000650.00,A,4532.51679,N,07337.07505,W,11.106,114.22,281125,,,A*4A
00:06:50  $GPVTG,114.22,T,,M,11.106,N,20.569,K,A*36
00:06:50  $GPGGA,000650.00,4532.51679,N,07337.07505,W,1,10,1.29,69.3,M,-32.7,M,,*5A
00:06:50  $GPGSA,A,3,14,22,01,17,02,19,30,03,07,06,,,2.19,1.29,1.77*0A
00:06:50  $GPGSV,4,1,13,01,60,077,33,02,32,049,29,03,18,123,22,06,07,208,19*75
00:06:50  $GPGSV,4,2,13,07,11,182,24,08,05,078,16,13,04,267,,14,82,291,33*72
00:06:50  $GPGSV,4,3,13,17,55,272,30,19,33,262,31,22,64,305,45,24,04,329,*7D
00:06:50  $GPGSV,4,4,13,30,30,203,26*4E
00:06:50  $GPGLL,4532.51679,N,07337.07505,W,000650.00,A,A*73
00:06:51  $GPRMC,000651.00,A,4532.51552,N,07337.07123,W,10.351,116.51,281125,,,A*46
00:06:51  $GPVTG,116.51,T,,M,10.351,N,19.169,K,A*3F
00:06:51  $GPGGA,000651.00,4532.51552,N,07337.07123,W,1,10,1.29,70.3,M,-32.7,M,,*59
00:06:51  $GPGSA,A,3,14,22,01,17,02,19,30,03,07,06,,,2.19,1.29,1.77*0A
00:06:51  $GPGSV,4,1,13,01,60,077,32,02,32,049,30,03,19,123,21,06,07,208,20*74
00:06:51  $GPGSV,4,2,13,07,11,182,22,08,05,078,16,13,04,267,,14,82,291,35*72
00:06:51  $GPGSV,4,3,13,17,55,272,29,19,33,262,42,22,64,305,45,24,04,329,*71
00:06:51  $GPGSV,4,4,13,30,30,203,31*48
00:06:51  $GPGLL,4532.51552,N,07337.07123,W,000651.00,A,A*78
00:06:52  $GPRMC,000652.00,A,4532.51409,N,07337.06740,W,11.145,118.74,281125,,,A*47
00:06:52  $GPVTG,118.74,T,,M,11.145,N,20.641,K,A*37
00:06:52  $GPGGA,000652.00,4532.51409,N,07337.06740,W,1,10,1.29,70.5,M,-32.7,M,,*51
00:06:52  $GPGSA,A,3,14,22,01,17,02,19,30,03,07,06,,,2.19,1.29,1.77*0A
00:06:52  $GPGSV,4,1,13,01,60,077,35,02,32,049,33,03,19,123,23,06,07,208,20*72
00:06:52  $GPGSV,4,2,13,07,11,182,20,08,05,078,16,13,04,267,,14,82,291,27*73
00:06:52  $GPGSV,4,3,13,17,55,272,29,19,33,262,40,22,64,305,44,24,04,329,*72
00:06:52  $GPGSV,4,4,13,30,30,203,25*4D
00:06:52  $GPGLL,4532.51409,N,07337.06740,W,000652.00,A,A*76
00:06:53  $GPRMC,000653.00,A,4532.51274,N,07337.06365,W,10.572,117.44,281125,,,A*44
00:06:53  $GPVTG,117.44,T,,M,10.572,N,19.579,K,A*38
00:06:53  $GPGGA,000653.00,4532.51274,N,07337.06365,W,1,10,1.29,71.2,M,-32.7,M,,*59
00:06:53  $GPGSA,A,3,14,22,01,17,02,19,30,03,07,06,,,2.19,1.29,1.77*0A
00:06:53  $GPGSV,4,1,13,01,60,077,31,02,32,049,29,03,19,123,23,06,07,208,18*76
00:06:53  $GPGSV,4,2,13,07,11,182,19,08,05,078,16,13,04,267,,14,82,291,33*7C
00:06:53  $GPGSV,4,3,13,17,55,272,30,19,33,262,28,22,64,305,43,24,04,329,*73
00:06:53  $GPGSV,4,4,13,30,30,203,24*4C
00:06:53  $GPGLL,4532.51274,N,07337.06365,W,000653.00,A,A*78
00:06:54  $GPRMC,000654.00,A,4532.51118,N,07337.06006,W,10.705,121.90,281125,,,A*42
00:06:54  $GPVTG,121.90,T,,M,10.705,N,19.826,K,A*31
00:06:54  $GPGGA,000654.00,4532.51118,N,07337.06006,W,1,09,2.04,71.4,M,-32.7,M,,*53
00:06:54  $GPGSA,A,3,14,22,01,17,02,19,30,03,06,,,,3.39,2.04,2.70*06
00:06:54  $GPGSV,4,1,13,01,60,077,34,02,32,049,34,03,19,123,24,06,08,209,16*78
00:06:54  $GPGSV,4,2,13,07,11,182,,08,05,078,16,13,04,267,11,14,82,291,36*71
00:06:54  $GPGSV,4,3,13,17,55,272,33,19,33,262,35,22,64,305,45,24,04,329,*7A
00:06:54  $GPGSV,4,4,13,30,30,203,24*4C
00:06:54  $GPGLL,4532.51118,N,07337.06006,W,000654.00,A,A*70
00:06:55  $GPRMC,000655.00,A,4532.50874,N,07337.05684,W,10.792,128.14,281125,,,A*45
00:06:55  $GPVTG,128.14,T,,M,10.792,N,19.988,K,A*3F
00:06:55  $GPGGA,000655.00,4532.50874,N,07337.05684,W,1,09,1.46,73.7,M,-32.7,M,,*5B
00:06:55  $GPGSA,A,3,14,22,01,17,02,19,30,03,06,,,,2.35,1.46,1.85*07
00:06:55  $GPGSV,4,1,13,01,60,077,36,02,32,049,33,03,19,123,23,06,08,209,14*78
00:06:55  $GPGSV,4,2,13,07,11,182,,08,05,078,15,13,04,267,13,14,82,291,35*73
00:06:55  $GPGSV,4,3,13,17,55,272,33,19,33,262,32,22,64,305,45,24,04,329,*7D
00:06:55  $GPGSV,4,4,13,30,30,203,29*41
00:06:55  $GPGLL,4532.50874,N,07337.05684,W,000655.00,A,A*7C
00:06:56  $GPRMC,000656.00,A,4532.50679,N,07337.05336,W,11.664,129.20,281125,,,A*46
00:06:56  $GPVTG,129.20,T,,M,11.664,N,21.601,K,A*35
00:06:56  $GPGGA,000656.00,4532.50679,N,07337.05336,W,1,10,1.29,74.2,M,-32.7,M,,*54
00:06:56  $GPGSA,A,3,14,22,01,17,02,19,30,03,07,06,,,2.19,1.29,1.77*0A
00:06:56  $GPGSV,4,1,13,01,60,077,36,02,32,049,28,03,19,123,24,06,08,209,13*72
00:06:56  $GPGSV,4,2,13,07,11,182,22,08,05,078,14,13,04,267,18,14,82,291,30*7C
00:06:56  $GPGSV,4,3,13,17,55,272,28,19,33,262,35,22,64,305,43,24,04,329,*76
00:06:56  $GPGSV,4,4,13,30,30,203,22*4A
00:06:56  $GPGLL,4532.50679,N,07337.05336,W,000656.00,A,A*70
00:06:57  $GPRMC,000657.00,A,4532.50430,N,07337.05031,W,11.243,135.70,281125,,,A*45
00:06:57  $GPVTG,135.70,T,,M,11.243,N,20.821,K,A*31
00:06:57  $GPGGA,000657.00,4532.50430,N,07337.05031,W,1,10,1.34,76.1,M,-32.7,M,,*53
00:06:57  $GPGSA,A,3,14,22,01,17,02,19,30,03,07,06,,,2.28,1.34,1.85*09
00:06:57  $GPGSV,4,1,13,01,60,077,34,02,32,049,28,03,19,123,23,06,08,209,11*75
00:06:57  $GPGSV,4,2,13,07,11,182,30,08,05,078,15,13,04,267,17,14,82,291,33*72
00:06:57  $GPGSV,4,3,13,17,55,272,28,19,33,262,36,22,64,305,45,24,04,329,*73
00:06:57  $GPGSV,4,4,13,30,30,203,24*4C
00:06:57  $GPGLL,4532.50430,N,07337.05031,W,000657.00,A,A*7A
00:06:58  $GPRMC,000658.00,A,4532.50352,N,07337.04669,W,10.309,123.36,281125,,,A*48
00:06:58  $GPVTG,123.36,T,,M,10.309,N,19.092,K,A*30
00:06:58  $GPGGA,000658.00,4532.50352,N,07337.04669,W,1,10,1.24,75.9,M,-32.7,M,,*5F
00:06:58  $GPGSA,A,3,14,22,01,17,02,19,30,03,07,06,,,2.16,1.24,1.77*08
00:06:58  $GPGSV,4,1,13,01,60,077,34,02,32,049,29,03,19,123,24,06,08,209,11*73
00:06:58  $GPGSV,4,2,13,07,11,182,25,08,05,078,14,13,04,267,18,14,82,291,36*7D
00:06:58  $GPGSV,4,3,13,17,55,272,32,19,33,262,29,22,64,305,46,24,04,329,*75
00:06:58  $GPGSV,4,4,13,30,30,203,28*40
00:06:58  $GPGLL,4532.50352,N,07337.04669,W,000658.00,A,A*7C
00:06:59  $GPRMC,000659.00,A,4532.50231,N,07337.04302,W,10.903,123.17,281125,,,A*46
00:06:59  $GPVTG,123.17,T,,M,10.903,N,20.192,K,A*38
00:06:59  $GPGGA,000659.00,4532.50231,N,07337.04302,W,1,10,1.24,75.6,M,-32.7,M,,*5D
00:06:59  $GPGSA,A,3,14,22,01,17,02,19,30,03,07,06,,,2.16,1.24,1.77*08
00:06:59  $GPGSV,4,1,13,01,60,077,32,02,32,049,35,03,19,123,23,06,08,209,16*78
00:06:59  $GPGSV,4,2,13,07,11,182,25,08,05,078,15,13,04,267,18,14,82,291,29*72
00:06:59  $GPGSV,4,3,13,17,55,272,31,19,33,262,35,22,64,305,43,24,04,329,*7E
00:06:59  $GPGSV,4,4,13,30,30,203,25*4D
00:06:59  $GPGLL,4532.50231,N,07337.04302,W,000659.00,A,A*71
00:07:00  $GPRMC,000700.00,A,4532.50279,N,07337.03976,W,9.749,121.16,281125,,,A*72
00:07:00  $GPVTG,121.16,T,,M,9.749,N,18.055,K,A*02
00:07:00  $GPGGA,000700.00,4532.50279,N,07337.03976,W,1,10,1.31,74.6,M,-32.7,M,,*57
00:07:00  $GPGSA,A,3,14,22,01,17,02,19,30,03,07,06,,,2.34,1.31,1.93*06
00:07:00  $GPGSV,4,1,13,01,60,077,35,02,32,049,26,03,19,123,24,06,08,209,19*75
00:07:00  $GPGSV,4,2,13,07,11,182,35,08,05,078,14,13,04,267,17,14,82,291,34*71
00:07:00  $GPGSV,4,3,13,17,55,272,35,19,33,262,33,22,64,305,45,24,04,329,*7A
00:07:00  $GPGSV,4,4,13,30,30,203,38*41
00:07:00  $GPGLL,4532.50279,N,07337.03976,W,000700.00,A,A*7E
00:07:01  $GPRMC,000701.00,A,4532.50162,N,07337.03655,W,9.863,123.65,281125,,,A*75
00:07:01  $GPVTG,123.65,T,,M,9.863,N,18.267,K,A*00
00:07:01  $GPGGA,000701.00,4532.50162,N,07337.03655,W,1,10,1.31,74.4,M,-32.7,M,,*53
00:07:01  $GPGSA,A,3,14,22,01,17,02,19,30,03,07,06,,,2.34,1.31,1.93*06
00:07:01  $GPGSV,4,1,13,01,60,077,37,02,32,049,30,03,19,123,25,06,08,209,30*7A
00:07:01  $GPGSV,4,2,13,07,11,182,27,08,05,078,,13,03,267,15,14,82,291,34*72
00:07:01  $GPGSV,4,3,13,17,55,272,31,19,33,262,36,22,64,305,45,24,04,329,*7B
00:07:01  $GPGSV,4,4,13,30,30,203,37*4E
00:07:01  $GPGLL,4532.50162,N,07337.03655,W,000701.00,A,A*78
00:07:02  $GPRMC,000702.00,A,4532.50016,N,07337.03491,W,6.660,133.45,281125,,,A*7F
00:07:02  $GPVTG,133.45,T,,M,6.660,N,12.335,K,A*0D
00:07:02  $GPGGA,000702.00,4532.50016,N,07337.03491,W,1,10,1.31,73.8,M,-32.7,M,,*53
00:07:02  $GPGSA,A,3,14,22,01,17,02,19,30,03,07,06,,,2.34,1.31,1.93*06
00:07:02  $GPGSV,4,1,13,01,60,077,39,02,32,049,29,03,19,123,25,06,08,209,30*7C
00:07:02  $GPGSV,4,2,13,07,11,182,31,08,05,078,,13,03,267,14,14,83,289,36*7E
00:07:02  $GPGSV,4,3,13,17,55,272,35,19,33,262,35,22,64,305,46,24,04,329,22*7F
00:07:02  $GPGSV,4,4,13,30,30,203,42*4C
00:07:02  $GPGLL,4532.50016,N,07337.03491,W,000702.00,A,A*73
00:07:03  $GPRMC,000703.00,A,4532.49907,N,07337.03384,W,3.756,134.74,281125,,,A*78
00:07:03  $GPVTG,134.74,T,,M,3.756,N,6.956,K,A*33
00:07:03  $GPGGA,000703.00,4532.49907,N,07337.03384,W,1,10,1.31,74.2,M,-32.7,M,,*5D
00:07:03  $GPGSA,A,3,14,22,01,17,02,19,30,03,07,06,,,2.33,1.31,1.93*01
00:07:03  $GPGSV,4,1,13,01,60,077,36,02,32,049,29,03,19,123,23,06,08,209,23*77
00:07:03  $GPGSV,4,2,13,07,11,182,24,08,05,078,,13,03,267,14,14,83,289,30*7C
00:07:03  $GPGSV,4,3,13,17,55,272,32,19,33,262,34,22,64,305,41,24,04,329,20*7C
00:07:03  $GPGSV,4,4,13,30,30,203,30*49
00:07:03  $GPGLL,4532.49907,N,07337.03384,W,000703.00,A,A*70
00:07:04  $GPRMC,000704.00,A,4532.49846,N,07337.03138,W,6.427,119.79,281125,,,A*7C
00:07:04  $GPVTG,119.79,T,,M,6.427,N,11.903,K,A*07
00:07:04  $GPGGA,000704.00,4532.49846,N,07337.03138,W,1,10,1.31,73.5,M,-32.7,M,,*5B
00:07:04  $GPGSA,A,3,14,22,01,17,02,19,30,03,07,06,,,2.33,1.31,1.93*01
00:07:04  $GPGSV,4,1,13,01,60,077,36,02,32,049,33,03,19,123,29,06,08,209,24*71
00:07:04  $GPGSV,4,2,13,07,11,182,26,08,05,078,19,13,03,267,14,14,83,289,31*77
00:07:04  $GPGSV,4,3,13,17,55,272,33,19,33,262,40,22,64,305,46,24,04,329,19*73
00:07:04  $GPGSV,4,4,13,30,30,203,33*4A
00:07:04  $GPGLL,4532.49846,N,07337.03138,W,000704.00,A,A*76
00:07:05  $GPRMC,000705.00,A,4532.49755,N,07337.02912,W,6.593,120.69,281125,,,A*74
00:07:05  $GPVTG,120.69,T,,M,6.593,N,12.210,K,A*08
00:07:05  $GPGGA,000705.00,4532.49755,N,07337.02912,W,1,10,2.02,73.4,M,-32.7,M,,*54
00:07:05  $GPGSA,A,3,14,22,01,17,02,19,30,03,07,06,,,3.38,2.02,2.71*07
00:07:05  $GPGSV,4,1,13,01,60,077,37,02,32,049,36,03,19,123,23,06,08,209,25*7E
00:07:05  $GPGSV,4,2,13,07,11,182,26,08,05,078,,13,03,267,12,14,83,289,31*79
00:07:05  $GPGSV,4,3,13,17,55,273,35,19,33,262,41,22,64,305,44,24,04,329,23*7E
00:07:05  $GPGSV,4,4,13,30,30,203,30*49
00:07:05  $GPGLL,4532.49755,N,07337.02912,W,000705.00,A,A*7B
00:07:06  $GPRMC,000706.00,A,4532.49677,N,07337.02675,W,6.161,121.01,281125,,,A*7E
00:07:06  $GPVTG,121.01,T,,M,6.161,N,11.410,K,A*0B
00:07:06  $GPGGA,000706.00,4532.49677,N,07337.02675,W,1,10,1.31,73.2,M,-32.7,M,,*5D
00:07:06  $GPGSA,A,3,14,22,01,17,02,19,30,03,07,06,,,2.33,1.31,1.93*01
00:07:06  $GPGSV,4,1,13,01,60,077,35,02,32,049,31,03,19,123,23,06,08,209,22*7C
00:07:06  $GPGSV,4,2,13,07,11,182,26,08,05,078,15,13,03,267,10,14,83,289,26*79
00:07:06  $GPGSV,4,3,13,17,55,273,32,19,33,262,41,22,64,305,42,24,04,329,21*7D
00:07:06  $GPGSV,4,4,13,30,30,203,24*4C
00:07:06  $GPGLL,4532.49677,N,07337.02675,W,000706.00,A,A*77
00:07:07  $GPRMC,000707.00,A,4532.49521,N,07337.02458,W,6.692,125.91,281125,,,A*74
00:07:07  $GPVTG,125.91,T,,M,6.692,N,12.393,K,A*02
00:07:07  $GPGGA,000707.00,4532.49521,N,07337.02458,W,1,10,2.02,74.9,M,-32.7,M,,*5E
00:07:07  $GPGSA,A,3,14,22,01,17,02,19,30,03,07,06,,,3.38,2.02,2.71*07
00:07:07  $GPGSV,4,1,13,01,60,077,35,02,32,049,38,03,19,123,24,06,08,209,21*71
00:07:07  $GPGSV,4,2,13,07,11,182,25,08,05,078,15,13,03,267,10,14,83,289,33*7E
00:07:07  $GPGSV,4,3,13,17,55,273,33,19,33,262,42,22,64,305,43,24,04,329,*7D
00:07:07  $GPGSV,4,4,13,30,30,203,26*4E
00:07:07  $GPGLL,4532.49521,N,07337.02458,W,000707.00,A,A*7B
00:07:08  $GPRMC,000708.00,A,4532.49356,N,07337.02203,W,6.890,130.59,281125,,,A*79
00:07:08  $GPVTG,130.59,T,,M,6.890,N,12.760,K,A*06
00:07:08  $GPGGA,000708.00,4532.49356,N,07337.02203,W,1,10,1.29,76.2,M,-32.7,M,,*5C
00:07:08  $GPGSA,A,3,14,22,01,17,02,19,30,03,07,06,,,2.19,1.29,1.77*0A
00:07:08  $GPGSV,4,1,13,01,60,077,35,02,32,049,32,03,19,123,24,06,08,209,21*7B
00:07:08  $GPGSV,4,2,13,07,11,182,28,08,05,078,16,13,03,267,10,14,83,289,32*71
00:07:08  $GPGSV,4,3,13,17,55,273,27,19,33,262,34,22,64,305,44,24,04,329,*7E
00:07:08  $GPGSV,4,4,13,30,30,203,25*4D
00:07:08  $GPGLL,4532.49356,N,07337.02203,W,000708.00,A,A*7A
00:07:09  $GPRMC,000709.00,A,4532.49165,N,07337.01796,W,7.036,129.16,281125,,,A*76
00:07:09  $GPVTG,129.16,T,,M,7.036,N,13.031,K,A*02
00:07:09  $GPGGA,000709.00,4532.49165,N,07337.01796,W,1,10,1.97,77.8,M,-32.7,M,,*5B
00:07:09  $GPGSA,A,3,14,22,01,17,02,19,30,03,07,06,,,3.35,1.97,2.71*05
00:07:09  $GPGSV,4,1,13,01,60,077,39,02,32,049,37,03,19,123,26,06,08,209,22*73
00:07:09  $GPGSV,4,2,13,07,11,182,27,08,05,078,19,13,03,267,10,14,83,289,32*71
00:07:09  $GPGSV,4,3,13,17,55,273,26,19,33,262,34,22,64,305,45,24,04,329,20*7C
00:07:09  $GPGSV,4,4,13,30,30,203,31*48
00:07:09  $GPGLL,4532.49165,N,07337.01796,W,000709.00,A,A*73
00:07:10  $GPRMC,000710.00,A,4532.49099,N,07337.01543,W,7.053,125.32,281125,,,A*7F
00:07:10  $GPVTG,125.32,T,,M,7.053,N,13.062,K,A*0D
00:07:10  $GPGGA,000710.00,4532.49099,N,07337.01543,W,1,10,1.24,76.8,M,-32.7,M,,*52
00:07:10  $GPGSA,A,3,14,22,01,17,02,19,30,03,07,06,,,2.16,1.24,1.77*08
00:07:10  $GPGSV,4,1,13,01,60,077,31,02,32,049,33,03,19,123,26,06,08,209,22*7F
00:07:10  $GPGSV,4,2,13,07,11,182,26,08,05,078,19,13,03,267,10,14,83,289,31*73
00:07:10  $GPGSV,4,3,13,17,55,273,34,19,33,262,34,22,65,305,44,24,04,329,18*74
00:07:10  $GPGSV,4,4,13,30,30,203,30*49
00:07:10  $GPGLL,4532.49099,N,07337.01543,W,000710.00,A,A*73
00:07:11  $GPRMC,000711.00,A,4532.49020,N,07337.01329,W,5.727,122.48,281125,,,A*7A
00:07:11  $GPVTG,122.48,T,,M,5.727,N,10.606,K,A*06
00:07:11  $GPGGA,000711.00,4532.49020,N,07337.01329,W,1,10,1.97,76.6,M,-32.7,M,,*5D
00:07:11  $GPGSA,A,3,14,22,01,17,02,19,30,03,07,06,,,3.35,1.97,2.71*05
00:07:11  $GPGSV,4,1,13,01,60,077,33,02,32,049,37,03,19,123,27,06,08,209,21*7B
00:07:11  $GPGSV,4,2,13,07,11,182,25,08,05,078,19,13,03,267,10,14,83,289,34*75
00:07:11  $GPGSV,4,3,13,17,55,273,33,19,33,262,40,22,65,305,44,24,04,329,17*7F
00:07:11  $GPGSV,4,4,13,30,30,203,29*41
00:07:11  $GPGLL,4532.49020,N,07337.01329,W,000711.00,A,A*7A
00:07:12  $GPRMC,000712.00,A,4532.48908,N,07337.01115,W,5.457,125.75,281125,,,A*7B
00:07:12  $GPVTG,125.75,T,,M,5.457,N,10.106,K,A*0C
00:07:12  $GPGGA,000712.00,4532.48908,N,07337.01115,W,1,10,1.97,77.7,M,-32.7,M,,*51
00:07:12  $GPGSA,A,3,14,22,01,17,02,19,30,03,07,06,,,3.35,1.97,2.71*05
00:07:12  $GPGSV,4,1,13,01,60,077,36,02,32,049,38,03,19,123,26,06,08,209,20*71
00:07:12  $GPGSV,4,2,13,07,11,182,26,08,05,078,18,13,03,267,,14,83,289,34*76
00:07:12  $GPGSV,4,3,13,17,55,273,36,19,33,262,43,22,65,305,47,24,05,328,*7C
00:07:12  $GPGSV,4,4,13,30,30,203,23*4B
00:07:12  $GPGLL,4532.48908,N,07337.01115,W,000712.00,A,A*76
00:07:13  $GPRMC,000713.00,A,4532.48770,N,07337.00865,W,7.742,131.52,281125,,,A*71
00:07:13  $GPVTG,131.52,T,,M,7.742,N,14.339,K,A*03
00:07:13  $GPGGA,000713.00,4532.48770,N,07337.00865,W,1,10,1.97,77.7,M,-32.7,M,,*5E
00:07:13  $GPGSA,A,3,14,22,01,17,02,19,30,03,07,06,,,3.35,1.97,2.71*05
00:07:13  $GPGSV,4,1,13,01,60,077,36,02,32,049,32,03,19,123,30,06,08,209,22*7E
00:07:13  $GPGSV,4,2,13,07,11,182,26,08,05,078,17,13,03,267,16,14,83,289,32*78
00:07:13  $GPGSV,4,3,13,17,55,273,30,19,33,262,42,22,65,305,43,24,05,328,*7F
00:07:13  $GPGSV,4,4,13,30,30,203,24*4C
00:07:13  $GPGLL,4532.48770,N,07337.00865,W,000713.00,A,A*79
00:07:14  $GPRMC,000714.00,A,4532.48672,N,07337.00612,W,6.961,131.82,281125,,,A*78
00:07:14  $GPVTG,131.82,T,,M,6.961,N,12.891,K,A*0F
00:07:14  $GPGGA,000714.00,4532.48672,N,07337.00612,W,1,10,1.97,77.2,M,-32.7,M,,*51
00:07:14  $GPGSA,A,3,14,22,01,17,02,19,30,03,07,06,,,3.35,1.97,2.71*05
00:07:14  $GPGSV,4,1,13,01,60,077,38,02,32,049,37,03,19,123,24,06,08,209,20*72
00:07:14  $GPGSV,4,2,13,07,11,182,31,08,05,078,18,13,03,267,,14,83,289,37*73
00:07:14  $GPGSV,4,3,13,17,55,273,37,19,33,262,45,22,65,305,47,24,05,328,*7B
00:07:14  $GPGSV,4,4,13,30,30,203,25*4D
00:07:14  $GPGLL,4532.48672,N,07337.00612,W,000714.00,A,A*73
00:07:15  $GPRMC,000715.00,A,4532.48551,N,07337.00413,W,6.532,132.66,281125,,,A*7B
00:07:15  $GPVTG,132.66,T,,M,6.532,N,12.097,K,A*02
00:07:15  $GPGGA,000715.00,4532.48551,N,07337.00413,W,1,10,1.97,77.6,M,-32.7,M,,*55
00:07:15  $GPGSA,A,3,14,22,01,17,02,19,30,03,07,06,,,3.35,1.97,2.71*05
00:07:15  $GPGSV,4,1,13,01,60,077,30,02,32,049,36,03,19,123,25,06,08,209,20*7A
00:07:15  $GPGSV,4,2,13,07,11,182,30,08,05,078,19,13,03,267,,14,83,289,34*70
00:07:15  $GPGSV,4,3,13,17,55,273,32,19,33,262,34,22,65,305,43,24,05,328,*7C
00:07:15  $GPGSV,4,4,13,30,30,203,24*4C
00:07:15  $GPGLL,4532.48551,N,07337.00413,W,000715.00,A,A*73
00:07:16  $GPRMC,000716.00,A,4532.48448,N,07337.00183,W,6.630,131.32,281125,,,A*7E
00:07:16  $GPVTG,131.32,T,,M,6.630,N,12.280,K,A*05
00:07:16  $GPGGA,000716.00,4532.48448,N,07337.00183,W,1,10,1.97,77.0,M,-32.7,M,,*55
00:07:16  $GPGSA,A,3,14,22,01,17,02,19,30,03,07,06,,,3.35,1.97,2.71*05
00:07:16  $GPGSV,4,1,13,01,60,077,30,02,32,049,37,03,19,123,30,06,08,209,19*75
00:07:16  $GPGSV,4,2,13,07,11,182,31,08,05,078,20,13,03,267,,14,83,289,34*7B
00:07:16  $GPGSV,4,3,13,17,55,273,35,19,33,262,40,22,65,305,43,24,05,328,*78
00:07:16  $GPGSV,4,4,13,30,30,203,24*4C
00:07:16  $GPGLL,4532.48448,N,07337.00183,W,000716.00,A,A*75
00:07:17  $GPRMC,000717.00,A,4532.48399,N,07336.99930,W,6.724,131.49,281125,,,A*7D
00:07:17  $GPVTG,131.49,T,,M,6.724,N,12.454,K,A*02
00:07:17  $GPGGA,000717.00,4532.48399,N,07336.99930,W,1,10,1.24,74.8,M,-32.7,M,,*5D
00:07:17  $GPGSA,A,3,14,22,01,17,02,19,30,03,07,06,,,2.16,1.24,1.77*08
00:07:17  $GPGSV,4,1,13,01,60,077,35,02,32,049,31,03,19,123,23,06,08,209,20*7E
00:07:17  $GPGSV,4,2,13,07,11,182,26,08,05,078,19,13,03,267,,14,83,289,32*71
00:07:17  $GPGSV,4,3,13,17,55,273,32,19,33,262,40,22,65,305,44,24,05,328,*78
00:07:17  $GPGSV,4,4,13,30,30,203,30*49
00:07:17  $GPGLL,4532.48399,N,07336.99930,W,000717.00,A,A*7E
00:07:18  $GPRMC,000718.00,A,4532.48291,N,07336.99567,W,5.687,130.02,281125,,,A*70
00:07:18  $GPVTG,130.02,T,,M,5.687,N,10.533,K,A*05
00:07:18  $GPGGA,000718.00,4532.48291,N,07336.99567,W,1,10,1.97,73.3,M,-32.7,M,,*51
00:07:18  $GPGSA,A,3,14,22,01,17,02,19,30,03,07,06,,,3.35,1.97,2.71*05
00:07:18  $GPGSV,4,1,13,01,60,077,42,02,32,049,35,03,19,123,34,06,08,209,22*7E
00:07:18  $GPGSV,4,2,13,07,11,182,26,08,05,078,18,13,03,267,,14,83,289,35*77
00:07:18  $GPGSV,4,3,13,17,55,273,35,19,33,262,36,22,65,305,42,24,05,328,*78
00:07:18  $GPGSV,4,4,13,30,29,203,35*44
00:07:18  $GPGLL,4532.48291,N,07336.99567,W,000718.00,A,A*76
00:07:19  $GPRMC,000719.00,A,4532.48123,N,07336.99358,W,5.072,144.36,281125,,,A*79
00:07:19  $GPVTG,144.36,T,,M,5.072,N,9.393,K,A*39
00:07:19  $GPGGA,000719.00,4532.48123,N,07336.99358,W,1,10,1.97,73.3,M,-32.7,M,,*50
00:07:19  $GPGSA,A,3,14,22,01,17,02,19,30,03,07,06,,,3.35,1.97,2.71*05
00:07:19  $GPGSV,4,1,13,01,60,077,47,02,32,049,45,03,19,123,32,06,08,209,26*7E
00:07:19  $GPGSV,4,2,13,07,11,182,26,08,05,078,18,13,03,267,,14,83,289,32*70
00:07:19  $GPGSV,4,3,13,17,55,273,28,19,33,262,40,22,65,305,30,24,05,328,*70
00:07:19  $GPGSV,4,4,13,30,29,203,38*49
00:07:19  $GPGLL,4532.48123,N,07336.99358,W,000719.00,A,A*77
00:07:20  $GPRMC,000720.00,A,4532.48087,N,07336.99246,W,3.187,156.58,281125,,,A*74
00:07:20  $GPVTG,156.58,T,,M,3.187,N,5.903,K,A*30
00:07:20  $GPGGA,000720.00,4532.48087,N,07336.99246,W,1,10,1.35,71.9,M,-32.7,M,,*5B
00:07:20  $GPGSA,A,3,14,22,01,17,02,19,30,03,07,06,,,2.23,1.35,1.77*0E
00:07:20  $GPGSV,4,1,13,01,60,077,43,02,32,049,37,03,19,123,30,06,08,209,31*7B
00:07:20  $GPGSV,4,2,13,07,11,182,31,08,05,078,18,13,03,267,,14,83,289,26*73
00:07:20  $GPGSV,4,3,13,17,55,273,39,19,33,262,34,22,65,305,38,24,05,328,20*79
00:07:20  $GPGSV,4,4,13,30,29,203,29*49
00:07:20  $GPGLL,4532.48087,N,07336.99246,W,000720.00,A,A*7C
00:07:21  $GPRMC,000721.00,A,4532.47958,N,07336.99287,W,4.535,174.24,281125,,,A*7D
00:07:21  $GPVTG,174.24,T,,M,4.535,N,8.399,K,A*35
00:07:21  $GPGGA,000721.00,4532.47958,N,07336.99287,W,1,10,1.35,72.5,M,-32.7,M,,*5C
00:07:21  $GPGSA,A,3,14,22,01,17,02,19,30,03,07,06,,,2.23,1.35,1.77*0E
00:07:21  $GPGSV,4,1,13,01,60,077,37,02,32,049,34,03,19,123,33,06,08,209,24*7C
00:07:21  $GPGSV,4,2,13,07,11,182,27,08,05,078,17,13,03,267,,14,83,289,36*7A
00:07:21  $GPGSV,4,3,13,17,55,273,40,19,33,262,24,22,65,305,38,24,05,328,*74
00:07:21  $GPGSV,4,4,13,30,29,203,34*45
00:07:21  $GPGLL,4532.47958,N,07336.99287,W,000721.00,A,A*74
00:07:22  $GPRMC,000722.00,A,4532.47872,N,07336.99366,W,4.230,201.50,281125,,,A*79
00:07:22  $GPVTG,201.50,T,,M,4.230,N,7.834,K,A*36
00:07:22  $GPGGA,000722.00,4532.47872,N,07336.99366,W,1,10,1.35,72.2,M,-32.7,M,,*5F
00:07:22  $GPGSA,A,3,14,22,01,17,02,19,30,03,07,06,,,2.23,1.35,1.77*0E
00:07:22  $GPGSV,4,1,13,01,60,077,41,02,32,049,37,03,19,123,30,06,08,209,23*7A
00:07:22  $GPGSV,4,2,13,07,11,182,26,08,05,078,16,13,03,267,,14,83,289,40*7B
00:07:22  $GPGSV,4,3,13,17,55,273,39,19,33,262,25,22,65,305,41,24,05,328,*75
00:07:22  $GPGSV,4,4,13,30,29,203,30*41
00:07:22  $GPGLL,4532.47872,N,07336.99366,W,000722.00,A,A*70
00:07:23  $GPRMC,000723.00,A,4532.47523,N,07336.99466,W,5.668,209.24,281125,,,A*75
00:07:23  $GPVTG,209.24,T,,M,5.668,N,10.498,K,A*09
00:07:23  $GPGGA,000723.00,4532.47523,N,07336.99466,W,1,10,1.97,75.3,M,-32.7,M,,*5E
00:07:23  $GPGSA,A,3,14,22,01,17,02,19,30,03,07,06,,,3.35,1.97,2.71*05
00:07:23  $GPGSV,4,1,13,01,60,077,41,02,32,049,43,03,19,123,23,06,08,209,24*7C
00:07:23  $GPGSV,4,2,13,07,11,182,26,08,05,078,16,13,03,267,,14,83,289,42*79
00:07:23  $GPGSV,4,3,13,17,55,273,43,19,33,262,26,22,65,305,33,24,05,328,*7E
00:07:23  $GPGSV,4,4,13,30,29,203,40*46
00:07:23  $GPGLL,4532.47523,N,07336.99466,W,000723.00,A,A*7F
00:07:24  $GPRMC,000724.00,A,4532.47357,N,07336.99539,W,5.752,211.68,281125,,,A*75
00:07:24  $GPVTG,211.68,T,,M,5.752,N,10.652,K,A*04
00:07:24  $GPGGA,000724.00,4532.47357,N,07336.99539,W,1,10,1.24,72.4,M,-32.7,M,,*5F
00:07:24  $GPGSA,A,3,14,22,01,17,02,19,30,03,07,06,,,2.16,1.24,1.77*08
00:07:24  $GPGSV,4,1,13,01,60,077,40,02,32,049,41,03,19,123,31,06,08,209,22*7A
00:07:24  $GPGSV,4,2,13,07,11,182,25,08,05,078,16,13,03,267,,14,83,289,38*77
00:07:24  $GPGSV,4,3,13,17,55,273,43,19,33,262,26,22,65,305,38,24,05,328,*75
00:07:24  $GPGSV,4,4,13,30,29,203,40*46
00:07:24  $GPGLL,4532.47357,N,07336.99539,W,000724.00,A,A*76
00:07:25  $GPRMC,000725.00,A,4532.47206,N,07336.99629,W,5.914,212.87,281125,,,A*7D
00:07:25  $GPVTG,212.87,T,,M,5.914,N,10.953,K,A*04
00:07:25  $GPGGA,000725.00,4532.47206,N,07336.99629,W,1,10,1.24,70.3,M,-32.7,M,,*5C
00:07:25  $GPGSA,A,3,14,22,01,17,02,19,30,03,07,06,,,2.16,1.24,1.77*08
00:07:25  $GPGSV,4,1,13,01,60,077,44,02,32,049,45,03,19,123,30,06,08,209,22*7B
00:07:25  $GPGSV,4,2,13,07,11,182,25,08,05,078,15,13,03,267,19,14,83,289,41*72
00:07:25  $GPGSV,4,3,13,17,55,273,42,19,33,262,25,22,65,305,39,24,05,328,*76
00:07:25  $GPGSV,4,4,13,30,29,203,41*47
00:07:25  $GPGLL,4532.47206,N,07336.99629,W,000725.00,A,A*70
00:07:26  $GPRMC,000726.00,A,4532.47020,N,07336.99737,W,6.255,213.35,281125,,,A*73
00:07:26  $GPVTG,213.35,T,,M,6.255,N,11.584,K,A*06
00:07:26  $GPGGA,000726.00,4532.47020,N,07336.99737,W,1,10,1.26,68.4,M,-32.7,M,,*5B
00:07:26  $GPGSA,A,3,14,22,01,17,02,19,30,03,07,06,,,2.32,1.26,1.94*01
00:07:26  $GPGSV,4,1,13,01,60,077,43,02,32,049,43,03,19,123,30,06,08,209,20*78
00:07:26  $GPGSV,4,2,13,07,11,182,25,08,05,078,15,13,03,267,,14,83,289,43*78
00:07:26  $GPGSV,4,3,13,17,55,273,43,19,33,262,25,22,65,305,39,24,05,328,*77
00:07:26  $GPGSV,4,4,13,30,29,203,40*46
00:07:26  $GPGLL,4532.47020,N,07336.99737,W,000726.00,A,A*7B
00:07:27  $GPRMC,000727.00,A,4532.46860,N,07336.99873,W,6.960,212.77,281125,,,A*7A
00:07:27  $GPVTG,212.77,T,,M,6.960,N,12.890,K,A*07
00:07:27  $GPGGA,000727.00,4532.46860,N,07336.99873,W,1,10,1.31,68.1,M,-32.7,M,,*5B
00:07:27  $GPGSA,A,3,14,22,01,17,02,19,30,03,07,06,,,2.41,1.31,2.03*0E
00:07:27  $GPGSV,4,1,13,01,60,077,39,02,32,049,39,03,19,123,29,06,08,209,19*7A
00:07:27  $GPGSV,4,2,13,07,11,182,22,08,05,078,14,13,03,267,,14,83,289,36*7C
00:07:27  $GPGSV,4,3,13,17,55,273,38,19,33,262,24,22,65,305,36,24,05,328,*75
00:07:27  $GPGSV,4,4,13,30,29,203,36*47
00:07:27  $GPGLL,4532.46860,N,07336.99873,W,000727.00,A,A*78
00:07:28  $GPRMC,000728.00,A,4532.46672,N,07337.00023,W,7.596,213.66,281125,,,A*71
00:07:28  $GPVTG,213.66,T,,M,7.596,N,14.068,K,A*0B
00:07:28  $GPGGA,000728.00,4532.46672,N,07337.00023,W,1,09,1.31,67.6,M,-32.7,M,,*55
00:07:28  $GPGSA,A,3,14,22,01,17,02,19,30,03,06,,,,2.41,1.31,2.03*09
00:07:28  $GPGSV,4,1,13,01,60,077,43,02,32,049,44,03,19,123,29,06,08,209,19*7D
00:07:28  $GPGSV,4,2,13,07,11,182,,08,05,078,15,13,03,267,,14,83,289,40*7C
00:07:28  $GPGSV,4,3,13,17,55,273,45,19,33,262,31,22,65,305,38,24,05,328,*75
00:07:28  $GPGSV,4,4,13,30,29,203,39*48
00:07:28  $GPGLL,4532.46672,N,07337.00023,W,000728.00,A,A*76
00:07:29  $GPRMC,000729.00,A,4532.46460,N,07337.00193,W,7.921,214.09,281125,,,A*75
00:07:29  $GPVTG,214.09,T,,M,7.921,N,14.670,K,A*0A
00:07:29  $GPGGA,000729.00,4532.46460,N,07337.00193,W,1,09,1.31,67.6,M,-32.7,M,,*5F
00:07:29  $GPGSA,A,3,14,22,01,17,02,19,30,03,06,,,,2.41,1.31,2.03*09
00:07:29  $GPGSV,4,1,13,01,60,077,43,02,32,049,45,03,19,123,33,06,08,209,19*77
00:07:29  $GPGSV,4,2,13,07,11,182,,08,05,078,17,13,03,267,19,14,83,289,41*77
00:07:29  $GPGSV,4,3,13,17,55,273,44,19,33,262,34,22,65,305,40,24,05,328,*7E
00:07:29  $GPGSV,4,4,13,30,29,203,41*47
00:07:29  $GPGLL,4532.46460,N,07337.00193,W,000729.00,A,A*7C
00:07:30  $GPRMC,000730.00,A,4532.46250,N,07337.00362,W,8.260,213.87,281125,,,A*74
00:07:30  $GPVTG,213.87,T,,M,8.260,N,15.297,K,A*06
00:07:30  $GPGGA,000730.00,4532.46250,N,07337.00362,W,1,10,1.31,67.0,M,-32.7,M,,*50
00:07:30  $GPGSA,A,3,14,22,01,17,02,19,30,03,07,06,,,2.41,1.31,2.03*0E
00:07:30  $GPGSV,4,1,13,01,60,077,40,02,32,049,41,03,19,123,27,06,08,209,19*75
00:07:30  $GPGSV,4,2,13,07,11,182,25,08,05,078,17,13,03,267,16,14,83,289,39*70
00:07:30  $GPGSV,4,3,13,17,55,273,43,19,33,262,23,22,65,305,39,24,05,328,*71
00:07:30  $GPGSV,4,4,13,30,29,203,40*46
00:07:30  $GPGLL,4532.46250,N,07337.00362,W,000730.00,A,A*7D
00:07:31  $GPRMC,000731.00,A,4532.46026,N,07337.00521,W,8.433,210.45,281125,,,A*7A
00:07:31  $GPVTG,210.45,T,,M,8.433,N,15.618,K,A*08
00:07:31  $GPGGA,000731.00,4532.46026,N,07337.00521,W,1,10,1.26,66.8,M,-32.7,M,,*5C
00:07:31  $GPGSA,A,3,14,22,01,17,02,19,30,03,07,06,,,2.31,1.26,1.94*02
00:07:31  $GPGSV,4,1,13,01,60,077,42,02,32,049,45,03,19,123,28,06,08,209,18*7D
00:07:31  $GPGSV,4,2,13,07,11,182,25,08,05,078,17,13,03,267,12,14,83,289,42*78
00:07:31  $GPGSV,4,3,13,17,55,273,41,19,33,262,30,22,65,305,36,24,05,328,*7E
00:07:31  $GPGSV,4,4,13,30,29,203,42*44
00:07:31  $GPGLL,4532.46026,N,07337.00521,W,000731.00,A,A*7E
00:07:32  $GPRMC,000732.00,A,4532.45786,N,07337.00661,W,9.082,206.09,281125,,,A*70
00:07:32  $GPVTG,206.09,T,,M,9.082,N,16.820,K,A*0E
00:07:32  $GPGGA,000732.00,4532.45786,N,07337.00661,W,1,10,1.26,66.7,M,-32.7,M,,*59
00:07:32  $GPGSA,A,3,14,22,01,17,02,19,30,03,07,06,,,2.31,1.26,1.94*02
00:07:32  $GPGSV,4,1,13,01,60,077,39,02,32,049,41,03,19,123,28,06,08,209,18*75
00:07:32  $GPGSV,4,2,13,07,11,182,23,08,05,078,17,13,03,267,11,14,83,289,38*70
00:07:32  $GPGSV,4,3,13,17,55,273,32,19,33,262,26,22,65,305,30,24,05,328,*7B
00:07:32  $GPGSV,4,4,13,30,29,203,39*48
00:07:32  $GPGLL,4532.45786,N,07337.00661,W,000732.00,A,A*74
00:07:33  $GPRMC,000733.00,A,4532.45553,N,07337.00812,W,9.002,207.05,281125,,,A*74
00:07:33  $GPVTG,207.05,T,,M,9.002,N,16.673,K,A*03
00:07:33  $GPGGA,000733.00,4532.45553,N,07337.00812,W,1,10,1.26,66.7,M,-32.7,M,,*58
00:07:33  $GPGSA,A,3,14,22,01,17,02,19,30,03,07,06,,,2.31,1.26,1.94*02
00:07:33  $GPGSV,4,1,13,01,60,077,34,02,32,049,41,03,19,123,20,06,08,209,17*7F
00:07:33  $GPGSV,4,2,13,07,11,182,21,08,05,078,18,13,03,267,09,14,83,289,38*74
00:07:33  $GPGSV,4,3,13,17,55,273,38,19,33,262,26,22,65,305,39,24,05,328,*78
00:07:33  $GPGSV,4,4,13,30,29,203,38*49
00:07:33  $GPGLL,4532.45553,N,07337.00812,W,000733.00,A,A*75
00:07:34  $GPRMC,000734.00,A,4532.45330,N,07337.00957,W,8.637,206.13,281125,,,A*77
00:07:34  $GPVTG,206.13,T,,M,8.637,N,15.996,K,A*03
00:07:34  $GPGGA,000734.00,4532.45330,N,07337.00957,W,1,09,1.31,66.8,M,-32.7,M,,*5D
00:07:34  $GPGSA,A,3,14,22,01,17,02,19,30,03,06,,,,2.41,1.31,2.03*09
00:07:34  $GPGSV,4,1,13,01,60,077,39,02,32,049,41,03,19,123,21,06,08,209,17*73
00:07:34  $GPGSV,4,2,13,07,11,182,,08,05,078,20,13,03,267,11,14,83,289,39*74
00:07:34  $GPGSV,4,3,13,17,55,273,40,19,33,262,27,22,65,305,37,24,05,328,*78
00:07:34  $GPGSV,4,4,13,30,29,203,36*47
00:07:34  $GPGLL,4532.45330,N,07337.00957,W,000734.00,A,A*71
00:07:35  $GPRMC,000735.00,A,4532.45113,N,07337.01108,W,8.700,206.13,281125,,,A*73
00:07:35  $GPVTG,206.13,T,,M,8.700,N,16.113,K,A*00
00:07:35  $GPGGA,000735.00,4532.45113,N,07337.01108,W,1,10,1.31,67.1,M,-32.7,M,,*5C
00:07:35  $GPGSA,A,3,14,22,01,17,02,19,30,03,07,06,,,2.41,1.31,2.03*0E
00:07:35  $GPGSV,4,1,13,01,60,077,36,02,32,049,36,03,19,123,25,06,08,209,15*7A
00:07:35  $GPGSV,4,2,13,07,11,182,23,08,05,078,,13,03,267,09,14,83,289,36*71
00:07:35  $GPGSV,4,3,13,17,55,273,36,19,33,262,40,22,65,305,39,24,05,328,*76
00:07:35  $GPGSV,4,4,13,30,29,203,33*42
00:07:35  $GPGLL,4532.45113,N,07337.01108,W,000735.00,A,A*70
00:07:36  $GPRMC,000736.00,A,4532.44904,N,07337.01262,W,8.600,204.25,281125,,,A*76
00:07:36  $GPVTG,204.25,T,,M,8.600,N,15.927,K,A*0A
00:07:36  $GPGGA,000736.00,4532.44904,N,07337.01262,W,1,10,1.31,66.7,M,-32.7,M,,*58
00:07:36  $GPGSA,A,3,14,22,01,17,02,19,30,03,07,06,,,2.41,1.31,2.03*0E
00:07:36  $GPGSV,4,1,13,01,60,077,36,02,32,049,36,03,19,123,35,06,08,209,14*7A
00:07:36  $GPGSV,4,2,13,07,11,182,21,08,05,078,,13,03,267,09,14,83,289,40*72
00:07:36  $GPGSV,4,3,13,17,55,273,37,19,33,262,43,22,65,305,37,24,05,328,*7A
00:07:36  $GPGSV,4,4,13,30,29,203,33*42
00:07:36  $GPGLL,4532.44904,N,07337.01262,W,000736.00,A,A*73
00:07:37  $GPRMC,000737.00,A,4532.44705,N,07337.01438,W,8.416,208.24,281125,,,A*79
00:07:37  $GPVTG,208.24,T,,M,8.416,N,15.587,K,A*04
00:07:37  $GPGGA,000737.00,4532.44705,N,07337.01438,W,1,10,1.31,66.7,M,-32.7,M,,*5F
00:07:37  $GPGSA,A,3,14,22,01,17,02,19,30,03,07,06,,,2.41,1.31,2.03*0E
00:07:37  $GPGSV,4,1,13,01,60,077,29,02,32,049,32,03,19,123,26,06,08,209,11*77
00:07:37  $GPGSV,4,2,13,07,11,182,18,08,05,078,,13,03,267,08,14,83,289,37*79
00:07:37  $GPGSV,4,3,13,17,55,273,36,19,33,262,28,22,65,305,34,24,05,328,*75
00:07:37  $GPGSV,4,4,13,30,29,203,32*43
00:07:37  $GPGLL,4532.44705,N,07337.01438,W,000737.00,A,A*74
00:07:38  $GPRMC,000738.00,A,4532.44477,N,07337.01556,W,8.531,202.92,281125,,,A*7A
00:07:38  $GPVTG,202.92,T,,M,8.531,N,15.799,K,A*0A
00:07:38  $GPGGA,000738.00,4532.44477,N,07337.01556,W,1,09,1.31,66.5,M,-32.7,M,,*55
00:07:38  $GPGSA,A,3,14,22,01,17,02,19,30,03,07,,,,2.41,1.31,2.03*08
00:07:38  $GPGSV,4,1,13,01,60,077,30,02,32,049,38,03,19,123,25,06,08,209,*76
00:07:38  $GPGSV,4,2,13,07,11,182,20,08,05,078,,13,03,267,09,14,83,289,38*7C
00:07:38  $GPGSV,4,3,13,17,55,273,36,19,33,262,33,22,65,305,35,24,05,328,*7E
00:07:38  $GPGSV,4,4,13,30,29,203,37*46
00:07:38  $GPGLL,4532.44477,N,07337.01556,W,000738.00,A,A*74
00:07:39  $GPRMC,000739.00,A,4532.44233,N,07337.01627,W,8.599,196.50,281125,,,A*7A
00:07:39  $GPVTG,196.50,T,,M,8.599,N,15.925,K,A*01
00:07:39  $GPGGA,000739.00,4532.44233,N,07337.01627,W,1,09,1.31,67.2,M,-32.7,M,,*51
00:07:39  $GPGSA,A,3,14,22,01,17,02,19,30,03,07,,,,2.41,1.31,2.03*08
00:07:39  $GPGSV,4,1,13,01,60,077,39,02,32,049,32,03,19,123,24,06,08,209,*74
00:07:39  $GPGSV,4,2,13,07,11,182,18,08,05,078,,13,03,267,09,14,83,289,41*79
00:07:39  $GPGSV,4,3,13,17,55,273,31,19,33,262,28,22,65,305,36,24,05,328,07*77
00:07:39  $GPGSV,4,4,13,30,29,203,34*45
00:07:39  $GPGLL,4532.44233,N,07337.01627,W,000739.00,A,A*76
00:07:40  $GPRMC,000740.00,A,4532.44020,N,07337.01735,W,8.183,198.56,281125,,,A*71
00:07:40  $GPVTG,198.56,T,,M,8.183,N,15.155,K,A*09
00:07:40  $GPGGA,000740.00,4532.44020,N,07337.01735,W,1,09,1.31,67.0,M,-32.7,M,,*5F
00:07:40  $GPGSA,A,3,14,22,01,17,02,19,30,03,07,,,,2.41,1.31,2.03*08
00:07:40  $GPGSV,4,1,13,01,60,077,40,02,32,049,32,03,19,123,26,06,08,209,*78
00:07:40  $GPGSV,4,2,13,07,11,182,17,08,05,078,,13,03,267,10,14,83,289,39*71
00:07:40  $GPGSV,4,3,13,17,55,273,32,19,33,262,32,22,65,305,34,24,05,328,08*72
00:07:40  $GPGSV,4,4,13,30,29,203,33*42
00:07:40  $GPGLL,4532.44020,N,07337.01735,W,000740.00,A,A*7A
00:07:41  $GPRMC,000741.00,A,4532.43811,N,07337.01850,W,7.418,196.48,281125,,,A*78
00:07:41  $GPVTG,196.48,T,,M,7.418,N,13.738,K,A*0B
00:07:41  $GPGGA,000741.00,4532.43811,N,07337.01850,W,1,09,1.31,66.8,M,-32.7,M,,*56
00:07:41  $GPGSA,A,3,14,22,01,17,02,19,30,03,07,,,,2.41,1.31,2.03*08
00:07:41  $GPGSV,4,1,13,01,60,077,45,02,32,049,42,03,19,123,24,06,08,209,*78
00:07:41  $GPGSV,4,2,13,07,11,182,17,08,05,078,,13,03,267,09,14,83,289,41*76
00:07:41  $GPGSV,4,3,13,17,55,273,36,19,33,262,27,22,65,305,38,24,05,328,07*71
00:07:41  $GPGSV,4,4,13,30,29,203,36*47
00:07:41  $GPGLL,4532.43811,N,07337.01850,W,000741.00,A,A*7A
00:07:42  $GPRMC,000742.00,A,4532.43596,N,07337.01888,W,6.575,195.29,281125,,,A*73
00:07:42  $GPVTG,195.29,T,,M,6.575,N,12.177,K,A*08
00:07:42  $GPGGA,000742.00,4532.43596,N,07337.01888,W,1,09,1.31,67.9,M,-32.7,M,,*52
00:07:42  $GPGSA,A,3,14,22,01,17,02,19,30,03,07,,,,2.41,1.31,2.03*08
00:07:42  $GPGSV,4,1,13,01,60,077,41,02,32,049,38,03,19,123,33,06,08,209,*77
00:07:42  $GPGSV,4,2,13,07,11,182,17,08,05,078,19,13,03,267,08,14,83,289,39*70
00:07:42  $GPGSV,4,3,13,17,55,273,31,19,33,262,32,22,65,305,40,24,05,328,07*7D
00:07:42  $GPGSV,4,4,13,30,29,203,31*40
00:07:42  $GPGLL,4532.43596,N,07337.01888,W,000742.00,A,A*7E
00:07:43  $GPRMC,000743.00,A,4532.43431,N,07337.01904,W,4.786,197.52,281125,,,A*79
00:07:43  $GPVTG,197.52,T,,M,4.786,N,8.864,K,A*3A
00:07:43  $GPGGA,000743.00,4532.43431,N,07337.01904,W,1,09,1.51,68.6,M,-32.7,M,,*5C
00:07:43  $GPGSA,A,3,14,22,01,17,02,19,30,03,07,,,,2.60,1.51,2.12*0D
00:07:43  $GPGSV,4,1,13,01,60,077,41,02,32,049,32,03,19,123,40,06,08,209,*79
00:07:43  $GPGSV,4,2,13,07,11,182,18,08,05,078,19,13,03,267,08,14,83,289,38*7E
00:07:43  $GPGSV,4,3,13,17,55,273,35,19,33,262,35,22,65,305,41,24,05,328,07*7F
00:07:43  $GPGSV,4,4,13,30,29,203,29*49
00:07:43  $GPGLL,4532.43431,N,07337.01904,W,000743.00,A,A*76
00:07:44  $GPRMC,000744.00,A,4532.43334,N,07337.01977,W,3.618,200.61,281125,,,A*74
00:07:44  $GPVTG,200.61,T,,M,3.618,N,6.701,K,A*34
00:07:44  $GPGGA,000744.00,4532.43334,N,07337.01977,W,1,09,1.51,68.9,M,-32.7,M,,*52
00:07:44  $GPGSA,A,3,14,22,01,17,02,19,30,03,07,,,,2.60,1.51,2.12*0D
00:07:44  $GPGSV,4,1,13,01,60,077,42,02,32,049,41,03,19,123,36,06,08,209,*7F
00:07:44  $GPGSV,4,2,13,07,11,182,19,08,05,078,19,13,03,267,09,14,83,289,37*71
00:07:44  $GPGSV,4,3,13,17,55,273,37,19,33,262,41,22,65,305,40,24,05,328,*78
00:07:44  $GPGSV,4,4,13,30,29,203,26*46
00:07:44  $GPGLL,4532.43334,N,07337.01977,W,000744.00,A,A*77
00:07:45  $GPRMC,000745.00,A,4532.43217,N,07337.02056,W,4.718,201.89,281125,,,A*7D
00:07:45  $GPVTG,201.89,T,,M,4.718,N,8.737,K,A*3E
00:07:45  $GPGGA,000745.00,4532.43217,N,07337.02056,W,1,09,1.31,69.0,M,-32.7,M,,*54
00:07:45  $GPGSA,A,3,14,22,01,17,02,19,30,03,07,,,,2.41,1.31,2.03*08
00:07:45  $GPGSV,4,1,13,01,60,077,42,02,32,049,31,03,19,123,25,06,08,209,*7A
00:07:45  $GPGSV,4,2,13,07,11,182,20,08,05,078,18,13,03,267,09,14,83,289,36*7B
00:07:45  $GPGSV,4,3,13,17,55,273,32,19,33,262,41,22,65,305,36,24,05,328,*7C
00:07:45  $GPGSV,4,4,13,30,29,203,25*45
00:07:45  $GPGLL,4532.43217,N,07337.02056,W,000745.00,A,A*7F
00:07:46  $GPRMC,000746.00,A,4532.43064,N,07337.02139,W,5.470,204.06,281125,,,A*7E
00:07:46  $GPVTG,204.06,T,,M,5.470,N,10.131,K,A*09
00:07:46  $GPGGA,000746.00,4532.43064,N,07337.02139,W,1,09,1.31,69.9,M,-32.7,M,,*50
00:07:46  $GPGSA,A,3,14,22,01,17,02,19,30,03,07,,,,2.41,1.31,2.03*08
00:07:46  $GPGSV,4,1,13,01,60,077,42,02,32,049,40,03,19,123,34,06,08,209,*7C
00:07:46  $GPGSV,4,2,13,07,11,182,19,08,05,078,18,13,03,267,09,14,83,289,36*71
00:07:46  $GPGSV,4,3,13,17,55,273,38,19,33,262,36,22,65,305,34,24,05,328,*74
00:07:46  $GPGSV,4,4,13,30,29,203,24*44
00:07:46  $GPGLL,4532.43064,N,07337.02139,W,000746.00,A,A*72
00:07:47  $GPRMC,000747.00,A,4532.42998,N,07337.02293,W,4.745,210.25,281125,,,A*77
00:07:47  $GPVTG,210.25,T,,M,4.745,N,8.788,K,A*34
00:07:47  $GPGGA,000747.00,4532.42998,N,07337.02293,W,1,09,1.51,70.0,M,-32.7,M,,*5E
00:07:47  $GPGSA,A,3,14,22,01,17,02,19,30,03,06,,,,2.60,1.51,2.12*0C
00:07:47  $GPGSV,4,1,13,01,60,077,44,02,32,049,36,03,19,123,37,06,08,209,14*7D
00:07:47  $GPGSV,4,2,13,07,11,182,,08,05,078,17,13,03,267,09,14,83,289,31*71
00:07:47  $GPGSV,4,3,13,17,55,273,38,19,33,262,38,22,65,305,33,24,05,328,*7D
00:07:47  $GPGSV,4,4,13,30,29,203,22*42
00:07:47  $GPGLL,4532.42998,N,07337.02293,W,000747.00,A,A*7B
00:07:48  $GPRMC,000748.00,A,4532.42976,N,07337.02482,W,5.359,228.11,281125,,,A*7A
00:07:48  $GPVTG,228.11,T,,M,5.359,N,9.925,K,A*38
00:07:48  $GPGGA,000748.00,4532.42976,N,07337.02482,W,1,10,1.51,69.8,M,-32.7,M,,*5F
00:07:48  $GPGSA,A,3,14,22,01,17,02,19,30,03,07,06,,,2.60,1.51,2.12*0B
00:07:48  $GPGSV,4,1,13,01,60,077,48,02,32,049,44,03,19,123,40,06,08,209,15*75
00:07:48  $GPGSV,4,2,13,07,11,182,19,08,05,078,19,13,03,267,09,14,83,289,35*73
00:07:48  $GPGSV,4,3,13,17,55,273,36,19,33,262,33,22,65,305,29,24,05,328,20*71
00:07:48  $GPGSV,4,4,13,30,29,203,21*41
00:07:48  $GPGLL,4532.42976,N,07337.02482,W,000748.00,A,A*72
00:07:49  $GPRMC,000749.00,A,4532.42973,N,07337.02687,W,5.531,260.30,281125,,,A*7E
00:07:49  $GPVTG,260.30,T,,M,5.531,N,10.244,K,A*0B
00:07:49  $GPGGA,000749.00,4532.42973,N,07337.02687,W,1,09,1.31,69.5,M,-32.7,M,,*5F
00:07:49  $GPGSA,A,3,14,22,01,17,02,19,30,03,06,,,,2.41,1.31,2.03*09
00:07:49  $GPGSV,4,1,13,01,60,077,39,02,32,049,42,03,19,123,30,06,08,209,14*73
00:07:49  $GPGSV,4,2,13,07,11,182,,08,05,078,20,13,03,267,09,14,83,289,38*7C
00:07:49  $GPGSV,4,3,13,17,55,273,44,19,33,262,38,22,65,305,36,24,05,328,*73
00:07:49  $GPGSV,4,4,13,30,29,203,28*48
00:07:49  $GPGLL,4532.42973,N,07337.02687,W,000749.00,A,A*71
00:07:50  $GPRMC,000750.00,A,4532.43007,N,07337.02943,W,6.725,280.00,281125,,,A*73
00:07:50  $GPVTG,280.00,T,,M,6.725,N,12.454,K,A*07
00:07:50  $GPGGA,000750.00,4532.43007,N,07337.02943,W,1,09,1.31,69.3,M,-32.7,M,,*5D
00:07:50  $GPGSA,A,3,14,22,01,17,02,19,30,03,06,,,,2.41,1.31,2.03*09
00:07:50  $GPGSV,4,1,13,01,60,077,30,02,32,049,39,03,19,123,30,06,08,209,13*71
00:07:50  $GPGSV,4,2,13,07,11,182,,08,05,078,20,13,03,267,06,14,83,289,38*73
00:07:50  $GPGSV,4,3,13,17,55,273,41,19,33,262,38,22,65,305,39,24,05,328,*79
00:07:50  $GPGSV,4,4,13,30,29,203,29*49
00:07:50  $GPGLL,4532.43007,N,07337.02943,W,000750.00,A,A*75
00:07:51  $GPRMC,000751.00,A,4532.43092,N,07337.03227,W,8.260,289.90,281125,,,A*7C
00:07:51  $GPVTG,289.90,T,,M,8.260,N,15.298,K,A*0C
00:07:51  $GPGGA,000751.00,4532.43092,N,07337.03227,W,1,10,1.31,69.7,M,-32.7,M,,*54
00:07:51  $GPGSA,A,3,14,22,01,17,02,19,30,03,07,06,,,2.41,1.31,2.03*0E
00:07:51  $GPGSV,4,1,13,01,60,077,33,02,32,049,37,03,19,123,29,06,08,209,12*75
00:07:51  $GPGSV,4,2,13,07,11,182,20,08,05,078,20,13,03,267,05,14,83,289,36*7C
00:07:51  $GPGSV,4,3,13,17,55,273,34,19,33,262,25,22,65,305,39,24,05,328,*77
00:07:51  $GPGSV,4,4,13,30,29,203,27*47
00:07:51  $GPGLL,4532.43092,N,07337.03227,W,000751.00,A,A*70
00:07:52  $GPRMC,000752.00,A,4532.43163,N,07337.03544,W,8.733,289.39,281125,,,A*72
00:07:52  $GPVTG,289.39,T,,M,8.733,N,16.174,K,A*0E
00:07:52  $GPGGA,000752.00,4532.43163,N,07337.03544,W,1,09,1.31,70.7,M,-32.7,M,,*5A
00:07:52  $GPGSA,A,3,14,22,01,17,02,19,30,03,06,,,,2.41,1.31,2.03*09
00:07:52  $GPGSV,4,1,13,01,60,077,33,02,32,049,37,03,19,123,29,06,08,209,11*76
00:07:52  $GPGSV,4,2,13,07,11,182,,08,05,078,20,13,03,267,05,14,83,289,28*71
00:07:52  $GPGSV,4,3,13,17,55,273,39,19,33,262,32,22,65,305,36,24,05,328,*73
00:07:52  $GPGSV,4,4,13,30,29,203,27*47
00:07:52  $GPGLL,4532.43163,N,07337.03544,W,000752.00,A,A*7E
00:07:53  $GPRMC,000753.00,A,4532.43254,N,07337.03908,W,9.926,289.66,281125,,,A*71
00:07:53  $GPVTG,289.66,T,,M,9.926,N,18.382,K,A*0A
00:07:53  $GPGGA,000753.00,4532.43254,N,07337.03908,W,1,08,1.31,70.1,M,-32.7,M,,*5F
00:07:53  $GPGSA,A,3,14,22,01,17,02,19,30,03,,,,,2.41,1.31,2.03*0F
00:07:53  $GPGSV,4,1,13,01,60,077,36,02,32,049,40,03,19,123,33,06,08,209,09*71
00:07:53  $GPGSV,4,2,13,07,11,182,,08,05,078,20,13,03,267,05,14,83,289,32*7A
00:07:53  $GPGSV,4,3,13,17,55,273,40,19,33,262,37,22,65,305,38,24,05,328,*76
00:07:53  $GPGSV,4,4,13,30,29,203,26*46
00:07:53  $GPGLL,4532.43254,N,07337.03908,W,000753.00,A,A*7C
00:07:54  $GPRMC,000754.00,A,4532.43381,N,07337.04286,W,10.790,291.94,281125,,,A*4A
00:07:54  $GPVTG,291.94,T,,M,10.790,N,19.982,K,A*3E
00:07:54  $GPGGA,000754.00,4532.43381,N,07337.04286,W,1,08,1.31,69.5,M,-32.7,M,,*57
00:07:54  $GPGSA,A,3,14,22,01,17,02,19,30,03,,,,,2.41,1.31,2.03*0F
00:07:54  $GPGSV,4,1,13,01,60,077,33,02,32,049,41,03,19,123,32,06,08,209,09*74
00:07:54  $GPGSV,4,2,13,07,11,182,,08,05,078,20,13,03,267,05,14,83,289,32*7A
00:07:54  $GPGSV,4,3,13,17,55,273,39,19,33,262,31,22,65,305,38,24,05,328,24*78
00:07:54  $GPGSV,4,4,13,30,29,203,26*46
00:07:54  $GPGLL,4532.43381,N,07337.04286,W,000754.00,A,A*78
00:07:55  $GPRMC,000755.00,A,4532.43511,N,07337.04720,W,11.070,292.23,281125,,,A*4A
00:07:55  $GPVTG,292.23,T,,M,11.070,N,20.501,K,A*34
00:07:55  $GPGGA,000755.00,4532.43511,N,07337.04720,W,1,08,1.51,68.4,M,-32.7,M,,*56
00:07:55  $GPGSA,A,3,14,22,01,17,02,19,30,03,,,,,2.60,1.51,2.12*0A
00:07:55  $GPGSV,4,1,13,01,60,077,36,02,32,049,42,03,19,123,33,06,08,209,09*73
00:07:55  $GPGSV,4,2,13,07,11,182,,08,05,078,19,13,03,267,05,14,83,289,31*73
00:07:55  $GPGSV,4,3,13,17,55,273,41,19,33,262,39,22,65,305,38,24,05,328,20*7B
00:07:55  $GPGSV,4,4,13,30,29,203,25*45
00:07:55  $GPGLL,4532.43511,N,07337.04720,W,000755.00,A,A*7F
00:07:56  $GPRMC,000756.00,A,4532.43658,N,07337.05135,W,11.372,293.42,281125,,,A*43
00:07:56  $GPVTG,293.42,T,,M,11.372,N,21.060,K,A*30
00:07:56  $GPGGA,000756.00,4532.43658,N,07337.05135,W,1,08,1.31,67.3,M,-32.7,M,,*56
00:07:56  $GPGSA,A,3,14,22,01,17,02,19,30,03,,,,,2.41,1.31,2.03*0F
00:07:56  $GPGSV,4,1,13,01,60,077,32,02,32,049,40,03,19,123,33,06,08,209,*7C
00:07:56  $GPGSV,4,2,13,07,11,182,,08,05,078,18,13,03,267,09,14,83,289,31*7E
00:07:56  $GPGSV,4,3,13,17,55,273,38,19,33,262,39,22,65,305,37,24,05,328,18*71
00:07:56  $GPGSV,4,4,13,30,29,203,26*46
00:07:56  $GPGLL,4532.43658,N,07337.05135,W,000756.00,A,A*71
00:07:57  $GPRMC,000757.00,A,4532.43765,N,07337.05561,W,11.514,293.27,281125,,,A*4D
00:07:57  $GPVTG,293.27,T,,M,11.514,N,21.323,K,A*31
00:07:57  $GPGGA,000757.00,4532.43765,N,07337.05561,W,1,10,1.31,67.0,M,-32.7,M,,*57
00:07:57  $GPGSA,A,3,14,22,01,17,02,19,30,03,07,06,,,2.41,1.31,2.03*0E
00:07:57  $GPGSV,4,1,13,01,60,077,35,02,32,049,44,03,19,123,33,06,08,209,14*7A
00:07:57  $GPGSV,4,2,13,07,11,182,22,08,05,078,19,13,03,267,08,14,83,289,34*7B
00:07:57  $GPGSV,4,3,13,17,55,273,41,19,33,262,39,22,65,305,38,24,05,328,*79
00:07:57  $GPGSV,4,4,13,30,29,203,25*45
00:07:57  $GPGLL,4532.43765,N,07337.05561,W,000757.00,A,A*7A
00:07:58  $GPRMC,000758.00,A,4532.43887,N,07337.05987,W,11.740,292.80,281125,,,A*4A
00:07:58  $GPVTG,292.80,T,,M,11.740,N,21.743,K,A*3C
00:07:58  $GPGGA,000758.00,4532.43887,N,07337.05987,W,1,09,1.31,67.2,M,-32.7,M,,*55
00:07:58  $GPGSA,A,3,14,22,01,17,02,19,30,03,06,,,,2.41,1.31,2.03*09
00:07:58  $GPGSV,4,1,13,01,60,077,34,02,32,049,37,03,19,123,29,06,08,209,13*73
00:07:58  $GPGSV,4,2,13,07,11,182,,08,05,078,18,13,03,267,08,14,83,289,30*7E
00:07:58  $GPGSV,4,3,13,17,55,273,40,19,33,262,38,22,65,305,38,24,05,328,*79
00:07:58  $GPGSV,4,4,13,30,29,203,25*45
00:07:58  $GPGLL,4532.43887,N,07337.05987,W,000758.00,A,A*72
00:07:59  $GPRMC,000759.00,A,4532.44008,N,07337.06409,W,11.633,292.88,281125,,,A*46
00:07:59  $GPVTG,292.88,T,,M,11.633,N,21.544,K,A*34
00:07:59  $GPGGA,000759.00,4532.44008,N,07337.06409,W,1,10,1.31,66.8,M,-32.7,M,,*57
00:07:59  $GPGSA,A,3,14,22,01,17,02,19,30,03,07,06,,,2.41,1.31,2.03*0E
00:07:59  $GPGSV,4,1,13,01,60,077,34,02,32,049,32,03,19,123,34,06,08,209,12*7B
00:07:59  $GPGSV,4,2,13,07,11,182,18,08,05,078,17,13,03,267,09,14,83,289,29*71
00:07:59  $GPGSV,4,3,13,17,55,273,39,19,33,262,37,22,65,305,35,24,05,328,*75
00:07:59  $GPGSV,4,4,13,30,29,203,25*45
00:07:59  $GPGLL,4532.44008,N,07337.06409,W,000759.00,A,A*73
00:08:00  $GPRMC,000800.00,A,4532.44157,N,07337.06834,W,11.400,292.76,281125,,,A*4F
00:08:00  $GPVTG,292.76,T,,M,11.400,N,21.113,K,A*31
00:08:00  $GPGGA,000800.00,4532.44157,N,07337.06834,W,1,10,1.31,67.0,M,-32.7,M,,*54
00:08:00  $GPGSA,A,3,14,22,01,17,02,19,30,03,07,06,,,2.41,1.31,2.03*0E
00:08:00  $GPGSV,4,1,13,01,60,076,34,02,32,049,37,03,19,123,30,06,08,209,16*7F
00:08:00  $GPGSV,4,2,13,07,11,182,19,08,05,078,16,13,03,267,,14,83,289,30*70
00:08:00  $GPGSV,4,3,13,17,55,273,39,19,33,262,31,22,65,305,37,24,05,328,*71
00:08:00  $GPGSV,4,4,13,30,29,203,40*46
00:08:00  $GPGLL,4532.44157,N,07337.06834,W,000800.00,A,A*79
00:08:01  $GPRMC,000801.00,A,4532.44267,N,07337.07224,W,10.764,292.88,281125,,,A*45
00:08:01  $GPVTG,292.88,T,,M,10.764,N,19.935,K,A*37
00:08:01  $GPGGA,000801.00,4532.44267,N,07337.07224,W,1,10,1.31,66.9,M,-32.7,M,,*57
00:08:01  $GPGSA,A,3,14,22,01,17,02,19,30,03,07,06,,,2.41,1.31,2.02*0F
00:08:01  $GPGSV,4,1,13,01,60,076,35,02,32,049,41,03,19,123,35,06,08,209,25*7A
00:08:01  $GPGSV,4,2,13,07,11,182,30,08,05,078,17,13,03,267,,14,83,289,34*7E
00:08:01  $GPGSV,4,3,13,17,55,273,42,19,33,262,25,22,65,305,40,24,05,328,*78
00:08:01  $GPGSV,4,4,13,30,29,203,39*48
00:08:01  $GPGLL,4532.44267,N,07337.07224,W,000801.00,A,A*72
00:08:02  $GPRMC,000802.00,A,4532.44353,N,07337.07595,W,10.532,292.69,281125,,,A*43
00:08:02  $GPVTG,292.69,T,,M,10.532,N,19.505,K,A*36
00:08:02  $GPGGA,000802.00,4532.44353,N,07337.07595,W,1,10,1.26,67.1,M,-32.7,M,,*50
00:08:02  $GPGSA,A,3,14,22,01,17,02,19,30,03,07,06,,,2.31,1.26,1.93*05
00:08:02  $GPGSV,4,1,13,01,60,076,31,02,32,049,39,03,19,123,34,06,08,209,24*71
00:08:02  $GPGSV,4,2,13,07,11,182,33,08,05,078,17,13,03,267,,14,83,289,30*79
00:08:02  $GPGSV,4,3,13,17,55,273,40,19,33,262,24,22,65,305,36,24,05,328,*7A
00:08:02  $GPGSV,4,4,13,30,29,203,34*45
00:08:02  $GPGLL,4532.44353,N,07337.07595,W,000802.00,A,A*7A
00:08:03  $GPRMC,000803.00,A,4532.44466,N,07337.07983,W,11.644,293.86,281125,,,A*4B
00:08:03  $GPVTG,293.86,T,,M,11.644,N,21.565,K,A*38
00:08:03  $GPGGA,000803.00,4532.44466,N,07337.07983,W,1,10,1.24,67.6,M,-32.7,M,,*5E
00:08:03  $GPGSA,A,3,14,22,01,17,02,19,30,03,07,06,,,2.16,1.24,1.76*09
00:08:03  $GPGSV,4,1,13,01,60,076,35,02,32,049,25,03,19,123,36,06,08,209,22*7C
00:08:03  $GPGSV,4,2,13,07,11,182,30,08,05,078,17,13,03,267,,14,83,289,34*7E
00:08:03  $GPGSV,4,3,13,17,55,273,41,19,33,262,25,22,65,305,38,24,05,328,*74
00:08:03  $GPGSV,4,4,13,30,29,203,32*43
00:08:03  $GPGLL,4532.44466,N,07337.07983,W,000803.00,A,A*71
00:08:04  $GPRMC,000804.00,A,4532.44610,N,07337.08406,W,11.966,295.14,281125,,,A*42
00:08:04  $GPVTG,295.14,T,,M,11.966,N,22.161,K,A*39
00:08:04  $GPGGA,000804.00,4532.44610,N,07337.08406,W,1,09,1.28,67.5,M,-32.7,M,,*52
00:08:04  $GPGSA,A,3,14,22,01,17,02,19,30,03,06,,,,2.19,1.28,1.77*0C
00:08:04  $GPGSV,4,1,13,01,60,076,35,02,32,049,34,03,19,123,34,06,08,209,19*76
00:08:04  $GPGSV,4,2,13,07,11,182,,08,05,078,18,13,03,267,,14,83,289,30*76
00:08:04  $GPGSV,4,3,13,17,55,273,42,19,33,262,30,22,65,305,40,24,05,328,*7C
00:08:04  $GPGSV,4,4,13,30,29,203,27*47
00:08:04  $GPGLL,4532.44610,N,07337.08406,W,000804.00,A,A*7A
00:08:05  $GPRMC,000805.00,A,4532.44721,N,07337.08830,W,11.784,292.42,281125,,,A*4F
00:08:05  $GPVTG,292.42,T,,M,11.784,N,21.825,K,A*35
00:08:05  $GPGGA,000805.00,4532.44721,N,07337.08830,W,1,10,1.28,67.7,M,-32.7,M,,*53
00:08:05  $GPGSA,A,3,14,22,01,17,02,19,30,03,07,06,,,2.19,1.28,1.77*0B
00:08:05  $GPGSV,4,1,13,01,60,076,34,02,32,049,34,03,19,123,36,06,08,209,17*7B
00:08:05  $GPGSV,4,2,13,07,11,182,24,08,05,078,18,13,03,267,,14,83,289,28*79
00:08:05  $GPGSV,4,3,13,17,55,273,42,19,33,262,29,22,65,305,41,24,05,328,*75
00:08:05  $GPGSV,4,4,13,30,29,203,25*45
00:08:05  $GPGLL,4532.44721,N,07337.08830,W,000805.00,A,A*71
00:08:06  $GPRMC,000806.00,A,4532.44888,N,07337.09254,W,11.969,295.64,281125,,,A*47
00:08:06  $GPVTG,295.64,T,,M,11.969,N,22.166,K,A*36
00:08:06  $GPGGA,000806.00,4532.44888,N,07337.09254,W,1,10,1.28,67.2,M,-32.7,M,,*50
00:08:06  $GPGSA,A,3,14,22,01,17,02,19,30,03,07,06,,,2.19,1.28,1.77*0B
00:08:06  $GPGSV,4,1,13,01,60,076,32,02,32,049,29,03,19,123,32,06,08,209,14*76
00:08:06  $GPGSV,4,2,13,07,10,182,22,08,05,078,17,13,03,267,,14,83,289,33*7B
00:08:06  $GPGSV,4,3,13,17,55,273,39,19,33,262,28,22,65,305,37,24,05,328,*79
00:08:06  $GPGSV,4,4,13,30,29,203,24*44
00:08:06  $GPGLL,4532.44888,N,07337.09254,W,000806.00,A,A*77
00:08:07  $GPRMC,000807.00,A,4532.45005,N,07337.09687,W,11.983,293.01,281125,,,A*41
00:08:07  $GPVTG,293.01,T,,M,11.983,N,22.193,K,A*3D
00:08:07  $GPGGA,000807.00,4532.45005,N,07337.09687,W,1,10,1.28,67.5,M,-32.7,M,,*50
00:08:07  $GPGSA,A,3,14,22,01,17,02,19,30,03,07,06,,,2.19,1.28,1.77*0B
00:08:07  $GPGSV,4,1,13,01,60,076,35,02,32,049,41,03,19,123,35,06,08,209,15*79
00:08:07  $GPGSV,4,2,13,07,10,182,19,08,04,079,16,13,03,267,,14,83,289,28*78
00:08:07  $GPGSV,4,3,13,17,55,273,39,19,33,262,27,22,65,305,37,24,05,328,*76
00:08:07  $GPGSV,4,4,13,30,29,203,25*45
00:08:07  $GPGLL,4532.45005,N,07337.09687,W,000807.00,A,A*70
00:08:08  $GPRMC,000808.00,A,4532.45105,N,07337.10114,W,11.783,290.86,281125,,,A*48
00:08:08  $GPVTG,290.86,T,,M,11.783,N,21.823,K,A*3E
00:08:08  $GPGGA,000808.00,4532.45105,N,07337.10114,W,1,10,1.28,68.3,M,-32.7,M,,*52
00:08:08  $GPGSA,A,3,14,22,01,17,02,19,30,03,07,06,,,2.19,1.28,1.77*0B
00:08:08  $GPGSV,4,1,13,01,60,076,32,02,32,049,32,03,19,123,34,06,08,209,16*78
00:08:08  $GPGSV,4,2,13,07,10,182,18,08,04,079,16,13,03,267,,14,83,289,32*72
00:08:08  $GPGSV,4,3,13,17,55,273,40,19,33,262,27,22,65,305,38,24,05,328,*77
00:08:08  $GPGSV,4,4,13,30,29,203,27*47
00:08:08  $GPGLL,4532.45105,N,07337.10114,W,000808.00,A,A*7B
00:08:09  $GPRMC,000809.00,A,4532.45202,N,07337.10527,W,11.221,290.14,281125,,,A*4F
00:08:09  $GPVTG,290.14,T,,M,11.221,N,20.782,K,A*3D
00:08:09  $GPGGA,000809.00,4532.45202,N,07337.10527,W,1,10,1.28,69.4,M,-32.7,M,,*55
00:08:09  $GPGSA,A,3,14,22,01,17,02,19,30,03,07,06,,,2.19,1.28,1.77*0B
00:08:09  $GPGSV,4,1,13,01,60,076,35,02,32,049,28,03,19,123,33,06,08,209,26*70
00:08:09  $GPGSV,4,2,13,07,10,182,23,08,04,079,17,13,03,267,22,14,83,289,35*7C
00:08:09  $GPGSV,4,3,13,17,55,273,39,19,33,262,26,22,65,305,36,24,05,328,*76
00:08:09  $GPGSV,4,4,13,30,29,203,27*47
00:08:09  $GPGLL,4532.45202,N,07337.10527,W,000809.00,A,A*7A
00:08:10  $GPRMC,000810.00,A,4532.45331,N,07337.10937,W,11.172,292.20,281125,,,A*4B
00:08:10  $GPVTG,292.20,T,,M,11.172,N,20.690,K,A*3F
00:08:10  $GPGGA,000810.00,4532.45331,N,07337.10937,W,1,10,1.28,69.6,M,-32.7,M,,*53
00:08:10  $GPGSA,A,3,14,22,01,17,02,19,30,03,07,06,,,2.19,1.28,1.77*0B
00:08:10  $GPGSV,4,1,13,01,60,076,35,02,32,049,28,03,19,123,34,06,08,209,16*74
00:08:10  $GPGSV,4,2,13,07,10,182,21,08,04,079,17,13,03,267,18,14,83,289,32*70
00:08:10  $GPGSV,4,3,13,17,55,273,37,19,33,262,32,22,65,305,36,24,05,328,*7D
00:08:10  $GPGSV,4,4,13,30,29,203,27*47
00:08:10  $GPGLL,4532.45331,N,07337.10937,W,000810.00,A,A*7E
00:08:11  $GPRMC,000811.00,A,4532.45447,N,07337.11343,W,10.508,289.94,281125,,,A*49
00:08:11  $GPVTG,289.94,T,,M,10.508,N,19.460,K,A*35
00:08:11  $GPGGA,000811.00,4532.45447,N,07337.11343,W,1,10,1.28,69.2,M,-32.7,M,,*58
00:08:11  $GPGSA,A,3,14,22,01,17,02,19,30,03,07,06,,,2.19,1.28,1.77*0B
00:08:11  $GPGSV,4,1,13,01,60,076,32,02,32,049,28,03,19,123,30,06,08,209,20*72
00:08:11  $GPGSV,4,2,13,07,10,182,19,08,04,079,17,13,03,267,16,14,83,289,31*76
00:08:11  $GPGSV,4,3,13,17,55,273,39,19,33,262,27,22,65,305,38,24,05,328,19*71
00:08:11  $GPGSV,4,4,13,30,29,203,26*46
00:08:11  $GPGLL,4532.45447,N,07337.11343,W,000811.00,A,A*71
00:08:12  $GPRMC,000812.00,A,4532.45568,N,07337.11755,W,10.932,290.50,281125,,,A*40
00:08:12  $GPVTG,290.50,T,,M,10.932,N,20.246,K,A*38
00:08:12  $GPGGA,000812.00,4532.45568,N,07337.11755,W,1,10,1.31,68.7,M,-32.7,M,,*58
00:08:12  $GPGSA,A,3,14,22,01,17,02,19,30,03,07,06,,,2.41,1.31,2.02*0F
00:08:12  $GPGSV,4,1,13,01,60,076,32,02,32,049,28,03,19,123,31,06,08,209,18*78
00:08:12  $GPGSV,4,2,13,07,10,182,19,08,04,079,17,13,03,266,14,14,83,289,31*75
00:08:12  $GPGSV,4,3,13,17,55,273,40,19,33,262,29,22,65,305,36,24,05,328,19*7F
00:08:12  $GPGSV,4,4,13,30,29,203,27*47
00:08:12  $GPGLL,4532.45568,N,07337.11755,W,000812.00,A,A*7D
00:08:13  $GPRMC,000813.00,A,4532.45691,N,07337.12157,W,10.718,292.17,281125,,,A*44
00:08:13  $GPVTG,292.17,T,,M,10.718,N,19.849,K,A*30
00:08:13  $GPGGA,000813.00,4532.45691,N,07337.12157,W,1,10,1.31,68.3,M,-32.7,M,,*5F
00:08:13  $GPGSA,A,3,14,22,01,17,02,19,30,03,07,06,,,2.41,1.31,2.02*0F
00:08:13  $GPGSV,4,1,13,01,60,076,35,02,32,049,28,03,19,123,30,06,08,209,15*73
00:08:13  $GPGSV,4,2,13,07,10,182,17,08,04,079,16,13,03,266,13,14,83,287,26*75
00:08:13  $GPGSV,4,3,13,17,55,273,36,19,33,262,28,22,65,305,39,24,05,328,20*7A
00:08:13  $GPGSV,4,4,13,30,29,203,27*47
00:08:13  $GPGLL,4532.45691,N,07337.12157,W,000813.00,A,A*7E
00:08:14  $GPRMC,000814.00,A,4532.45783,N,07337.12559,W,10.518,291.46,281125,,,A*4E
00:08:14  $GPVTG,291.46,T,,M,10.518,N,19.479,K,A*3A
00:08:14  $GPGGA,000814.00,4532.45783,N,07337.12559,W,1,10,1.31,68.2,M,-32.7,M,,*51
00:08:14  $GPGSA,A,3,14,22,01,17,02,19,30,03,07,06,,,2.41,1.31,2.02*0F
00:08:14  $GPGSV,4,1,13,01,60,076,35,02,32,049,34,03,19,123,34,06,08,209,15*7A
