00:06:39  0000  24 47 50 47 4C 4C 2C 34 35 33 32 2E 35 33 31 35  $GPGLL,4532.5315
          0010  30 2C 4E 2C 30 37 33 33 37 2E 31 31 32 31 35 2C  0,N,07337.11215,
          0020  57 2C 30 30 30 36 33 39 2E 30 30 2C 41 2C 41 2A  W,000639.00,A,A*
          0030  37 33 0D 0A                                      73...
          
00:06:40  0000  24 47 50 52 4D 43 2C 30 30 30 36 34 30 2E 30 30  $GPRMC,000640.00
          0010  2C 41 2C 34 35 33 32 2E 35 33 31 31 31 2C 4E 2C  ,A,4532.53111,N,
          0020  30 37 33 33 37 2E 31 30 39 32 37 2C 57 2C 36 2E  07337.10927,W,6.
          0030  32 31 33 2C 31 30 34 2E 31 36 2C 32 38 31 31 32  213,104.16,28112
          0040  35 2C 2C 2C 41 2A 37 44 0D 0A                    5,,,A*7D...
          
00:06:40  0000  24 47 50 56 54 47 2C 31 30 34 2E 31 36 2C 54 2C  $GPVTG,104.16,T,
          0010  2C 4D 2C 36 2E 32 31 33 2C 4E 2C 31 31 2E 35 30  ,M,6.213,N,11.50
          0020  36 2C 4B 2C 41 2A 30 41 0D 0A                    6,K,A*0A...
          
00:06:40  0000  24 47 50 47 47 41 2C 30 30 30 36 34 30 2E 30 30  $GPGGA,000640.00
          0010  2C 34 35 33 32 2E 35 33 31 31 31 2C 4E 2C 30 37  ,4532.53111,N,07
          0020  33 33 37 2E 31 30 39 32 37 2C 57 2C 31 2C 30 39  337.10927,W,1,09
          0030  2C 31 2E 32 39 2C 36 31 2E 33 2C 4D 2C 2D 33 32  ,1.29,61.3,M,-32
          0040  2E 37 2C 4D 2C 2C 2A 35 41 0D 0A                 .7,M,,*5A...
          
00:06:40  0000  24 47 50 47 53 41 2C 41 2C 33 2C 31 34 2C 32 32  $GPGSA,A,3,14,22
          0010  2C 30 31 2C 31 37 2C 30 32 2C 31 39 2C 33 30 2C  ,01,17,02,19,30,
          0020  30 33 2C 30 36 2C 2C 2C 2C 32 2E 31 39 2C 31 2E  03,06,,,,2.19,1.
          0030  32 39 2C 31 2E 37 37 2A 30 44 0D 0A              29,1.77*0D...
          
00:06:40  0000  24 47 50 47 53 56 2C 34 2C 31 2C 31 33 2C 30 31  $GPGSV,4,1,13,01
          0010  2C 36 30 2C 30 37 38 2C 33 32 2C 30 32 2C 33 33  ,60,078,32,02,33
          0020  2C 30 35 30 2C 34 30 2C 30 33 2C 31 38 2C 31 32  ,050,40,03,18,12
          0030  33 2C 32 36 2C 30 36 2C 30 37 2C 32 30 38 2C 32  3,26,06,07,208,2
          0040  30 2A 37 33 0D 0A                                0*73...
          
00:06:40  0000  24 47 50 47 53 56 2C 34 2C 32 2C 31 33 2C 30 37  $GPGSV,4,2,13,07
          0010  2C 31 31 2C 31 38 32 2C 2C 30 38 2C 30 35 2C 30  ,11,182,,08,05,0
          0020  37 38 2C 31 37 2C 31 33 2C 30 34 2C 32 36 37 2C  78,17,13,04,267,
          0030  2C 31 34 2C 38 32 2C 32 39 31 2C 33 31 2A 37 37  ,14,82,291,31*77
          0040  0D 0A                                            ...
          
00:06:40  0000  24 47 50 47 53 56 2C 34 2C 33 2C 31 33 2C 31 37  $GPGSV,4,3,13,17
          0010  2C 35 35 2C 32 37 32 2C 33 32 2C 31 39 2C 33 33  ,55,272,32,19,33
          0020  2C 32 36 32 2C 33 39 2C 32 32 2C 36 34 2C 33 30  ,262,39,22,64,30
          0030  35 2C 34 33 2C 32 34 2C 30 34 2C 33 32 39 2C 30  5,43,24,04,329,0
          0040  39 2A 37 38 0D 0A                                9*78...
          
00:06:40  0000  24 47 50 47 53 56 2C 34 2C 34 2C 31 33 2C 33 30  $GPGSV,4,4,13,30
          0010  2C 33 30 2C 32 30 33 2C 32 34 2A 34 43 0D 0A     ,30,203,24*4C...
          
00:06:40  0000  24 47 50 47 4C 4C 2C 34 35 33 32 2E 35 33 31 31  $GPGLL,4532.5311
          0010  31 2C 4E 2C 30 37 33 33 37 2E 31 30 39 32 37 2C  1,N,07337.10927,
          0020  57 2C 30 30 30 36 34 30 2E 30 30 2C 41 2C 41 2A  W,000640.00,A,A*
          0030  37 33 0D 0A                                      73...
          
00:06:41  0000  24 47 50 52 4D 43 2C 30 30 30 36 34 31 2E 30 30  $GPRMC,000641.00
          0010  2C 41 2C 34 35 33 32 2E 35 33 30 32 38 2C 4E 2C  ,A,4532.53028,N,
          0020  30 37 33 33 37 2E 31 30 36 34 35 2C 57 2C 37 2E  07337.10645,W,7.
          0030  34 34 33 2C 31 31 33 2E 30 35 2C 32 38 31 31 32  443,113.05,28112
          0040  35 2C 2C 2C 41 2A 37 41 0D 0A                    5,,,A*7A...
          
00:06:41  0000  24 47 50 56 54 47 2C 31 31 33 2E 30 35 2C 54 2C  $GPVTG,113.05,T,
          0010  2C 4D 2C 37 2E 34 34 33 2C 4E 2C 31 33 2E 37 38  ,M,7.443,N,13.78
          0020  34 2C 4B 2C 41 2A 30 36 0D 0A                    4,K,A*06...
          
00:06:41  0000  24 47 50 47 47 41 2C 30 30 30 36 34 31 2E 30 30  $GPGGA,000641.00
          0010  2C 34 35 33 32 2E 35 33 30 32 38 2C 4E 2C 30 37  ,4532.53028,N,07
          0020  33 33 37 2E 31 30 36 34 35 2C 57 2C 31 2C 30 39  337.10645,W,1,09
          0030  2C 31 2E 32 39 2C 36 32 2E 30 2C 4D 2C 2D 33 32  ,1.29,62.0,M,-32
          0040  2E 37 2C 4D 2C 2C 2A 35 42 0D 0A                 .7,M,,*5B...
          
00:06:41  0000  24 47 50 47 53 41 2C 41 2C 33 2C 31 34 2C 32 32  $GPGSA,A,3,14,22
          0010  2C 30 31 2C 31 37 2C 30 32 2C 31 39 2C 33 30 2C  ,01,17,02,19,30,
          0020  30 33 2C 30 36 2C 2C 2C 2C 32 2E 31 39 2C 31 2E  03,06,,,,2.19,1.
          0030  32 39 2C 31 2E 37 37 2A 30 44 0D 0A              29,1.77*0D...
          
00:06:41  0000  24 47 50 47 53 56 2C 34 2C 31 2C 31 33 2C 30 31  $GPGSV,4,1,13,01
          0010  2C 36 30 2C 30 37 38 2C 33 32 2C 30 32 2C 33 33  ,60,078,32,02,33
          0020  2C 30 35 30 2C 33 30 2C 30 33 2C 31 38 2C 31 32  ,050,30,03,18,12
          0030  33 2C 32 36 2C 30 36 2C 30 37 2C 32 30 38 2C 32  3,26,06,07,208,2
          0040  30 2A 37 34 0D 0A                                0*74...
          
00:06:41  0000  24 47 50 47 53 56 2C 34 2C 32 2C 31 33 2C 30 37  $GPGSV,4,2,13,07
          0010  2C 31 31 2C 31 38 32 2C 2C 30 38 2C 30 35 2C 30  ,11,182,,08,05,0
          0020  37 38 2C 31 38 2C 31 33 2C 30 34 2C 32 36 37 2C  78,18,13,04,267,
          0030  2C 31 34 2C 38 32 2C 32 39 31 2C 33 31 2A 37 38  ,14,82,291,31*78
          0040  0D 0A                                            ...
          
00:06:41  0000  24 47 50 47 53 56 2C 34 2C 33 2C 31 33 2C 31 37  $GPGSV,4,3,13,17
          0010  2C 35 35 2C 32 37 32 2C 33 32 2C 31 39 2C 33 33  ,55,272,32,19,33
          0020  2C 32 36 32 2C 33 39 2C 32 32 2C 36 34 2C 33 30  ,262,39,22,64,30
          0030  35 2C 34 33 2C 32 34 2C 30 34 2C 33 32 39 2C 2A  5,43,24,04,329,*
          0040  37 31 0D 0A                                      71...
          
00:06:41  0000  24 47 50 47 53 56 2C 34 2C 34 2C 31 33 2C 33 30  $GPGSV,4,4,13,30
          0010  2C 33 30 2C 32 30 33 2C 33 37 2A 34 45 0D 0A     ,30,203,37*4E...
          
00:06:41  0000  24 47 50 47 4C 4C 2C 34 35 33 32 2E 35 33 30 32  $GPGLL,4532.5302
          0010  38 2C 4E 2C 30 37 33 33 37 2E 31 30 36 34 35 2C  8,N,07337.10645,
          0020  57 2C 30 30 30 36 34 31 2E 30 30 2C 41 2C 41 2A  W,000641.00,A,A*
          0030  37 32 0D 0A                                      72...
          
00:06:42  0000  24 47 50 52 4D 43 2C 30 30 30 36 34 32 2E 30 30  $GPRMC,000642.00
          0010  2C 41 2C 34 35 33 32 2E 35 32 39 31 38 2C 4E 2C  ,A,4532.52918,N,
          0020  30 37 33 33 37 2E 31 30 33 35 32 2C 57 2C 39 2E  07337.10352,W,9.
          0030  31 34 34 2C 31 31 39 2E 39 35 2C 32 38 31 31 32  144,119.95,28112
          0040  35 2C 2C 2C 41 2A 37 45 0D 0A                    5,,,A*7E...
          
00:06:42  0000  24 47 50 56 54 47 2C 31 31 39 2E 39 35 2C 54 2C  $GPVTG,119.95,T,
          0010  2C 4D 2C 39 2E 31 34 34 2C 4E 2C 31 36 2E 39 33  ,M,9.144,N,16.93
          0020  35 2C 4B 2C 41 2A 30 38 0D 0A                    5,K,A*08...
          
00:06:42  0000  24 47 50 47 47 41 2C 30 30 30 36 34 32 2E 30 30  $GPGGA,000642.00
          0010  2C 34 35 33 32 2E 35 32 39 31 38 2C 4E 2C 30 37  ,4532.52918,N,07
          0020  33 33 37 2E 31 30 33 35 32 2C 57 2C 31 2C 31 30  337.10352,W,1,10
          0030  2C 31 2E 32 39 2C 36 32 2E 35 2C 4D 2C 2D 33 32  ,1.29,62.5,M,-32
          0040  2E 37 2C 4D 2C 2C 2A 35 44 0D 0A                 .7,M,,*5D...
          
00:06:42  0000  24 47 50 47 53 41 2C 41 2C 33 2C 31 34 2C 32 32  $GPGSA,A,3,14,22
          0010  2C 30 31 2C 31 37 2C 30 32 2C 31 39 2C 33 30 2C  ,01,17,02,19,30,
          0020  30 33 2C 30 37 2C 30 36 2C 2C 2C 32 2E 31 39 2C  03,07,06,,,2.19,
          0030  31 2E 32 39 2C 31 2E 37 37 2A 30 41 0D 0A        1.29,1.77*0A...
          
00:06:42  0000  24 47 50 47 53 56 2C 34 2C 31 2C 31 33 2C 30 31  $GPGSV,4,1,13,01
          0010  2C 36 30 2C 30 37 38 2C 33 35 2C 30 32 2C 33 33  ,60,078,35,02,33
          0020  2C 30 35 30 2C 33 34 2C 30 33 2C 31 38 2C 31 32  ,050,34,03,18,12
          0030  33 2C 32 35 2C 30 36 2C 30 37 2C 32 30 38 2C 32  3,25,06,07,208,2
          0040  38 2A 37 43 0D 0A                                8*7C...
          
00:06:42  0000  24 47 50 47 53 56 2C 34 2C 32 2C 31 33 2C 30 37  $GPGSV,4,2,13,07
          0010  2C 31 31 2C 31 38 32 2C 32 39 2C 30 38 2C 30 35  ,11,182,29,08,05
          0020  2C 30 37 38 2C 31 39 2C 31 33 2C 30 34 2C 32 36  ,078,19,13,04,26
          0030  37 2C 2C 31 34 2C 38 32 2C 32 39 31 2C 33 32 2A  7,,14,82,291,32*
          0040  37 31 0D 0A                                      71...
          
00:06:42  0000  24 47 50 47 53 56 2C 34 2C 33 2C 31 33 2C 31 37  $GPGSV,4,3,13,17
          0010  2C 35 35 2C 32 37 32 2C 33 31 2C 31 39 2C 33 33  ,55,272,31,19,33
          0020  2C 32 36 32 2C 33 39 2C 32 32 2C 36 34 2C 33 30  ,262,39,22,64,30
          0030  35 2C 34 35 2C 32 34 2C 30 34 2C 33 32 39 2C 2A  5,45,24,04,329,*
          0040  37 34 0D 0A                                      74...
          
00:06:42  0000  24 47 50 47 53 56 2C 34 2C 34 2C 31 33 2C 33 30  $GPGSV,4,4,13,30
          0010  2C 33 30 2C 32 30 33 2C 33 39 2A 34 30 0D 0A     ,30,203,39*40...
          
00:06:42  0000  24 47 50 47 4C 4C 2C 34 35 33 32 2E 35 32 39 31  $GPGLL,4532.5291
          0010  38 2C 4E 2C 30 37 33 33 37 2E 31 30 33 35 32 2C  8,N,07337.10352,
          0020  57 2C 30 30 30 36 34 32 2E 30 30 2C 41 2C 41 2A  W,000642.00,A,A*
          0030  37 39 0D 0A                                      79...
          
00:06:43  0000  24 47 50 52 4D 43 2C 30 30 30 36 34 33 2E 30 30  $GPRMC,000643.00
          0010  2C 41 2C 34 35 33 32 2E 35 32 37 33 38 2C 4E 2C  ,A,4532.52738,N,
          0020  30 37 33 33 37 2E 30 39 39 38 36 2C 57 2C 31 30  07337.09986,W,10
          0030  2E 36 34 31 2C 31 32 32 2E 39 38 2C 32 38 31 31  .641,122.98,2811
          0040  32 35 2C 2C 2C 41 2A 34 37 0D 0A                 25,,,A*47...
          
00:06:43  0000  24 47 50 56 54 47 2C 31 32 32 2E 39 38 2C 54 2C  $GPVTG,122.98,T,
          0010  2C 4D 2C 31 30 2E 36 34 31 2C 4E 2C 31 39 2E 37  ,M,10.641,N,19.7
          0020  30 38 2C 4B 2C 41 2A 33 38 0D 0A                 08,K,A*38...
          
00:06:43  0000  24 47 50 47 47 41 2C 30 30 30 36 34 33 2E 30 30  $GPGGA,000643.00
          0010  2C 34 35 33 32 2E 35 32 37 33 38 2C 4E 2C 30 37  ,4532.52738,N,07
          0020  33 33 37 2E 30 39 39 38 36 2C 57 2C 31 2C 31 30  337.09986,W,1,10
          0030  2C 31 2E 32 39 2C 36 33 2E 38 2C 4D 2C 2D 33 32  ,1.29,63.8,M,-32
          0040  2E 37 2C 4D 2C 2C 2A 35 37 0D 0A                 .7,M,,*57...
          
00:06:43  0000  24 47 50 47 53 41 2C 41 2C 33 2C 31 34 2C 32 32  $GPGSA,A,3,14,22
          0010  2C 30 31 2C 31 37 2C 30 32 2C 31 39 2C 33 30 2C  ,01,17,02,19,30,
          0020  30 33 2C 30 37 2C 30 36 2C 2C 2C 32 2E 31 39 2C  03,07,06,,,2.19,
          0030  31 2E 32 39 2C 31 2E 37 37 2A 30 41 0D 0A        1.29,1.77*0A...
          
00:06:43  0000  B5 62 0A 04 00 00 0E 34                          µb.....4.
          
00:06:43  0000  24 47 50 47 53 56 2C 34 2C 31 2C 31 33 2C 30 31  $GPGSV,4,1,13,01
          0010  2C 36 30 2C 30 37 38 2C 33 31 2C 30 32 2C 33 33  ,60,078,31,02,33
          0020  2C 30 35 30 2C 33 34 2C 30 33 2C 31 38 2C 31 32  ,050,34,03,18,12
          0030  33 2C 32 34 2C 30 36 2C 30 37 2C 32 30 38 2C 32  3,24,06,07,208,2
          0040  30 2A 37 31 0D 0A                                0*71...
          
00:06:43  0000  24 47 50 47 53 56 2C 34 2C 32 2C 31 33 2C 30 37  $GPGSV,4,2,13,07
          0010  2C 31 31 2C 31 38 32 2C 32 38 2C 30 38 2C 30 35  ,11,182,28,08,05
          0020  2C 30 37 38 2C 31 39 2C 31 33 2C 30 34 2C 32 36  ,078,19,13,04,26
          0030  37 2C 2C 31 34 2C 38 32 2C 32 39 31 2C 33 32 2A  7,,14,82,291,32*
          0040  37 30 0D 0A                                      70...
          
00:06:43  0000  24 47 50 47 53 56 2C 34 2C 33 2C 31 33 2C 31 37  $GPGSV,4,3,13,17
          0010  2C 35 35 2C 32 37 32 2C 33 32 2C 31 39 2C 33 33  ,55,272,32,19,33
          0020  2C 32 36 32 2C 33 39 2C 32 32 2C 36 34 2C 33 30  ,262,39,22,64,30
          0030  35 2C 34 34 2C 32 34 2C 30 34 2C 33 32 39 2C 2A  5,44,24,04,329,*
          0040  37 36 0D 0A                                      76...
          
00:06:43  0000  24 47 50 47 53 56 2C 34 2C 34 2C 31 33 2C 33 30  $GPGSV,4,4,13,30
          0010  2C 33 30 2C 32 30 33 2C 32 37 2A 34 46 0D 0A     ,30,203,27*4F...
          
00:06:43  0000  24 47 50 47 4C 4C 2C 34 35 33 32 2E 35 32 37 33  $GPGLL,4532.5273
          0010  38 2C 4E 2C 30 37 33 33 37 2E 30 39 39 38 36 2C  8,N,07337.09986,
          0020  57 2C 30 30 30 36 34 33 2E 30 30 2C 41 2C 41 2A  W,000643.00,A,A*
          0030  37 46 0D 0A                                      7F...
          
00:06:44  0000  24 47 50 52 4D 43 2C 30 30 30 36 34 34 2E 30 30  $GPRMC,000644.00
          0010  2C 41 2C 34 35 33 32 2E 35 32 35 35 31 2C 4E 2C  ,A,4532.52551,N,
          0020  30 37 33 33 37 2E 30 39 36 35 32 2C 57 2C 39 2E  07337.09652,W,9.
          0030  39 32 35 2C 31 32 35 2E 36 32 2C 32 38 31 31 32  925,125.62,28112
          0040  35 2C 2C 2C 41 2A 37 43 0D 0A                    5,,,A*7C...
          
00:06:44  0000  24 47 50 56 54 47 2C 31 32 35 2E 36 32 2C 54 2C  $GPVTG,125.62,T,
          0010  2C 4D 2C 39 2E 39 32 35 2C 4E 2C 31 38 2E 33 38  ,M,9.925,N,18.38
          0020  31 2C 4B 2C 41 2A 30 42 0D 0A                    1,K,A*0B...
          
00:06:44  0000  24 47 50 47 47 41 2C 30 30 30 36 34 34 2E 30 30  $GPGGA,000644.00
          0010  2C 34 35 33 32 2E 35 32 35 35 31 2C 4E 2C 30 37  ,4532.52551,N,07
          0020  33 33 37 2E 30 39 36 35 32 2C 57 2C 31 2C 31 30  337.09652,W,1,10
          0030  2C 31 2E 32 39 2C 36 35 2E 36 2C 4D 2C 2D 33 32  ,1.29,65.6,M,-32
          0040  2E 37 2C 4D 2C 2C 2A 35 33 0D 0A                 .7,M,,*53...
          
00:06:44  0000  24 47 50 47 53 41 2C 41 2C 33 2C 31 34 2C 32 32  $GPGSA,A,3,14,22
          0010  2C 30 31 2C 31 37 2C 30 32 2C 31 39 2C 33 30 2C  ,01,17,02,19,30,
          0020  30 33 2C 30 37 2C 30 36 2C 2C 2C 32 2E 31 39 2C  03,07,06,,,2.19,
          0030  31 2E 32 39 2C 31 2E 37 37 2A 30 41 0D 0A        1.29,1.77*0A...
          
00:06:44  0000  24 47 50 47 53 56 2C 34 2C 31 2C 31 33 2C 30 31  $GPGSV,4,1,13,01
          0010  2C 36 30 2C 30 37 38 2C 33 34 2C 30 32 2C 33 33  ,60,078,34,02,33
          0020  2C 30 35 30 2C 33 30 2C 30 33 2C 31 38 2C 31 32  ,050,30,03,18,12
          0030  33 2C 32 33 2C 30 36 2C 30 37 2C 32 30 38 2C 32  3,23,06,07,208,2
          0040  32 2A 37 35 0D 0A                                2*75...
          
00:06:44  0000  24 47 50 47 53 56 2C 34 2C 32 2C 31 33 2C 30 37  $GPGSV,4,2,13,07
          0010  2C 31 31 2C 31 38 32 2C 32 37 2C 30 38 2C 30 35  ,11,182,27,08,05
          0020  2C 30 37 38 2C 31 38 2C 31 33 2C 30 34 2C 32 36  ,078,18,13,04,26
          0030  37 2C 2C 31 34 2C 38 32 2C 32 39 31 2C 33 31 2A  7,,14,82,291,31*
          0040  37 44 0D 0A                                      7D...
          
00:06:44  0000  24 47 50 47 53 56 2C 34 2C 33 2C 31 33 2C 31 37  $GPGSV,4,3,13,17
          0010  2C 35 35 2C 32 37 32 2C 33 32 2C 31 39 2C 33 33  ,55,272,32,19,33
          0020  2C 32 36 32 2C 34 32 2C 32 32 2C 36 34 2C 33 30  ,262,42,22,64,30
          0030  35 2C 34 34 2C 32 34 2C 30 34 2C 33 32 39 2C 2A  5,44,24,04,329,*
          0040  37 41 0D 0A                                      7A...
          
00:06:44  0000  24 47 50 47 53 56 2C 34 2C 34 2C 31 33 2C 33 30  $GPGSV,4,4,13,30
          0010  2C 33 30 2C 32 30 33 2C 33 33 2A 34 41 0D 0A     ,30,203,33*4A...
          
00:06:44  0000  24 47 50 47 4C 4C 2C 34 35 33 32 2E 35 32 35 35  $GPGLL,4532.5255
          0010  31 2C 4E 2C 30 37 33 33 37 2E 30 39 36 35 32 2C  1,N,07337.09652,
          0020  57 2C 30 30 30 36 34 34 2E 30 30 2C 41 2C 41 2A  W,000644.00,A,A*
          0030  37 33 0D 0A                                      73...
          
00:06:44  0000  B5 62 0A 04 00 00 0E 34                          µb.....4.
          
00:06:45  0000  24 47 50 52 4D 43 2C 30 30 30 36 34 35 2E 30 30  $GPRMC,000645.00
          0010  2C 41 2C 34 35 33 32 2E 35 32 34 30 35 2C 4E 2C  ,A,4532.52405,N,
          0020  30 37 33 33 37 2E 30 39 33 34 30 2C 57 2C 39 2E  07337.09340,W,9.
          0030  36 32 36 2C 31 32 35 2E 35 35 2C 32 38 31 31 32  626,125.55,28112
          0040  35 2C 2C 2C 41 2A 37 33 0D 0A                    5,,,A*73...
          
00:06:45  0000  24 47 50 56 54 47 2C 31 32 35 2E 35 35 2C 54 2C  $GPVTG,125.55,T,
          0010  2C 4D 2C 39 2E 36 32 36 2C 4E 2C 31 37 2E 38 32  ,M,9.626,N,17.82
          0020  38 2C 4B 2C 41 2A 30 34 0D 0A                    8,K,A*04...
          
00:06:45  0000  24 47 50 47 47 41 2C 30 30 30 36 34 35 2E 30 30  $GPGGA,000645.00
          0010  2C 34 35 33 32 2E 35 32 34 30 35 2C 4E 2C 30 37  ,4532.52405,N,07
          0020  33 33 37 2E 30 39 33 34 30 2C 57 2C 31 2C 31 30  337.09340,W,1,10
          0030  2C 31 2E 32 39 2C 36 36 2E 37 2C 4D 2C 2D 33 32  ,1.29,66.7,M,-32
          0040  2E 37 2C 4D 2C 2C 2A 35 36 0D 0A                 .7,M,,*56...
          
00:06:45  0000  24 47 50 47 53 41 2C 41 2C 33 2C 31 34 2C 32 32  $GPGSA,A,3,14,22
          0010  2C 30 31 2C 31 37 2C 30 32 2C 31 39 2C 33 30 2C  ,01,17,02,19,30,
          0020  30 33 2C 30 37 2C 30 36 2C 2C 2C 32 2E 31 39 2C  03,07,06,,,2.19,
          0030  31 2E 32 39 2C 31 2E 37 37 2A 30 41 0D 0A        1.29,1.77*0A...
          
00:06:45  0000  24 47 50 47 53 56 2C 34 2C 31 2C 31 33 2C 30 31  $GPGSV,4,1,13,01
          0010  2C 36 30 2C 30 37 38 2C 33 34 2C 30 32 2C 33 33  ,60,078,34,02,33
          0020  2C 30 35 30 2C 33 31 2C 30 33 2C 31 38 2C 31 32  ,050,31,03,18,12
          0030  33 2C 32 34 2C 30 36 2C 30 37 2C 32 30 38 2C 32  3,24,06,07,208,2
          0040  33 2A 37 32 0D 0A                                3*72...
          
00:06:45  0000  24 47 50 47 53 56 2C 34 2C 32 2C 31 33 2C 30 37  $GPGSV,4,2,13,07
          0010  2C 31 31 2C 31 38 32 2C 33 32 2C 30 38 2C 30 35  ,11,182,32,08,05
          0020  2C 30 37 38 2C 31 38 2C 31 33 2C 30 34 2C 32 36  ,078,18,13,04,26
          0030  37 2C 2C 31 34 2C 38 32 2C 32 39 31 2C 33 31 2A  7,,14,82,291,31*
          0040  37 39 0D 0A                                      79...
          
00:06:45  0000  24 47 50 47 53 56 2C 34 2C 33 2C 31 33 2C 31 37  $GPGSV,4,3,13,17
          0010  2C 35 35 2C 32 37 32 2C 32 38 2C 31 39 2C 33 33  ,55,272,28,19,33
          0020  2C 32 36 32 2C 33 39 2C 32 32 2C 36 34 2C 33 30  ,262,39,22,64,30
          0030  35 2C 34 35 2C 32 34 2C 30 34 2C 33 32 39 2C 2A  5,45,24,04,329,*
          0040  37 43 0D 0A                                      7C...
          
00:06:45  0000  24 47 50 47 53 56 2C 34 2C 34 2C 31 33 2C 33 30  $GPGSV,4,4,13,30
          0010  2C 33 30 2C 32 30 33 2C 33 36 2A 34 46 0D 0A     ,30,203,36*4F...
          
00:06:45  0000  24 47 50 47 4C 4C 2C 34 35 33 32 2E 35 32 34 30  $GPGLL,4532.5240
          0010  35 2C 4E 2C 30 37 33 33 37 2E 30 39 33 34 30 2C  5,N,07337.09340,
          0020  57 2C 30 30 30 36 34 35 2E 30 30 2C 41 2C 41 2A  W,000645.00,A,A*
          0030  37 34 0D 0A                                      74...
          
00:06:45  0000  B5 62 06 13 00 00 19 51                          µb.....Q.
          
00:06:46  0000  24 47 50 52 4D 43 2C 30 30 30 36 34 36 2E 30 30  $GPRMC,000646.00
          0010  2C 41 2C 34 35 33 32 2E 35 32 32 35 33 2C 4E 2C  ,A,4532.52253,N,
          0020  30 37 33 33 37 2E 30 38 39 39 34 2C 57 2C 31 30  07337.08994,W,10
          0030  2E 37 37 32 2C 31 32 34 2E 37 31 2C 32 38 31 31  .772,124.71,2811
          0040  32 35 2C 2C 2C 41 2A 34 38 0D 0A                 25,,,A*48...
          
00:06:46  0000  24 47 50 56 54 47 2C 31 32 34 2E 37 31 2C 54 2C  $GPVTG,124.71,T,
          0010  2C 4D 2C 31 30 2E 37 37 32 2C 4E 2C 31 39 2E 39  ,M,10.772,N,19.9
          0020  35 30 2C 4B 2C 41 2A 33 42 0D 0A                 50,K,A*3B...
          
00:06:46  0000  24 47 50 47 47 41 2C 30 30 30 36 34 36 2E 30 30  $GPGGA,000646.00
          0010  2C 34 35 33 32 2E 35 32 32 35 33 2C 4E 2C 30 37  ,4532.52253,N,07
          0020  33 33 37 2E 30 38 39 39 34 2C 57 2C 31 2C 31 30  337.08994,W,1,10
          0030  2C 31 2E 32 39 2C 36 37 2E 31 2C 4D 2C 2D 33 32  ,1.29,67.1,M,-32
          0040  2E 37 2C 4D 2C 2C 2A 35 35 0D 0A                 .7,M,,*55...
          
00:06:46  0000  24 47 50 47 53 41 2C 41 2C 33 2C 31 34 2C 32 32  $GPGSA,A,3,14,22
          0010  2C 30 31 2C 31 37 2C 30 32 2C 31 39 2C 33 30 2C  ,01,17,02,19,30,
          0020  30 33 2C 30 37 2C 30 36 2C 2C 2C 32 2E 31 39 2C  03,07,06,,,2.19,
          0030  31 2E 32 39 2C 31 2E 37 37 2A 30 41 0D 0A        1.29,1.77*0A...
          
00:06:46  0000  24 47 50 47 53 56 2C 34 2C 31 2C 31 33 2C 30 31  $GPGSV,4,1,13,01
          0010  2C 36 30 2C 30 37 38 2C 33 34 2C 30 32 2C 33 33  ,60,078,34,02,33
          0020  2C 30 35 30 2C 33 34 2C 30 33 2C 31 38 2C 31 32  ,050,34,03,18,12
          0030  33 2C 32 34 2C 30 36 2C 30 37 2C 32 30 38 2C 32  3,24,06,07,208,2
          0040  34 2A 37 30 0D 0A                                4*70...
          
00:06:46  0000  24 47 50 47 53 56 2C 34 2C 32 2C 31 33 2C 30 37  $GPGSV,4,2,13,07
          0010  2C 31 31 2C 31 38 32 2C 32 36 2C 30 38 2C 30 35  ,11,182,26,08,05
          0020  2C 30 37 38 2C 31 38 2C 31 33 2C 30 34 2C 32 36  ,078,18,13,04,26
          0030  37 2C 2C 31 34 2C 38 32 2C 32 39 31 2C 33 32 2A  7,,14,82,291,32*
          0040  37 46 0D 0A                                      7F...
          
00:06:46  0000  24 47 50 47 53 56 2C 34 2C 33 2C 31 33 2C 31 37  $GPGSV,4,3,13,17
          0010  2C 35 35 2C 32 37 32 2C 32 39 2C 31 39 2C 33 33  ,55,272,29,19,33
          0020  2C 32 36 32 2C 33 37 2C 32 32 2C 36 34 2C 33 30  ,262,37,22,64,30
          0030  35 2C 34 35 2C 32 34 2C 30 34 2C 33 32 39 2C 2A  5,45,24,04,329,*
          0040  37 33 0D 0A                                      73...
          
00:06:46  0000  24 47 50 47 53 56 2C 34 2C 34 2C 31 33 2C 33 30  $GPGSV,4,4,13,30
          0010  2C 33 30 2C 32 30 33 2C 32 38 2A 34 30 0D 0A     ,30,203,28*40...
          
00:06:46  0000  24 47 50 47 4C 4C 2C 34 35 33 32 2E 35 32 32 35  $GPGLL,4532.5225
          0010  33 2C 4E 2C 30 37 33 33 37 2E 30 38 39 39 34 2C  3,N,07337.08994,
          0020  57 2C 30 30 30 36 34 36 2E 30 30 2C 41 2C 41 2A  W,000646.00,A,A*
          0030  37 30 0D 0A                                      70...
          
00:06:47  0000  24 47 50 52 4D 43 2C 30 30 30 36 34 37 2E 30 30  $GPRMC,000647.00
          0010  2C 41 2C 34 35 33 32 2E 35 32 30 36 37 2C 4E 2C  ,A,4532.52067,N,
          0020  30 37 33 33 37 2E 30 38 36 33 32 2C 57 2C 31 31  07337.08632,W,11
          0030  2E 31 32 36 2C 31 32 35 2E 37 36 2C 32 38 31 31  .126,125.76,2811
          0040  32 35 2C 2C 2C 41 2A 34 46 0D 0A                 25,,,A*4F...
          
00:06:47  0000  24 47 50 56 54 47 2C 31 32 35 2E 37 36 2C 54 2C  $GPVTG,125.76,T,
          0010  2C 4D 2C 31 31 2E 31 32 36 2C 4E 2C 32 30 2E 36  ,M,11.126,N,20.6
          0020  30 36 2C 4B 2C 41 2A 33 44 0D 0A                 06,K,A*3D...
          
00:06:47  0000  24 47 50 47 47 41 2C 30 30 30 36 34 37 2E 30 30  $GPGGA,000647.00
          0010  2C 34 35 33 32 2E 35 32 30 36 37 2C 4E 2C 30 37  ,4532.52067,N,07
          0020  33 33 37 2E 30 38 36 33 32 2C 57 2C 31 2C 31 30  337.08632,W,1,10
          0030  2C 31 2E 32 39 2C 36 38 2E 36 2C 4D 2C 2D 33 32  ,1.29,68.6,M,-32
          0040  2E 37 2C 4D 2C 2C 2A 35 41 0D 0A                 .7,M,,*5A...
          
00:06:47  0000  24 47 50 47 53 41 2C 41 2C 33 2C 31 34 2C 32 32  $GPGSA,A,3,14,22
          0010  2C 30 31 2C 31 37 2C 30 32 2C 31 39 2C 33 30 2C  ,01,17,02,19,30,
          0020  30 33 2C 30 37 2C 30 36 2C 2C 2C 32 2E 31 39 2C  03,07,06,,,2.19,
          0030  31 2E 32 39 2C 31 2E 37 37 2A 30 41 0D 0A        1.29,1.77*0A...
          
00:06:47  0000  B5 62 06 13 00 00 19 51                          µb.....Q.
          
00:06:47  0000  24 47 50 47 53 56 2C 34 2C 31 2C 31 33 2C 30 31  $GPGSV,4,1,13,01
          0010  2C 36 30 2C 30 37 38 2C 33 35 2C 30 32 2C 33 33  ,60,078,35,02,33
          0020  2C 30 35 30 2C 32 36 2C 30 33 2C 31 38 2C 31 32  ,050,26,03,18,12
          0030  33 2C 32 33 2C 30 36 2C 30 37 2C 32 30 38 2C 33  3,23,06,07,208,3
          0040  30 2A 37 30 0D 0A                                0*70...
          
00:06:47  0000  24 47 50 47 53 56 2C 34 2C 32 2C 31 33 2C 30 37  $GPGSV,4,2,13,07
          0010  2C 31 31 2C 31 38 32 2C 32 35 2C 30 38 2C 30 35  ,11,182,25,08,05
          0020  2C 30 37 38 2C 31 38 2C 31 33 2C 30 34 2C 32 36  ,078,18,13,04,26
          0030  37 2C 2C 31 34 2C 38 32 2C 32 39 31 2C 33 32 2A  7,,14,82,291,32*
          0040  37 43 0D 0A                                      7C...
          
00:06:47  0000  24 47 50 47 53 56 2C 34 2C 33 2C 31 33 2C 31 37  $GPGSV,4,3,13,17
          0010  2C 35 35 2C 32 37 32 2C 32 39 2C 31 39 2C 33 33  ,55,272,29,19,33
          0020  2C 32 36 32 2C 34 31 2C 32 32 2C 36 34 2C 33 30  ,262,41,22,64,30
          0030  35 2C 34 35 2C 32 34 2C 30 34 2C 33 32 39 2C 2A  5,45,24,04,329,*
          0040  37 32 0D 0A                                      72...
          
00:06:47  0000  24 47 50 47 53 56 2C 34 2C 34 2C 31 33 2C 33 30  $GPGSV,4,4,13,30
          0010  2C 33 30 2C 32 30 33 2C 32 38 2A 34 30 0D 0A     ,30,203,28*40...
          
00:06:47  0000  24 47 50 47 4C 4C 2C 34 35 33 32 2E 35 32 30 36  $GPGLL,4532.5206
          0010  37 2C 4E 2C 30 37 33 33 37 2E 30 38 36 33 32 2C  7,N,07337.08632,
          0020  57 2C 30 30 30 36 34 37 2E 30 30 2C 41 2C 41 2A  W,000647.00,A,A*
          0030  37 37 0D 0A                                      77...
          
00:06:48  0000  24 47 50 52 4D 43 2C 30 30 30 36 34 38 2E 30 30  $GPRMC,000648.00
          0010  2C 41 2C 34 35 33 32 2E 35 31 38 36 36 2C 4E 2C  ,A,4532.51866,N,
          0020  30 37 33 33 37 2E 30 38 32 36 31 2C 57 2C 31 32  07337.08261,W,12
          0030  2E 31 37 35 2C 31 32 38 2E 31 30 2C 32 38 31 31  .175,128.10,2811
          0040  32 35 2C 2C 2C 41 2A 34 30 0D 0A                 25,,,A*40...
          
00:06:48  0000  24 47 50 56 54 47 2C 31 32 38 2E 31 30 2C 54 2C  $GPVTG,128.10,T,
          0010  2C 4D 2C 31 32 2E 31 37 35 2C 4E 2C 32 32 2E 35  ,M,12.175,N,22.5
          0020  34 39 2C 4B 2C 41 2A 33 46 0D 0A                 49,K,A*3F...
          
00:06:48  0000  24 47 50 47 47 41 2C 30 30 30 36 34 38 2E 30 30  $GPGGA,000648.00
          0010  2C 34 35 33 32 2E 35 31 38 36 36 2C 4E 2C 30 37  ,4532.51866,N,07
          0020  33 33 37 2E 30 38 32 36 31 2C 57 2C 31 2C 31 30  337.08261,W,1,10
          0030  2C 31 2E 32 39 2C 36 39 2E 32 2C 4D 2C 2D 33 32  ,1.29,69.2,M,-32
          0040  2E 37 2C 4D 2C 2C 2A 35 38 0D 0A                 .7,M,,*58...
          
00:06:48  0000  24 47 50 47 53 41 2C 41 2C 33 2C 31 34 2C 32 32  $GPGSA,A,3,14,22
          0010  2C 30 31 2C 31 37 2C 30 32 2C 31 39 2C 33 30 2C  ,01,17,02,19,30,
          0020  30 33 2C 30 37 2C 30 36 2C 2C 2C 32 2E 31 39 2C  03,07,06,,,2.19,
          0030  31 2E 32 39 2C 31 2E 37 37 2A 30 41 0D 0A        1.29,1.77*0A...
          
00:06:48  0000  24 47 50 47 53 56 2C 34 2C 31 2C 31 33 2C 30 31  $GPGSV,4,1,13,01
          0010  2C 36 30 2C 30 37 38 2C 33 33 2C 30 32 2C 33 33  ,60,078,33,02,33
          0020  2C 30 35 30 2C 32 38 2C 30 33 2C 31 38 2C 31 32  ,050,28,03,18,12
          0030  33 2C 32 33 2C 30 36 2C 30 37 2C 32 30 38 2C 32  3,23,06,07,208,2
          0040  32 2A 37 42 0D 0A                                2*7B...
          
00:06:48  0000  B5 62 06 06 00 00 0C 2A                          µb.....*.
          
00:06:48  0000  24 47 50 47 53 56 2C 34 2C 32 2C 31 33 2C 30 37  $GPGSV,4,2,13,07
          0010  2C 31 31 2C 31 38 32 2C 32 33 2C 30 38 2C 30 35  ,11,182,23,08,05
          0020  2C 30 37 38 2C 31 37 2C 31 33 2C 30 34 2C 32 36  ,078,17,13,04,26
          0030  37 2C 2C 31 34 2C 38 32 2C 32 39 31 2C 33 32 2A  7,,14,82,291,32*
          0040  37 35 0D 0A                                      75...
          
00:06:48  0000  24 47 50 47 53 56 2C 34 2C 33 2C 31 33 2C 31 37  $GPGSV,4,3,13,17
          0010  2C 35 35 2C 32 37 32 2C 33 32 2C 31 39 2C 33 33  ,55,272,32,19,33
          0020  2C 32 36 32 2C 34 30 2C 32 32 2C 36 34 2C 33 30  ,262,40,22,64,30
          0030  35 2C 34 35 2C 32 34 2C 30 34 2C 33 32 39 2C 2A  5,45,24,04,329,*
          0040  37 39 0D 0A                                      79...
          
00:06:48  0000  24 47 50 47 53 56 2C 34 2C 34 2C 31 33 2C 33 30  $GPGSV,4,4,13,30
          0010  2C 33 30 2C 32 30 33 2C 32 37 2A 34 46 0D 0A     ,30,203,27*4F...
          
00:06:48  0000  24 47 50 47 4C 4C 2C 34 35 33 32 2E 35 31 38 36  $GPGLL,4532.5186
          0010  36 2C 4E 2C 30 37 33 33 37 2E 30 38 32 36 31 2C  6,N,07337.08261,
          0020  57 2C 30 30 30 36 34 38 2E 30 30 2C 41 2C 41 2A  W,000648.00,A,A*
          0030  37 30 0D 0A                                      70...
          
00:06:49  0000  24 47 50 52 4D 43 2C 30 30 30 36 34 39 2E 30 30  $GPRMC,000649.00
          0010  2C 41 2C 34 35 33 32 2E 35 31 37 35 38 2C 4E 2C  ,A,4532.51758,N,
          0020  30 37 33 33 37 2E 30 37 39 30 39 2C 57 2C 39 2E  07337.07909,W,9.
          0030  36 30 37 2C 31 32 32 2E 35 31 2C 32 38 31 31 32  607,122.51,28112
          0040  35 2C 2C 2C 41 2A 37 45 0D 0A                    5,,,A*7E...
          
00:06:49  0000  24 47 50 56 54 47 2C 31 32 32 2E 35 31 2C 54 2C  $GPVTG,122.51,T,
          0010  2C 4D 2C 39 2E 36 30 37 2C 4E 2C 31 37 2E 37 39  ,M,9.607,N,17.79
          0020  32 2C 4B 2C 41 2A 30 41 0D 0A                    2,K,A*0A...
          
00:06:49  0000  24 47 50 47 47 41 2C 30 30 30 36 34 39 2E 30 30  $GPGGA,000649.00
          0010  2C 34 35 33 32 2E 35 31 37 35 38 2C 4E 2C 30 37  ,4532.51758,N,07
          0020  33 33 37 2E 30 37 39 30 39 2C 57 2C 31 2C 31 30  337.07909,W,1,10
          0030  2C 31 2E 32 34 2C 36 39 2E 35 2C 4D 2C 2D 33 32  ,1.24,69.5,M,-32
          0040  2E 37 2C 4D 2C 2C 2A 35 42 0D 0A                 .7,M,,*5B...
          
00:06:49  0000  24 47 50 47 53 41 2C 41 2C 33 2C 31 34 2C 32 32  $GPGSA,A,3,14,22
          0010  2C 30 31 2C 31 37 2C 30 32 2C 31 39 2C 33 30 2C  ,01,17,02,19,30,
          0020  30 33 2C 30 37 2C 30 36 2C 2C 2C 32 2E 31 36 2C  03,07,06,,,2.16,
          0030  31 2E 32 34 2C 31 2E 37 37 2A 30 38 0D 0A        1.24,1.77*08...
          
00:06:49  0000  24 47 50 47 53 56 2C 34 2C 31 2C 31 33 2C 30 31  $GPGSV,4,1,13,01
          0010  2C 36 30 2C 30 37 37 2C 33 36 2C 30 32 2C 33 33  ,60,077,36,02,33
          0020  2C 30 35 30 2C 33 36 2C 30 33 2C 31 38 2C 31 32  ,050,36,03,18,12
          0030  33 2C 32 33 2C 30 36 2C 30 37 2C 32 30 38 2C 32  3,23,06,07,208,2
          0040  30 2A 37 43 0D 0A                                0*7C...
          
00:06:49  0000  24 47 50 47 53 56 2C 34 2C 32 2C 31 33 2C 30 37  $GPGSV,4,2,13,07
          0010  2C 31 31 2C 31 38 32 2C 32 34 2C 30 38 2C 30 35  ,11,182,24,08,05
          0020  2C 30 37 38 2C 31 37 2C 31 33 2C 30 34 2C 32 36  ,078,17,13,04,26
          0030  37 2C 2C 31 34 2C 38 32 2C 32 39 31 2C 33 33 2A  7,,14,82,291,33*
          0040  37 33 0D 0A                                      73...
          
00:06:49  0000  B5 62 06 06 00 00 0C 2A                          µb.....*.
          
00:06:49  0000  24 47 50 47 53 56 2C 34 2C 33 2C 31 33 2C 31 37  $GPGSV,4,3,13,17
          0010  2C 35 35 2C 32 37 32 2C 33 35 2C 31 39 2C 33 33  ,55,272,35,19,33
          0020  2C 32 36 32 2C 34 33 2C 32 32 2C 36 34 2C 33 30  ,262,43,22,64,30
          0030  35 2C 34 35 2C 32 34 2C 30 34 2C 33 32 39 2C 2A  5,45,24,04,329,*
          0040  37 44 0D 0A                                      7D...
          
00:06:49  0000  24 47 50 47 53 56 2C 34 2C 34 2C 31 33 2C 33 30  $GPGSV,4,4,13,30
          0010  2C 33 30 2C 32 30 33 2C 33 32 2A 34 42 0D 0A     ,30,203,32*4B...
          
00:06:49  0000  24 47 50 47 4C 4C 2C 34 35 33 32 2E 35 31 37 35  $GPGLL,4532.5175
          0010  38 2C 4E 2C 30 37 33 33 37 2E 30 37 39 30 39 2C  8,N,07337.07909,
          0020  57 2C 30 30 30 36 34 39 2E 30 30 2C 41 2C 41 2A  W,000649.00,A,A*
          0030  37 39 0D 0A                                      79...
          
00:06:50  0000  24 47 50 52 4D 43 2C 30 30 30 36 35 30 2E 30 30  $GPRMC,000650.00
          0010  2C 41 2C 34 35 33 32 2E 35 31 36 37 39 2C 4E 2C  ,A,4532.51679,N,
          0020  30 37 33 33 37 2E 30 37 35 30 35 2C 57 2C 31 31  07337.07505,W,11
          0030  2E 31 30 36 2C 31 31 34 2E 32 32 2C 32 38 31 31  .106,114.22,2811
          0040  32 35 2C 2C 2C 41 2A 34 41 0D 0A                 25,,,A*4A...
          
00:06:50  0000  24 47 50 56 54 47 2C 31 31 34 2E 32 32 2C 54 2C  $GPVTG,114.22,T,
          0010  2C 4D 2C 31 31 2E 31 30 36 2C 4E 2C 32 30 2E 35  ,M,11.106,N,20.5
          0020  36 39 2C 4B 2C 41 2A 33 36 0D 0A                 69,K,A*36...
          
00:06:50  0000  24 47 50 47 47 41 2C 30 30 30 36 35 30 2E 30 30  $GPGGA,000650.00
          0010  2C 34 35 33 32 2E 35 31 36 37 39 2C 4E 2C 30 37  ,4532.51679,N,07
          0020  33 33 37 2E 30 37 35 30 35 2C 57 2C 31 2C 31 30  337.07505,W,1,10
          0030  2C 31 2E 32 39 2C 36 39 2E 33 2C 4D 2C 2D 33 32  ,1.29,69.3,M,-32
          0040  2E 37 2C 4D 2C 2C 2A 35 41 0D 0A                 .7,M,,*5A...
          
00:06:50  0000  24 47 50 47 53 41 2C 41 2C 33 2C 31 34 2C 32 32  $GPGSA,A,3,14,22
          0010  2C 30 31 2C 31 37 2C 30 32 2C 31 39 2C 33 30 2C  ,01,17,02,19,30,
          0020  30 33 2C 30 37 2C 30 36 2C 2C 2C 32 2E 31 39 2C  03,07,06,,,2.19,
          0030  31 2E 32 39 2C 31 2E 37 37 2A 30 41 0D 0A        1.29,1.77*0A...
          
00:06:50  0000  24 47 50 47 53 56 2C 34 2C 31 2C 31 33 2C 30 31  $GPGSV,4,1,13,01
          0010  2C 36 30 2C 30 37 37 2C 33 33 2C 30 32 2C 33 32  ,60,077,33,02,32
          0020  2C 30 34 39 2C 32 39 2C 30 33 2C 31 38 2C 31 32  ,049,29,03,18,12
          0030  33 2C 32 32 2C 30 36 2C 30 37 2C 32 30 38 2C 31  3,22,06,07,208,1
          0040  39 2A 37 35 0D 0A                                9*75...
          
00:06:50  0000  24 47 50 47 53 56 2C 34 2C 32 2C 31 33 2C 30 37  $GPGSV,4,2,13,07
          0010  2C 31 31 2C 31 38 32 2C 32 34 2C 30 38 2C 30 35  ,11,182,24,08,05
          0020  2C 30 37 38 2C 31 36 2C 31 33 2C 30 34 2C 32 36  ,078,16,13,04,26
          0030  37 2C 2C 31 34 2C 38 32 2C 32 39 31 2C 33 33 2A  7,,14,82,291,33*
          0040  37 32 0D 0A                                      72...
          
00:06:50  0000  24 47 50 47 53 56 2C 34 2C 33 2C 31 33 2C 31 37  $GPGSV,4,3,13,17
          0010  2C 35 35 2C 32 37 32 2C 33 30 2C 31 39 2C 33 33  ,55,272,30,19,33
          0020  2C 32 36 32 2C 33 31 2C 32 32 2C 36 34 2C 33 30  ,262,31,22,64,30
          0030  35 2C 34 35 2C 32 34 2C 30 34 2C 33 32 39 2C 2A  5,45,24,04,329,*
          0040  37 44 0D 0A                                      7D...
          
00:06:50  0000  24 47 50 47 53 56 2C 34 2C 34 2C 31 33 2C 33 30  $GPGSV,4,4,13,30
          0010  2C 33 30 2C 32 30 33 2C 32 36 2A 34 45 0D 0A     ,30,203,26*4E...
          
00:06:50  0000  24 47 50 47 4C 4C 2C 34 35 33 32 2E 35 31 36 37  $GPGLL,4532.5167
          0010  39 2C 4E 2C 30 37 33 33 37 2E 30 37 35 30 35 2C  9,N,07337.07505,
          0020  57 2C 30 30 30 36 35 30 2E 30 30 2C 41 2C 41 2A  W,000650.00,A,A*
          0030  37 33 0D 0A                                      73...
          
00:06:50  0000  B5 62 06 70 00 00 76 68                          µb.p..vh.
          
00:06:51  0000  24 47 50 52 4D 43 2C 30 30 30 36 35 31 2E 30 30  $GPRMC,000651.00
          0010  2C 41 2C 34 35 33 32 2E 35 31 35 35 32 2C 4E 2C  ,A,4532.51552,N,
          0020  30 37 33 33 37 2E 30 37 31 32 33 2C 57 2C 31 30  07337.07123,W,10
          0030  2E 33 35 31 2C 31 31 36 2E 35 31 2C 32 38 31 31  .351,116.51,2811
          0040  32 35 2C 2C 2C 41 2A 34 36 0D 0A                 25,,,A*46...
          
00:06:51  0000  24 47 50 56 54 47 2C 31 31 36 2E 35 31 2C 54 2C  $GPVTG,116.51,T,
          0010  2C 4D 2C 31 30 2E 33 35 31 2C 4E 2C 31 39 2E 31  ,M,10.351,N,19.1
          0020  36 39 2C 4B 2C 41 2A 33 46 0D 0A                 69,K,A*3F...
          
00:06:51  0000  24 47 50 47 47 41 2C 30 30 30 36 35 31 2E 30 30  $GPGGA,000651.00
          0010  2C 34 35 33 32 2E 35 31 35 35 32 2C 4E 2C 30 37  ,4532.51552,N,07
          0020  33 33 37 2E 30 37 31 32 33 2C 57 2C 31 2C 31 30  337.07123,W,1,10
          0030  2C 31 2E 32 39 2C 37 30 2E 33 2C 4D 2C 2D 33 32  ,1.29,70.3,M,-32
          0040  2E 37 2C 4D 2C 2C 2A 35 39 0D 0A                 .7,M,,*59...
          
00:06:51  0000  24 47 50 47 53 41 2C 41 2C 33 2C 31 34 2C 32 32  $GPGSA,A,3,14,22
          0010  2C 30 31 2C 31 37 2C 30 32 2C 31 39 2C 33 30 2C  ,01,17,02,19,30,
          0020  30 33 2C 30 37 2C 30 36 2C 2C 2C 32 2E 31 39 2C  03,07,06,,,2.19,
          0030  31 2E 32 39 2C 31 2E 37 37 2A 30 41 0D 0A        1.29,1.77*0A...
          
00:06:51  0000  24 47 50 47 53 56 2C 34 2C 31 2C 31 33 2C 30 31  $GPGSV,4,1,13,01
          0010  2C 36 30 2C 30 37 37 2C 33 32 2C 30 32 2C 33 32  ,60,077,32,02,32
          0020  2C 30 34 39 2C 33 30 2C 30 33 2C 31 39 2C 31 32  ,049,30,03,19,12
          0030  33 2C 32 31 2C 30 36 2C 30 37 2C 32 30 38 2C 32  3,21,06,07,208,2
          0040  30 2A 37 34 0D 0A                                0*74...
          
00:06:51  0000  24 47 50 47 53 56 2C 34 2C 32 2C 31 33 2C 30 37  $GPGSV,4,2,13,07
          0010  2C 31 31 2C 31 38 32 2C 32 32 2C 30 38 2C 30 35  ,11,182,22,08,05
          0020  2C 30 37 38 2C 31 36 2C 31 33 2C 30 34 2C 32 36  ,078,16,13,04,26
          0030  37 2C 2C 31 34 2C 38 32 2C 32 39 31 2C 33 35 2A  7,,14,82,291,35*
          0040  37 32 0D 0A                                      72...
          
00:06:51  0000  24 47 50 47 53 56 2C 34 2C 33 2C 31 33 2C 31 37  $GPGSV,4,3,13,17
          0010  2C 35 35 2C 32 37 32 2C 32 39 2C 31 39 2C 33 33  ,55,272,29,19,33
          0020  2C 32 36 32 2C 34 32 2C 32 32 2C 36 34 2C 33 30  ,262,42,22,64,30
          0030  35 2C 34 35 2C 32 34 2C 30 34 2C 33 32 39 2C 2A  5,45,24,04,329,*
          0040  37 31 0D 0A                                      71...
          
00:06:51  0000  24 47 50 47 53 56 2C 34 2C 34 2C 31 33 2C 33 30  $GPGSV,4,4,13,30
          0010  2C 33 30 2C 32 30 33 2C 33 31 2A 34 38 0D 0A     ,30,203,31*48...
          
00:06:51  0000  24 47 50 47 4C 4C 2C 34 35 33 32 2E 35 31 35 35  $GPGLL,4532.5155
          0010  32 2C 4E 2C 30 37 33 33 37 2E 30 37 31 32 33 2C  2,N,07337.07123,
          0020  57 2C 30 30 30 36 35 31 2E 30 30 2C 41 2C 41 2A  W,000651.00,A,A*
          0030  37 38 0D 0A                                      78...
          
00:06:52  0000  24 47 50 52 4D 43 2C 30 30 30 36 35 32 2E 30 30  $GPRMC,000652.00
          0010  2C 41 2C 34 35 33 32 2E 35 31 34 30 39 2C 4E 2C  ,A,4532.51409,N,
          0020  30 37 33 33 37 2E 30 36 37 34 30 2C 57 2C 31 31  07337.06740,W,11
          0030  2E 31 34 35 2C 31 31 38 2E 37 34 2C 32 38 31 31  .145,118.74,2811
          0040  32 35 2C 2C 2C 41 2A 34 37 0D 0A                 25,,,A*47...
          
00:06:52  0000  24 47 50 56 54 47 2C 31 31 38 2E 37 34 2C 54 2C  $GPVTG,118.74,T,
          0010  2C 4D 2C 31 31 2E 31 34 35 2C 4E 2C 32 30 2E 36  ,M,11.145,N,20.6
          0020  34 31 2C 4B 2C 41 2A 33 37 0D 0A                 41,K,A*37...
          
00:06:52  0000  24 47 50 47 47 41 2C 30 30 30 36 35 32 2E 30 30  $GPGGA,000652.00
          0010  2C 34 35 33 32 2E 35 31 34 30 39 2C 4E 2C 30 37  ,4532.51409,N,07
          0020  33 33 37 2E 30 36 37 34 30 2C 57 2C 31 2C 31 30  337.06740,W,1,10
          0030  2C 31 2E 32 39 2C 37 30 2E 35 2C 4D 2C 2D 33 32  ,1.29,70.5,M,-32
          0040  2E 37 2C 4D 2C 2C 2A 35 31 0D 0A                 .7,M,,*51...
          
00:06:52  0000  24 47 50 47 53 41 2C 41 2C 33 2C 31 34 2C 32 32  $GPGSA,A,3,14,22
          0010  2C 30 31 2C 31 37 2C 30 32 2C 31 39 2C 33 30 2C  ,01,17,02,19,30,
          0020  30 33 2C 30 37 2C 30 36 2C 2C 2C 32 2E 31 39 2C  03,07,06,,,2.19,
          0030  31 2E 32 39 2C 31 2E 37 37 2A 30 41 0D 0A        1.29,1.77*0A...
          
00:06:52  0000  24 47 50 47 53 56 2C 34 2C 31 2C 31 33 2C 30 31  $GPGSV,4,1,13,01
          0010  2C 36 30 2C 30 37 37 2C 33 35 2C 30 32 2C 33 32  ,60,077,35,02,32
          0020  2C 30 34 39 2C 33 33 2C 30 33 2C 31 39 2C 31 32  ,049,33,03,19,12
          0030  33 2C 32 33 2C 30 36 2C 30 37 2C 32 30 38 2C 32  3,23,06,07,208,2
          0040  30 2A 37 32 0D 0A                                0*72...
          
00:06:52  0000  24 47 50 47 53 56 2C 34 2C 32 2C 31 33 2C 30 37  $GPGSV,4,2,13,07
          0010  2C 31 31 2C 31 38 32 2C 32 30 2C 30 38 2C 30 35  ,11,182,20,08,05
          0020  2C 30 37 38 2C 31 36 2C 31 33 2C 30 34 2C 32 36  ,078,16,13,04,26
          0030  37 2C 2C 31 34 2C 38 32 2C 32 39 31 2C 32 37 2A  7,,14,82,291,27*
          0040  37 33 0D 0A                                      73...
          
00:06:52  0000  B5 62 06 70 00 00 76 68                          µb.p..vh.
          
00:06:52  0000  24 47 50 47 53 56 2C 34 2C 33 2C 31 33 2C 31 37  $GPGSV,4,3,13,17
          0010  2C 35 35 2C 32 37 32 2C 32 39 2C 31 39 2C 33 33  ,55,272,29,19,33
          0020  2C 32 36 32 2C 34 30 2C 32 32 2C 36 34 2C 33 30  ,262,40,22,64,30
          0030  35 2C 34 34 2C 32 34 2C 30 34 2C 33 32 39 2C 2A  5,44,24,04,329,*
          0040  37 32 0D 0A                                      72...
          
00:06:52  0000  24 47 50 47 53 56 2C 34 2C 34 2C 31 33 2C 33 30  $GPGSV,4,4,13,30
          0010  2C 33 30 2C 32 30 33 2C 32 35 2A 34 44 0D 0A     ,30,203,25*4D...
          
00:06:52  0000  24 47 50 47 4C 4C 2C 34 35 33 32 2E 35 31 34 30  $GPGLL,4532.5140
          0010  39 2C 4E 2C 30 37 33 33 37 2E 30 36 37 34 30 2C  9,N,07337.06740,
          0020  57 2C 30 30 30 36 35 32 2E 30 30 2C 41 2C 41 2A  W,000652.00,A,A*
          0030  37 36 0D 0A                                      76...
          
00:06:53  0000  24 47 50 52 4D 43 2C 30 30 30 36 35 33 2E 30 30  $GPRMC,000653.00
          0010  2C 41 2C 34 35 33 32 2E 35 31 32 37 34 2C 4E 2C  ,A,4532.51274,N,
          0020  30 37 33 33 37 2E 30 36 33 36 35 2C 57 2C 31 30  07337.06365,W,10
          0030  2E 35 37 32 2C 31 31 37 2E 34 34 2C 32 38 31 31  .572,117.44,2811
          0040  32 35 2C 2C 2C 41 2A 34 34 0D 0A                 25,,,A*44...
          
00:06:53  0000  24 47 50 56 54 47 2C 31 31 37 2E 34 34 2C 54 2C  $GPVTG,117.44,T,
          0010  2C 4D 2C 31 30 2E 35 37 32 2C 4E 2C 31 39 2E 35  ,M,10.572,N,19.5
          0020  37 39 2C 4B 2C 41 2A 33 38 0D 0A                 79,K,A*38...
          
00:06:53  0000  24 47 50 47 47 41 2C 30 30 30 36 35 33 2E 30 30  $GPGGA,000653.00
          0010  2C 34 35 33 32 2E 35 31 32 37 34 2C 4E 2C 30 37  ,4532.51274,N,07
          0020  33 33 37 2E 30 36 33 36 35 2C 57 2C 31 2C 31 30  337.06365,W,1,10
          0030  2C 31 2E 32 39 2C 37 31 2E 32 2C 4D 2C 2D 33 32  ,1.29,71.2,M,-32
          0040  2E 37 2C 4D 2C 2C 2A 35 39 0D 0A                 .7,M,,*59...
          
00:06:53  0000  24 47 50 47 53 41 2C 41 2C 33 2C 31 34 2C 32 32  $GPGSA,A,3,14,22
          0010  2C 30 31 2C 31 37 2C 30 32 2C 31 39 2C 33 30 2C  ,01,17,02,19,30,
          0020  30 33 2C 30 37 2C 30 36 2C 2C 2C 32 2E 31 39 2C  03,07,06,,,2.19,
          0030  31 2E 32 39 2C 31 2E 37 37 2A 30 41 0D 0A        1.29,1.77*0A...
          
00:06:53  0000  24 47 50 47 53 56 2C 34 2C 31 2C 31 33 2C 30 31  $GPGSV,4,1,13,01
          0010  2C 36 30 2C 30 37 37 2C 33 31 2C 30 32 2C 33 32  ,60,077,31,02,32
          0020  2C 30 34 39 2C 32 39 2C 30 33 2C 31 39 2C 31 32  ,049,29,03,19,12
          0030  33 2C 32 33 2C 30 36 2C 30 37 2C 32 30 38 2C 31  3,23,06,07,208,1
          0040  38 2A 37 36 0D 0A                                8*76...
          
00:06:53  0000  24 47 50 47 53 56 2C 34 2C 32 2C 31 33 2C 30 37  $GPGSV,4,2,13,07
          0010  2C 31 31 2C 31 38 32 2C 31 39 2C 30 38 2C 30 35  ,11,182,19,08,05
          0020  2C 30 37 38 2C 31 36 2C 31 33 2C 30 34 2C 32 36  ,078,16,13,04,26
          0030  37 2C 2C 31 34 2C 38 32 2C 32 39 31 2C 33 33 2A  7,,14,82,291,33*
          0040  37 43 0D 0A                                      7C...
          
00:06:53  0000  24 47 50 47 53 56 2C 34 2C 33 2C 31 33 2C 31 37  $GPGSV,4,3,13,17
          0010  2C 35 35 2C 32 37 32 2C 33 30 2C 31 39 2C 33 33  ,55,272,30,19,33
          0020  2C 32 36 32 2C 32 38 2C 32 32 2C 36 34 2C 33 30  ,262,28,22,64,30
          0030  35 2C 34 33 2C 32 34 2C 30 34 2C 33 32 39 2C 2A  5,43,24,04,329,*
          0040  37 33 0D 0A                                      73...
          
00:06:53  0000  24 47 50 47 53 56 2C 34 2C 34 2C 31 33 2C 33 30  $GPGSV,4,4,13,30
          0010  2C 33 30 2C 32 30 33 2C 32 34 2A 34 43 0D 0A     ,30,203,24*4C...
          
00:06:53  0000  24 47 50 47 4C 4C 2C 34 35 33 32 2E 35 31 32 37  $GPGLL,4532.5127
          0010  34 2C 4E 2C 30 37 33 33 37 2E 30 36 33 36 35 2C  4,N,07337.06365,
          0020  57 2C 30 30 30 36 35 33 2E 30 30 2C 41 2C 41 2A  W,000653.00,A,A*
          0030  37 38 0D 0A                                      78...
          
00:06:53  0000  B5 62 06 61 00 00 67 3B                          µb.a..g;.
          
00:06:54  0000  24 47 50 52 4D 43 2C 30 30 30 36 35 34 2E 30 30  $GPRMC,000654.00
          0010  2C 41 2C 34 35 33 32 2E 35 31 31 31 38 2C 4E 2C  ,A,4532.51118,N,
          0020  30 37 33 33 37 2E 30 36 30 30 36 2C 57 2C 31 30  07337.06006,W,10
          0030  2E 37 30 35 2C 31 32 31 2E 39 30 2C 32 38 31 31  .705,121.90,2811
          0040  32 35 2C 2C 2C 41 2A 34 32 0D 0A                 25,,,A*42...
          
00:06:54  0000  24 47 50 56 54 47 2C 31 32 31 2E 39 30 2C 54 2C  $GPVTG,121.90,T,
          0010  2C 4D 2C 31 30 2E 37 30 35 2C 4E 2C 31 39 2E 38  ,M,10.705,N,19.8
          0020  32 36 2C 4B 2C 41 2A 33 31 0D 0A                 26,K,A*31...
          
00:06:54  0000  24 47 50 47 47 41 2C 30 30 30 36 35 34 2E 30 30  $GPGGA,000654.00
          0010  2C 34 35 33 32 2E 35 31 31 31 38 2C 4E 2C 30 37  ,4532.51118,N,07
          0020  33 33 37 2E 30 36 30 30 36 2C 57 2C 31 2C 30 39  337.06006,W,1,09
          0030  2C 32 2E 30 34 2C 37 31 2E 34 2C 4D 2C 2D 33 32  ,2.04,71.4,M,-32
          0040  2E 37 2C 4D 2C 2C 2A 35 33 0D 0A                 .7,M,,*53...
          
00:06:54  0000  24 47 50 47 53 41 2C 41 2C 33 2C 31 34 2C 32 32  $GPGSA,A,3,14,22
          0010  2C 30 31 2C 31 37 2C 30 32 2C 31 39 2C 33 30 2C  ,01,17,02,19,30,
          0020  30 33 2C 30 36 2C 2C 2C 2C 33 2E 33 39 2C 32 2E  03,06,,,,3.39,2.
          0030  30 34 2C 32 2E 37 30 2A 30 36 0D 0A              04,2.70*06...
          
00:06:54  0000  24 47 50 47 53 56 2C 34 2C 31 2C 31 33 2C 30 31  $GPGSV,4,1,13,01
          0010  2C 36 30 2C 30 37 37 2C 33 34 2C 30 32 2C 33 32  ,60,077,34,02,32
          0020  2C 30 34 39 2C 33 34 2C 30 33 2C 31 39 2C 31 32  ,049,34,03,19,12
          0030  33 2C 32 34 2C 30 36 2C 30 38 2C 32 30 39 2C 31  3,24,06,08,209,1
          0040  36 2A 37 38 0D 0A                                6*78...
          
00:06:54  0000  24 47 50 47 53 56 2C 34 2C 32 2C 31 33 2C 30 37  $GPGSV,4,2,13,07
          0010  2C 31 31 2C 31 38 32 2C 2C 30 38 2C 30 35 2C 30  ,11,182,,08,05,0
          0020  37 38 2C 31 36 2C 31 33 2C 30 34 2C 32 36 37 2C  78,16,13,04,267,
          0030  31 31 2C 31 34 2C 38 32 2C 32 39 31 2C 33 36 2A  11,14,82,291,36*
          0040  37 31 0D 0A                                      71...
          
00:06:54  0000  24 47 50 47 53 56 2C 34 2C 33 2C 31 33 2C 31 37  $GPGSV,4,3,13,17
          0010  2C 35 35 2C 32 37 32 2C 33 33 2C 31 39 2C 33 33  ,55,272,33,19,33
          0020  2C 32 36 32 2C 33 35 2C 32 32 2C 36 34 2C 33 30  ,262,35,22,64,30
          0030  35 2C 34 35 2C 32 34 2C 30 34 2C 33 32 39 2C 2A  5,45,24,04,329,*
          0040  37 41 0D 0A                                      7A...
          
00:06:54  0000  24 47 50 47 53 56 2C 34 2C 34 2C 31 33 2C 33 30  $GPGSV,4,4,13,30
          0010  2C 33 30 2C 32 30 33 2C 32 34 2A 34 43 0D 0A     ,30,203,24*4C...
          
00:06:54  0000  24 47 50 47 4C 4C 2C 34 35 33 32 2E 35 31 31 31  $GPGLL,4532.5111
          0010  38 2C 4E 2C 30 37 33 33 37 2E 30 36 30 30 36 2C  8,N,07337.06006,
          0020  57 2C 30 30 30 36 35 34 2E 30 30 2C 41 2C 41 2A  W,000654.00,A,A*
          0030  37 30 0D 0A                                      70...
          
00:06:55  0000  24 47 50 52 4D 43 2C 30 30 30 36 35 35 2E 30 30  $GPRMC,000655.00
          0010  2C 41 2C 34 35 33 32 2E 35 30 38 37 34 2C 4E 2C  ,A,4532.50874,N,
          0020  30 37 33 33 37 2E 30 35 36 38 34 2C 57 2C 31 30  07337.05684,W,10
          0030  2E 37 39 32 2C 31 32 38 2E 31 34 2C 32 38 31 31  .792,128.14,2811
          0040  32 35 2C 2C 2C 41 2A 34 35 0D 0A                 25,,,A*45...
          
00:06:55  0000  24 47 50 56 54 47 2C 31 32 38 2E 31 34 2C 54 2C  $GPVTG,128.14,T,
          0010  2C 4D 2C 31 30 2E 37 39 32 2C 4E 2C 31 39 2E 39  ,M,10.792,N,19.9
          0020  38 38 2C 4B 2C 41 2A 33 46 0D 0A                 88,K,A*3F...
          
00:06:55  0000  24 47 50 47 47 41 2C 30 30 30 36 35 35 2E 30 30  $GPGGA,000655.00
          0010  2C 34 35 33 32 2E 35 30 38 37 34 2C 4E 2C 30 37  ,4532.50874,N,07
          0020  33 33 37 2E 30 35 36 38 34 2C 57 2C 31 2C 30 39  337.05684,W,1,09
          0030  2C 31 2E 34 36 2C 37 33 2E 37 2C 4D 2C 2D 33 32  ,1.46,73.7,M,-32
          0040  2E 37 2C 4D 2C 2C 2A 35 42 0D 0A                 .7,M,,*5B...
          
00:06:55  0000  24 47 50 47 53 41 2C 41 2C 33 2C 31 34 2C 32 32  $GPGSA,A,3,14,22
          0010  2C 30 31 2C 31 37 2C 30 32 2C 31 39 2C 33 30 2C  ,01,17,02,19,30,
          0020  30 33 2C 30 36 2C 2C 2C 2C 32 2E 33 35 2C 31 2E  03,06,,,,2.35,1.
          0030  34 36 2C 31 2E 38 35 2A 30 37 0D 0A              46,1.85*07...
          
00:06:55  0000  24 47 50 47 53 56 2C 34 2C 31 2C 31 33 2C 30 31  $GPGSV,4,1,13,01
          0010  2C 36 30 2C 30 37 37 2C 33 36 2C 30 32 2C 33 32  ,60,077,36,02,32
          0020  2C 30 34 39 2C 33 33 2C 30 33 2C 31 39 2C 31 32  ,049,33,03,19,12
          0030  33 2C 32 33 2C 30 36 2C 30 38 2C 32 30 39 2C 31  3,23,06,08,209,1
          0040  34 2A 37 38 0D 0A                                4*78...
          
00:06:55  0000  24 47 50 47 53 56 2C 34 2C 32 2C 31 33 2C 30 37  $GPGSV,4,2,13,07
          0010  2C 31 31 2C 31 38 32 2C 2C 30 38 2C 30 35 2C 30  ,11,182,,08,05,0
          0020  37 38 2C 31 35 2C 31 33 2C 30 34 2C 32 36 37 2C  78,15,13,04,267,
          0030  31 33 2C 31 34 2C 38 32 2C 32 39 31 2C 33 35 2A  13,14,82,291,35*
          0040  37 33 0D 0A                                      73...
          
00:06:55  0000  B5 62 06 61 00 00 67 3B                          µb.a..g;.
          
00:06:55  0000  24 47 50 47 53 56 2C 34 2C 33 2C 31 33 2C 31 37  $GPGSV,4,3,13,17
          0010  2C 35 35 2C 32 37 32 2C 33 33 2C 31 39 2C 33 33  ,55,272,33,19,33
          0020  2C 32 36 32 2C 33 32 2C 32 32 2C 36 34 2C 33 30  ,262,32,22,64,30
          0030  35 2C 34 35 2C 32 34 2C 30 34 2C 33 32 39 2C 2A  5,45,24,04,329,*
          0040  37 44 0D 0A                                      7D...
          
00:06:55  0000  24 47 50 47 53 56 2C 34 2C 34 2C 31 33 2C 33 30  $GPGSV,4,4,13,30
          0010  2C 33 30 2C 32 30 33 2C 32 39 2A 34 31 0D 0A     ,30,203,29*41...
          
00:06:55  0000  24 47 50 47 4C 4C 2C 34 35 33 32 2E 35 30 38 37  $GPGLL,4532.5087
          0010  34 2C 4E 2C 30 37 33 33 37 2E 30 35 36 38 34 2C  4,N,07337.05684,
          0020  57 2C 30 30 30 36 35 35 2E 30 30 2C 41 2C 41 2A  W,000655.00,A,A*
          0030  37 43 0D 0A                                      7C...
          
00:06:56  0000  24 47 50 52 4D 43 2C 30 30 30 36 35 36 2E 30 30  $GPRMC,000656.00
          0010  2C 41 2C 34 35 33 32 2E 35 30 36 37 39 2C 4E 2C  ,A,4532.50679,N,
          0020  30 37 33 33 37 2E 30 35 33 33 36 2C 57 2C 31 31  07337.05336,W,11
          0030  2E 36 36 34 2C 31 32 39 2E 32 30 2C 32 38 31 31  .664,129.20,2811
          0040  32 35 2C 2C 2C 41 2A 34 36 0D 0A                 25,,,A*46...
          
00:06:56  0000  24 47 50 56 54 47 2C 31 32 39 2E 32 30 2C 54 2C  $GPVTG,129.20,T,
          0010  2C 4D 2C 31 31 2E 36 36 34 2C 4E 2C 32 31 2E 36  ,M,11.664,N,21.6
          0020  30 31 2C 4B 2C 41 2A 33 35 0D 0A                 01,K,A*35...
          
00:06:56  0000  24 47 50 47 47 41 2C 30 30 30 36 35 36 2E 30 30  $GPGGA,000656.00
          0010  2C 34 35 33 32 2E 35 30 36 37 39 2C 4E 2C 30 37  ,4532.50679,N,07
          0020  33 33 37 2E 30 35 33 33 36 2C 57 2C 31 2C 31 30  337.05336,W,1,10
          0030  2C 31 2E 32 39 2C 37 34 2E 32 2C 4D 2C 2D 33 32  ,1.29,74.2,M,-32
          0040  2E 37 2C 4D 2C 2C 2A 35 34 0D 0A                 .7,M,,*54...
          
00:06:56  0000  24 47 50 47 53 41 2C 41 2C 33 2C 31 34 2C 32 32  $GPGSA,A,3,14,22
          0010  2C 30 31 2C 31 37 2C 30 32 2C 31 39 2C 33 30 2C  ,01,17,02,19,30,
          0020  30 33 2C 30 37 2C 30 36 2C 2C 2C 32 2E 31 39 2C  03,07,06,,,2.19,
          0030  31 2E 32 39 2C 31 2E 37 37 2A 30 41 0D 0A        1.29,1.77*0A...
          
00:06:56  0000  24 47 50 47 53 56 2C 34 2C 31 2C 31 33 2C 30 31  $GPGSV,4,1,13,01
          0010  2C 36 30 2C 30 37 37 2C 33 36 2C 30 32 2C 33 32  ,60,077,36,02,32
          0020  2C 30 34 39 2C 32 38 2C 30 33 2C 31 39 2C 31 32  ,049,28,03,19,12
          0030  33 2C 32 34 2C 30 36 2C 30 38 2C 32 30 39 2C 31  3,24,06,08,209,1
          0040  33 2A 37 32 0D 0A                                3*72...
          
00:06:56  0000  24 47 50 47 53 56 2C 34 2C 32 2C 31 33 2C 30 37  $GPGSV,4,2,13,07
          0010  2C 31 31 2C 31 38 32 2C 32 32 2C 30 38 2C 30 35  ,11,182,22,08,05
          0020  2C 30 37 38 2C 31 34 2C 31 33 2C 30 34 2C 32 36  ,078,14,13,04,26
          0030  37 2C 31 38 2C 31 34 2C 38 32 2C 32 39 31 2C 33  7,18,14,82,291,3
          0040  30 2A 37 43 0D 0A                                0*7C...
          
00:06:56  0000  24 47 50 47 53 56 2C 34 2C 33 2C 31 33 2C 31 37  $GPGSV,4,3,13,17
          0010  2C 35 35 2C 32 37 32 2C 32 38 2C 31 39 2C 33 33  ,55,272,28,19,33
          0020  2C 32 36 32 2C 33 35 2C 32 32 2C 36 34 2C 33 30  ,262,35,22,64,30
          0030  35 2C 34 33 2C 32 34 2C 30 34 2C 33 32 39 2C 2A  5,43,24,04,329,*
          0040  37 36 0D 0A                                      76...
          
00:06:56  0000  24 47 50 47 53 56 2C 34 2C 34 2C 31 33 2C 33 30  $GPGSV,4,4,13,30
          0010  2C 33 30 2C 32 30 33 2C 32 32 2A 34 41 0D 0A     ,30,203,22*4A...
          
00:06:56  0000  24 47 50 47 4C 4C 2C 34 35 33 32 2E 35 30 36 37  $GPGLL,4532.5067
          0010  39 2C 4E 2C 30 37 33 33 37 2E 30 35 33 33 36 2C  9,N,07337.05336,
          0020  57 2C 30 30 30 36 35 36 2E 30 30 2C 41 2C 41 2A  W,000656.00,A,A*
          0030  37 30 0D 0A                                      70...
          
00:06:56  0000  B5 62 06 12 00 00 18 4E                          µb.....N.
          
00:06:57  0000  24 47 50 52 4D 43 2C 30 30 30 36 35 37 2E 30 30  $GPRMC,000657.00
          0010  2C 41 2C 34 35 33 32 2E 35 30 34 33 30 2C 4E 2C  ,A,4532.50430,N,
          0020  30 37 33 33 37 2E 30 35 30 33 31 2C 57 2C 31 31  07337.05031,W,11
          0030  2E 32 34 33 2C 31 33 35 2E 37 30 2C 32 38 31 31  .243,135.70,2811
          0040  32 35 2C 2C 2C 41 2A 34 35 0D 0A                 25,,,A*45...
          
00:06:57  0000  24 47 50 56 54 47 2C 31 33 35 2E 37 30 2C 54 2C  $GPVTG,135.70,T,
          0010  2C 4D 2C 31 31 2E 32 34 33 2C 4E 2C 32 30 2E 38  ,M,11.243,N,20.8
          0020  32 31 2C 4B 2C 41 2A 33 31 0D 0A                 21,K,A*31...
          
00:06:57  0000  24 47 50 47 47 41 2C 30 30 30 36 35 37 2E 30 30  $GPGGA,000657.00
          0010  2C 34 35 33 32 2E 35 30 34 33 30 2C 4E 2C 30 37  ,4532.50430,N,07
          0020  33 33 37 2E 30 35 30 33 31 2C 57 2C 31 2C 31 30  337.05031,W,1,10
          0030  2C 31 2E 33 34 2C 37 36 2E 31 2C 4D 2C 2D 33 32  ,1.34,76.1,M,-32
          0040  2E 37 2C 4D 2C 2C 2A 35 33 0D 0A                 .7,M,,*53...
          
00:06:57  0000  24 47 50 47 53 41 2C 41 2C 33 2C 31 34 2C 32 32  $GPGSA,A,3,14,22
          0010  2C 30 31 2C 31 37 2C 30 32 2C 31 39 2C 33 30 2C  ,01,17,02,19,30,
          0020  30 33 2C 30 37 2C 30 36 2C 2C 2C 32 2E 32 38 2C  03,07,06,,,2.28,
          0030  31 2E 33 34 2C 31 2E 38 35 2A 30 39 0D 0A        1.34,1.85*09...
          
00:06:57  0000  24 47 50 47 53 56 2C 34 2C 31 2C 31 33 2C 30 31  $GPGSV,4,1,13,01
          0010  2C 36 30 2C 30 37 37 2C 33 34 2C 30 32 2C 33 32  ,60,077,34,02,32
          0020  2C 30 34 39 2C 32 38 2C 30 33 2C 31 39 2C 31 32  ,049,28,03,19,12
          0030  33 2C 32 33 2C 30 36 2C 30 38 2C 32 30 39 2C 31  3,23,06,08,209,1
          0040  31 2A 37 35 0D 0A                                1*75...
          
00:06:57  0000  24 47 50 47 53 56 2C 34 2C 32 2C 31 33 2C 30 37  $GPGSV,4,2,13,07
          0010  2C 31 31 2C 31 38 32 2C 33 30 2C 30 38 2C 30 35  ,11,182,30,08,05
          0020  2C 30 37 38 2C 31 35 2C 31 33 2C 30 34 2C 32 36  ,078,15,13,04,26
          0030  37 2C 31 37 2C 31 34 2C 38 32 2C 32 39 31 2C 33  7,17,14,82,291,3
          0040  33 2A 37 32 0D 0A                                3*72...
          
00:06:57  0000  24 47 50 47 53 56 2C 34 2C 33 2C 31 33 2C 31 37  $GPGSV,4,3,13,17
          0010  2C 35 35 2C 32 37 32 2C 32 38 2C 31 39 2C 33 33  ,55,272,28,19,33
          0020  2C 32 36 32 2C 33 36 2C 32 32 2C 36 34 2C 33 30  ,262,36,22,64,30
          0030  35 2C 34 35 2C 32 34 2C 30 34 2C 33 32 39 2C 2A  5,45,24,04,329,*
          0040  37 33 0D 0A                                      73...
          
00:06:57  0000  24 47 50 47 53 56 2C 34 2C 34 2C 31 33 2C 33 30  $GPGSV,4,4,13,30
          0010  2C 33 30 2C 32 30 33 2C 32 34 2A 34 43 0D 0A     ,30,203,24*4C...
          
00:06:57  0000  24 47 50 47 4C 4C 2C 34 35 33 32 2E 35 30 34 33  $GPGLL,4532.5043
          0010  30 2C 4E 2C 30 37 33 33 37 2E 30 35 30 33 31 2C  0,N,07337.05031,
          0020  57 2C 30 30 30 36 35 37 2E 30 30 2C 41 2C 41 2A  W,000657.00,A,A*
          0030  37 41 0D 0A                                      7A...
          
00:06:58  0000  24 47 50 52 4D 43 2C 30 30 30 36 35 38 2E 30 30  $GPRMC,000658.00
          0010  2C 41 2C 34 35 33 32 2E 35 30 33 35 32 2C 4E 2C  ,A,4532.50352,N,
          0020  30 37 33 33 37 2E 30 34 36 36 39 2C 57 2C 31 30  07337.04669,W,10
          0030  2E 33 30 39 2C 31 32 33 2E 33 36 2C 32 38 31 31  .309,123.36,2811
          0040  32 35 2C 2C 2C 41 2A 34 38 0D 0A                 25,,,A*48...
          
00:06:58  0000  24 47 50 56 54 47 2C 31 32 33 2E 33 36 2C 54 2C  $GPVTG,123.36,T,
          0010  2C 4D 2C 31 30 2E 33 30 39 2C 4E 2C 31 39 2E 30  ,M,10.309,N,19.0
          0020  39 32 2C 4B 2C 41 2A 33 30 0D 0A                 92,K,A*30...
          
00:06:58  0000  24 47 50 47 47 41 2C 30 30 30 36 35 38 2E 30 30  $GPGGA,000658.00
          0010  2C 34 35 33 32 2E 35 30 33 35 32 2C 4E 2C 30 37  ,4532.50352,N,07
          0020  33 33 37 2E 30 34 36 36 39 2C 57 2C 31 2C 31 30  337.04669,W,1,10
