19:24:26  $GPRMC,192426.00,A,4532.43092,N,07337.24750,W,0.059,,271125,,,A*6E
19:24:26  $GPVTG,,T,,M,0.059,N,0.109,K,A*27
19:24:26  $GPGGA,192426.00,4532.43092,N,07337.24750,W,1,09,1.00,97.3,M,-32.7,M,,*52
19:24:26  $GPGSA,A,3,16,27,09,04,08,26,07,31,18,,,,1.94,1.00,1.66*01
19:24:26  $GPGSV,3,1,12,04,47,205,47,07,28,301,26,08,43,184,35,09,51,268,34*72
19:24:26  $GPGSV,3,2,12,16,60,053,32,18,12,051,18,20,00,325,,21,04,326,*7C
19:24:26  $GPGSV,3,3,12,26,25,070,29,27,63,135,42,30,01,299,,31,16,116,24*71
19:24:26  $GPGLL,4532.43092,N,07337.24750,W,192426.00,A,A*79
19:24:27  $GPRMC,192427.00,A,4532.43088,N,07337.24747,W,0.097,,271125,,,A*60
19:24:27  $GPVTG,,T,,M,0.097,N,0.180,K,A*24
19:24:27  $GPGGA,192427.00,4532.43088,N,07337.24747,W,1,09,1.00,96.7,M,-32.7,M,,*5B
19:24:27  $GPGSA,A,3,16,27,09,04,08,26,07,31,18,,,,1.94,1.00,1.66*01
19:24:27  $GPGSV,3,1,12,04,47,205,47,07,28,301,26,08,43,184,34,09,51,268,35*72
19:24:27  $GPGSV,3,2,12,16,60,053,32,18,12,051,21,20,00,325,,21,04,326,*76
19:24:27  $GPGSV,3,3,12,26,25,070,27,27,63,135,41,30,01,299,,31,16,116,24*7C
19:24:27  $GPGLL,4532.43088,N,07337.24747,W,192427.00,A,A*75
19:24:28  $GPRMC,192428.00,A,4532.43087,N,07337.24750,W,0.027,,271125,,,A*6D
19:24:28  $GPVTG,,T,,M,0.027,N,0.050,K,A*23
19:24:28  $GPGGA,192428.00,4532.43087,N,07337.24750,W,1,09,1.00,96.5,M,-32.7,M,,*5F
19:24:28  $GPGSA,A,3,16,27,09,04,08,26,07,31,18,,,,1.94,1.00,1.66*01
19:24:28  $GPGSV,3,1,12,04,47,205,47,07,28,301,27,08,43,184,34,09,51,267,35*7C
19:24:28  $GPGSV,3,2,12,16,60,053,31,18,12,051,20,20,00,325,,21,04,326,*74
19:24:28  $GPGSV,3,3,12,26,25,070,26,27,63,135,41,30,01,299,,31,16,116,26*7F
19:24:28  $GPGLL,4532.43087,N,07337.24750,W,192428.00,A,A*73
19:24:29  $GPRMC,192429.00,A,4532.43089,N,07337.24750,W,0.048,,271125,,,A*6B
19:24:29  $GPVTG,,T,,M,0.048,N,0.089,K,A*2E
19:24:29  $GPGGA,192429.00,4532.43089,N,07337.24750,W,1,09,1.00,96.1,M,-32.7,M,,*54
19:24:29  $GPGSA,A,3,16,27,09,04,08,26,07,31,18,,,,1.94,1.00,1.66*01
19:24:29  $GPGSV,3,1,12,04,47,205,47,07,28,301,29,08,43,184,34,09,51,267,34*73
19:24:29  $GPGSV,3,2,12,16,60,053,30,18,12,051,20,20,00,325,,21,04,326,*75
19:24:29  $GPGSV,3,3,12,26,25,070,26,27,63,135,41,30,01,299,,31,16,116,28*71
19:24:29  $GPGLL,4532.43089,N,07337.24750,W,192429.00,A,A*7C
19:24:30  $GPRMC,192430.00,A,4532.43088,N,07337.24748,W,0.056,,271125,,,A*64
19:24:30  $GPVTG,,T,,M,0.056,N,0.103,K,A*22
19:24:30  $GPGGA,192430.00,4532.43088,N,07337.24748,W,1,09,1.00,95.8,M,-32.7,M,,*5E
19:24:30  $GPGSA,A,3,16,27,09,04,08,26,07,31,18,,,,1.94,1.00,1.66*01
19:24:30  $GPGSV,3,1,12,04,47,205,47,07,28,301,17,08,43,184,34,09,51,267,34*7E
19:24:30  $GPGSV,3,2,12,16,60,053,31,18,12,051,19,20,00,325,,21,04,326,*7E
19:24:30  $GPGSV,3,3,12,26,25,070,25,27,63,135,40,30,01,299,,31,16,116,27*7C
19:24:30  $GPGLL,4532.43088,N,07337.24748,W,192430.00,A,A*7C
19:24:31  $GPRMC,192431.00,A,4532.43089,N,07337.24748,W,0.066,,271125,,,A*67
19:24:31  $GPVTG,,T,,M,0.066,N,0.122,K,A*22
19:24:31  $GPGGA,192431.00,4532.43089,N,07337.24748,W,1,09,1.00,95.5,M,-32.7,M,,*53
19:24:31  $GPGSA,A,3,16,27,09,04,08,26,07,31,18,,,,1.94,1.00,1.66*01
19:24:31  $GPGSV,3,1,12,04,47,205,47,07,28,301,29,08,43,184,34,09,51,267,34*73
19:24:31  $GPGSV,3,2,12,16,60,053,30,18,12,051,17,20,00,325,,21,04,326,*71
19:24:31  $GPGSV,3,3,12,26,25,070,25,27,63,135,41,30,01,299,,31,16,116,28*72
19:24:31  $GPGLL,4532.43089,N,07337.24748,W,192431.00,A,A*7C
19:24:32  $GPRMC,192432.00,A,4532.43087,N,07337.24752,W,0.040,,271125,,,A*65
19:24:32  $GPVTG,,T,,M,0.040,N,0.074,K,A*24
19:24:32  $GPGGA,192432.00,4532.43087,N,07337.24752,W,1,09,1.00,95.5,M,-32.7,M,,*55
19:24:32  $GPGSA,A,3,16,27,09,04,08,26,07,31,18,,,,1.94,1.00,1.66*01
19:24:32  $GPGSV,3,1,12,04,47,205,47,07,28,301,21,08,43,184,35,09,51,267,34*7A
19:24:32  $GPGSV,3,2,12,16,60,053,30,18,12,051,15,20,00,325,,21,04,326,*73
19:24:32  $GPGSV,3,3,12,26,25,070,25,27,63,135,41,30,01,299,,31,16,116,28*72
19:24:32  $GPGLL,4532.43087,N,07337.24752,W,192432.00,A,A*7A
19:24:33  $GPRMC,192433.00,A,4532.43084,N,07337.24754,W,0.024,,271125,,,A*63
19:24:33  $GPVTG,,T,,M,0.024,N,0.045,K,A*24
19:24:33  $GPGGA,192433.00,4532.43084,N,07337.24754,W,1,09,1.00,95.4,M,-32.7,M,,*50
19:24:33  $GPGSA,A,3,16,27,09,04,08,26,07,31,18,,,,1.94,1.00,1.66*01
19:24:33  $GPGSV,3,1,12,04,47,205,47,07,28,301,25,08,43,184,35,09,51,267,34*7E
19:24:33  $GPGSV,3,2,12,16,60,053,30,18,12,051,14,20,00,325,,21,04,326,*72
19:24:33  $GPGSV,3,3,12,26,25,070,27,27,63,135,40,30,01,299,,31,16,116,28*71
19:24:33  $GPGLL,4532.43084,N,07337.24754,W,192433.00,A,A*7E
19:24:34  $GPRMC,192434.00,A,4532.43083,N,07337.24757,W,0.076,,271125,,,A*67
19:24:34  $GPVTG,,T,,M,0.076,N,0.141,K,A*26
19:24:34  $GPGGA,192434.00,4532.43083,N,07337.24757,W,1,09,1.00,95.3,M,-32.7,M,,*54
19:24:34  $GPGSA,A,3,16,27,09,04,08,26,07,31,18,,,,1.94,1.00,1.66*01
19:24:34  $GPGSV,3,1,12,04,47,205,47,07,28,301,25,08,43,184,35,09,51,267,34*7E
19:24:34  $GPGSV,3,2,12,16,60,053,30,18,12,051,17,20,00,325,,21,04,326,*71
19:24:34  $GPGSV,3,3,12,26,25,070,27,27,63,135,41,30,01,299,,31,16,116,27*7F
19:24:34  $GPGLL,4532.43083,N,07337.24757,W,192434.00,A,A*7D
19:24:35  $GPRMC,192435.00,A,4532.43083,N,07337.24761,W,0.053,,271125,,,A*64
19:24:35  $GPVTG,,T,,M,0.053,N,0.098,K,A*24
19:24:35  $GPGGA,192435.00,4532.43083,N,07337.24761,W,1,09,1.00,95.2,M,-32.7,M,,*51
19:24:35  $GPGSA,A,3,16,27,09,04,08,26,07,31,18,,,,1.94,1.00,1.66*01
19:24:35  $GPGSV,3,1,12,04,47,205,47,07,28,301,26,08,43,184,35,09,51,267,34*7D
19:24:35  $GPGSV,3,2,12,16,60,054,30,18,12,051,18,20,00,325,,21,04,326,*79
19:24:35  $GPGSV,3,3,12,26,25,070,29,27,63,135,41,30,01,299,,31,16,116,27*71
19:24:35  $GPGLL,4532.43083,N,07337.24761,W,192435.00,A,A*79
19:24:36  $GPRMC,192436.00,A,4532.43083,N,07337.24766,W,0.058,,271125,,,A*6B
19:24:36  $GPVTG,,T,,M,0.058,N,0.108,K,A*27
19:24:36  $GPGGA,192436.00,4532.43083,N,07337.24766,W,1,09,1.00,95.2,M,-32.7,M,,*55
19:24:36  $GPGSA,A,3,16,27,09,04,08,26,07,31,18,,,,1.94,1.00,1.66*01
19:24:36  $GPGSV,3,1,12,04,47,205,47,07,28,301,27,08,43,184,35,09,51,267,34*7C
19:24:36  $GPGSV,3,2,12,16,60,054,30,18,12,051,20,20,00,325,,21,04,326,*72
19:24:36  $GPGSV,3,3,12,26,25,070,29,27,63,135,41,30,01,299,,31,16,116,28*7E
19:24:36  $GPGLL,4532.43083,N,07337.24766,W,192436.00,A,A*7D
19:24:37  $GPRMC,192437.00,A,4532.43086,N,07337.24769,W,0.120,,271125,,,A*6E
19:24:37  $GPVTG,,T,,M,0.120,N,0.222,K,A*22
19:24:37  $GPGGA,192437.00,4532.43086,N,07337.24769,W,1,09,1.00,95.1,M,-32.7,M,,*5D
19:24:37  $GPGSA,A,3,16,27,09,04,08,26,07,31,18,,,,1.94,1.00,1.66*01
19:24:37  $GPGSV,3,1,12,04,47,205,47,07,28,301,28,08,43,184,35,09,51,267,34*73
19:24:37  $GPGSV,3,2,12,16,60,054,30,18,13,051,21,20,00,325,,21,04,326,*72
19:24:37  $GPGSV,3,3,12,26,25,070,29,27,63,135,41,30,01,299,,31,16,116,28*7E
19:24:37  $GPGLL,4532.43086,N,07337.24769,W,192437.00,A,A*76
19:24:38  $GPRMC,192438.00,A,4532.43087,N,07337.24772,W,0.022,,271125,,,A*69
19:24:38  $GPVTG,,T,,M,0.022,N,0.040,K,A*27
19:24:38  $GPGGA,192438.00,4532.43087,N,07337.24772,W,1,09,1.00,95.0,M,-32.7,M,,*58
19:24:38  $GPGSA,A,3,16,27,09,04,08,26,07,31,18,,,,1.94,1.00,1.66*01
19:24:38  $GPGSV,3,1,12,04,47,205,47,07,28,301,28,08,43,184,34,09,51,267,33*75
19:24:38  $GPGSV,3,2,12,16,60,054,30,18,13,051,19,20,00,325,,21,04,326,*79
19:24:38  $GPGSV,3,3,12,26,25,070,27,27,63,135,41,30,01,299,,31,16,116,27*7F
19:24:38  $GPGLL,4532.43087,N,07337.24772,W,192438.00,A,A*72
19:24:39  $GPRMC,192439.00,A,4532.43089,N,07337.24780,W,0.033,,271125,,,A*6B
19:24:39  $GPVTG,,T,,M,0.033,N,0.062,K,A*27
19:24:39  $GPGGA,192439.00,4532.43089,N,07337.24780,W,1,09,1.00,94.9,M,-32.7,M,,*52
19:24:39  $GPGSA,A,3,16,27,09,04,08,26,07,31,18,,,,1.94,1.00,1.66*01
19:24:39  $GPGSV,3,1,12,04,47,205,47,07,28,301,29,08,43,184,34,09,51,267,34*73
19:24:39  $GPGSV,3,2,12,16,60,054,30,18,13,051,18,20,00,325,,21,04,326,*78
19:24:39  $GPGSV,3,3,12,26,25,070,27,27,63,135,41,30,01,299,,31,16,116,28*70
19:24:39  $GPGLL,4532.43089,N,07337.24780,W,192439.00,A,A*70
19:24:40  $GPRMC,192440.00,A,4532.43088,N,07337.24787,W,0.011,,271125,,,A*63
19:24:40  $GPVTG,,T,,M,0.011,N,0.021,K,A*20
19:24:40  $GPGGA,192440.00,4532.43088,N,07337.24787,W,1,09,1.00,94.9,M,-32.7,M,,*5A
19:24:40  $GPGSA,A,3,16,27,09,04,08,26,07,31,18,,,,1.94,1.00,1.66*01
19:24:40  $GPGSV,3,1,12,04,47,205,47,07,28,301,30,08,43,184,34,09,51,267,33*7C
19:24:40  $GPGSV,3,2,12,16,60,054,30,18,13,051,20,20,00,325,,21,04,326,*73
19:24:40  $GPGSV,3,3,12,26,25,070,27,27,63,135,40,30,01,299,,31,16,116,28*71
19:24:40  $GPGLL,4532.43088,N,07337.24787,W,192440.00,A,A*78
19:24:41  $GPRMC,192441.00,A,4532.43084,N,07337.24793,W,0.072,,271125,,,A*6E
19:24:41  $GPVTG,,T,,M,0.072,N,0.134,K,A*20
19:24:41  $GPGGA,192441.00,4532.43084,N,07337.24793,W,1,09,1.00,95.0,M,-32.7,M,,*5A
19:24:41  $GPGSA,A,3,16,27,09,04,08,26,07,31,18,,,,1.94,1.00,1.66*01
19:24:41  $GPGSV,3,1,12,04,47,205,47,07,28,301,29,08,43,184,35,09,51,267,33*75
19:24:41  $GPGSV,3,2,12,16,60,054,30,18,13,051,21,20,00,325,,21,04,326,*72
19:24:41  $GPGSV,3,3,12,26,25,070,28,27,63,135,40,30,01,299,,31,16,116,29*7F
19:24:41  $GPGLL,4532.43084,N,07337.24793,W,192441.00,A,A*70
19:24:42  $GPRMC,192442.00,A,4532.43079,N,07337.24798,W,0.142,,271125,,,A*66
19:24:42  $GPVTG,,T,,M,0.142,N,0.264,K,A*24
19:24:42  $GPGGA,192442.00,4532.43079,N,07337.24798,W,1,09,1.00,95.2,M,-32.7,M,,*52
19:24:42  $GPGSA,A,3,16,27,09,04,08,26,07,31,18,,,,1.94,1.00,1.66*01
19:24:42  $GPGSV,3,1,12,04,47,205,47,07,28,301,27,08,43,184,35,09,51,267,33*7B
19:24:42  $GPGSV,3,2,12,16,60,054,30,18,13,051,21,20,00,325,,21,04,326,*72
19:24:42  $GPGSV,3,3,12,26,25,070,27,27,63,135,40,30,01,299,,31,16,116,29*70
19:24:42  $GPGLL,4532.43079,N,07337.24798,W,192442.00,A,A*7A
19:24:43  $GPRMC,192443.00,A,4532.43076,N,07337.24805,W,0.068,,271125,,,A*6A
19:24:43  $GPVTG,,T,,M,0.068,N,0.126,K,A*28
19:24:43  $GPGGA,192443.00,4532.43076,N,07337.24805,W,1,09,1.00,95.5,M,-32.7,M,,*50
19:24:43  $GPGSA,A,3,16,27,09,04,08,26,07,31,18,,,,1.94,1.00,1.66*01
19:24:43  $GPGSV,3,1,12,04,47,205,47,07,28,301,28,08,43,184,35,09,51,267,33*74
19:24:43  $GPGSV,3,2,12,16,60,054,29,18,13,051,24,20,00,325,,21,04,326,*7F
19:24:43  $GPGSV,3,3,12,26,25,070,27,27,63,135,40,30,01,299,,31,16,116,28*71
19:24:43  $GPGLL,4532.43076,N,07337.24805,W,192443.00,A,A*7F
19:24:44  $GPRMC,192444.00,A,4532.43077,N,07337.24811,W,0.007,,271125,,,A*60
19:24:44  $GPVTG,,T,,M,0.007,N,0.012,K,A*27
19:24:44  $GPGGA,192444.00,4532.43077,N,07337.24811,W,1,09,1.00,95.5,M,-32.7,M,,*53
19:24:44  $GPGSA,A,3,16,27,09,04,08,26,07,31,18,,,,1.94,1.00,1.66*01
19:24:44  $GPGSV,3,1,12,04,47,205,46,07,28,301,30,08,43,184,36,09,51,267,34*78
19:24:44  $GPGSV,3,2,12,16,60,054,28,18,13,051,25,20,00,325,,21,04,326,*7F
19:24:44  $GPGSV,3,3,12,26,25,070,28,27,63,135,40,30,01,299,,31,16,116,27*71
19:24:44  $GPGLL,4532.43077,N,07337.24811,W,192444.00,A,A*7C
19:24:45  $GPRMC,192445.00,A,4532.43079,N,07337.24818,W,0.042,,271125,,,A*67
19:24:45  $GPVTG,,T,,M,0.042,N,0.078,K,A*2A
19:24:45  $GPGGA,192445.00,4532.43079,N,07337.24818,W,1,09,1.00,95.4,M,-32.7,M,,*54
19:24:45  $GPGSA,A,3,16,27,09,04,08,26,07,31,18,,,,1.94,1.00,1.66*01
19:24:45  $GPGSV,3,1,12,04,47,205,46,07,28,301,29,08,43,184,35,09,51,267,33*74
19:24:45  $GPGSV,3,2,12,16,60,054,28,18,13,051,26,20,00,325,,21,04,326,*7C
19:24:45  $GPGSV,3,3,12,26,25,070,28,27,63,135,40,30,01,299,,31,16,116,27*71
19:24:45  $GPGLL,4532.43079,N,07337.24818,W,192445.00,A,A*7A
19:24:46  $GPRMC,192446.00,A,4532.43079,N,07337.24826,W,0.035,,271125,,,A*69
19:24:46  $GPVTG,,T,,M,0.035,N,0.064,K,A*27
19:24:46  $GPGGA,192446.00,4532.43079,N,07337.24826,W,1,09,1.00,95.4,M,-32.7,M,,*5A
19:24:46  $GPGSA,A,3,16,27,09,04,08,26,07,31,18,,,,1.94,1.00,1.66*01
19:24:46  $GPGSV,3,1,12,04,47,205,46,07,28,301,28,08,43,184,35,09,51,267,33*75
19:24:46  $GPGSV,3,2,12,16,60,054,29,18,13,051,26,20,00,325,,21,04,326,23*7C
19:24:46  $GPGSV,3,3,12,26,25,070,27,27,63,134,40,30,01,299,,31,16,116,27*7F
19:24:46  $GPGLL,4532.43079,N,07337.24826,W,192446.00,A,A*74
19:24:47  $GPRMC,192447.00,A,4532.43077,N,07337.24831,W,0.042,,271125,,,A*60
19:24:47  $GPVTG,,T,,M,0.042,N,0.078,K,A*2A
19:24:47  $GPGGA,192447.00,4532.43077,N,07337.24831,W,1,09,1.00,95.4,M,-32.7,M,,*53
19:24:47  $GPGSA,A,3,16,27,09,04,08,26,07,31,18,,,,1.94,1.00,1.66*01
19:24:47  $GPGSV,3,1,12,04,47,205,46,07,28,301,28,08,43,184,35,09,51,267,33*75
19:24:47  $GPGSV,3,2,12,16,60,054,29,18,13,051,27,20,00,325,,21,04,326,21*7F
19:24:47  $GPGSV,3,3,12,26,25,070,27,27,63,134,40,30,01,299,,31,16,116,27*7F
19:24:47  $GPGLL,4532.43077,N,07337.24831,W,192447.00,A,A*7D
19:24:48  $GPRMC,192448.00,A,4532.43078,N,07337.24836,W,0.140,,271125,,,A*64
19:24:48  $GPVTG,,T,,M,0.140,N,0.259,K,A*28
19:24:48  $GPGGA,192448.00,4532.43078,N,07337.24836,W,1,09,1.00,95.4,M,-32.7,M,,*54
19:24:48  $GPGSA,A,3,16,27,09,04,08,26,07,31,18,,,,1.94,1.00,1.66*01
19:24:48  $GPGSV,3,1,12,04,47,205,46,07,28,301,28,08,43,184,34,09,51,267,33*74
19:24:48  $GPGSV,3,2,12,16,60,054,30,18,13,051,26,20,00,325,,21,04,326,19*7D
19:24:48  $GPGSV,3,3,12,26,25,070,26,27,63,134,40,30,01,299,,31,16,116,26*7F
19:24:48  $GPGLL,4532.43078,N,07337.24836,W,192448.00,A,A*7A
19:24:49  $GPRMC,192449.00,A,4532.43076,N,07337.24844,W,0.038,,271125,,,A*60
19:24:49  $GPVTG,,T,,M,0.038,N,0.070,K,A*2F
19:24:49  $GPGGA,192449.00,4532.43076,N,07337.24844,W,1,09,1.00,95.5,M,-32.7,M,,*5F
19:24:49  $GPGSA,A,3,16,27,09,04,08,26,07,31,18,,,,1.94,1.00,1.66*01
19:24:49  $GPGSV,3,1,12,04,47,205,46,07,28,301,31,08,43,184,35,09,51,267,33*7D
19:24:49  $GPGSV,3,2,12,16,60,054,31,18,13,051,26,20,00,325,,21,04,326,18*7D
19:24:49  $GPGSV,3,3,12,26,25,070,28,27,63,134,39,30,01,299,,31,16,116,27*7E
19:24:49  $GPGLL,4532.43076,N,07337.24844,W,192449.00,A,A*70
19:24:50  $GPRMC,192450.00,A,4532.43073,N,07337.24848,W,0.043,,271125,,,A*6D
19:24:50  $GPVTG,,T,,M,0.043,N,0.079,K,A*2A
19:24:50  $GPGGA,192450.00,4532.43073,N,07337.24848,W,1,09,1.00,95.5,M,-32.7,M,,*5E
19:24:50  $GPGSA,A,3,16,27,09,04,08,26,07,31,18,,,,1.94,1.00,1.66*01
19:24:50  $GPGSV,3,1,12,04,47,205,46,07,28,301,30,08,43,184,35,09,51,267,32*7D
19:24:50  $GPGSV,3,2,12,16,60,054,31,18,13,051,26,20,00,325,,21,04,326,18*7D
19:24:50  $GPGSV,3,3,12,26,25,070,28,27,63,134,39,30,01,299,,31,16,116,26*7F
19:24:50  $GPGLL,4532.43073,N,07337.24848,W,192450.00,A,A*71
19:24:51  $GPRMC,192451.00,A,4532.43069,N,07337.24856,W,0.053,,271125,,,A*69
19:24:51  $GPVTG,,T,,M,0.053,N,0.098,K,A*24
19:24:51  $GPGGA,192451.00,4532.43069,N,07337.24856,W,1,09,1.00,95.8,M,-32.7,M,,*56
19:24:51  $GPGSA,A,3,16,27,09,04,08,26,07,31,18,,,,1.94,1.00,1.66*01
19:24:51  $GPGSV,3,1,12,04,47,205,46,07,28,301,31,08,43,184,35,09,51,267,33*7D
19:24:51  $GPGSV,3,2,12,16,60,054,31,18,13,051,27,20,00,325,,21,04,326,19*7D
19:24:51  $GPGSV,3,3,12,26,25,070,29,27,63,134,39,30,01,299,,31,16,116,27*7F
19:24:51  $GPGLL,4532.43069,N,07337.24856,W,192451.00,A,A*74
19:24:52  $GPRMC,192452.00,A,4532.43062,N,07337.24862,W,0.010,,271125,,,A*61
19:24:52  $GPVTG,,T,,M,0.010,N,0.018,K,A*2B
19:24:52  $GPGGA,192452.00,4532.43062,N,07337.24862,W,1,09,1.00,95.9,M,-32.7,M,,*58
19:24:52  $GPGSA,A,3,16,27,09,04,08,26,07,31,18,,,,1.94,1.00,1.66*01
19:24:52  $GPGSV,3,1,12,04,47,205,46,07,28,301,29,08,43,184,35,09,51,267,34*73
19:24:52  $GPGSV,3,2,12,16,60,054,32,18,13,051,27,20,00,325,,21,04,326,20*74
19:24:52  $GPGSV,3,3,12,26,25,070,27,27,63,134,39,30,01,299,,31,16,116,27*71
19:24:52  $GPGLL,4532.43062,N,07337.24862,W,192452.00,A,A*7B
19:24:53  $GPRMC,192453.00,A,4532.43059,N,07337.24870,W,0.079,,271125,,,A*64
19:24:53  $GPVTG,,T,,M,0.079,N,0.146,K,A*2E
19:24:53  $GPGGA,192453.00,4532.43059,N,07337.24870,W,1,09,1.00,96.0,M,-32.7,M,,*58
19:24:53  $GPGSA,A,3,16,27,09,04,08,26,07,31,18,,,,1.94,1.00,1.66*01
19:24:53  $GPGSV,3,1,12,04,47,205,46,07,28,301,29,08,43,184,35,09,51,267,33*74
19:24:53  $GPGSV,3,2,12,16,60,054,30,18,13,051,28,20,00,325,,21,04,326,20*79
19:24:53  $GPGSV,3,3,12,26,25,070,28,27,63,134,38,30,01,299,,31,16,116,28*70
19:24:53  $GPGLL,4532.43059,N,07337.24870,W,192453.00,A,A*71
19:24:54  $GPRMC,192454.00,A,4532.43055,N,07337.24869,W,0.016,,271125,,,A*6E
19:24:54  $GPVTG,,T,,M,0.016,N,0.030,K,A*27
19:24:54  $GPGGA,192454.00,4532.43055,N,07337.24869,W,1,09,1.17,95.8,M,-32.7,M,,*56
19:24:54  $GPGSA,A,3,16,27,09,04,08,26,07,31,18,,,,2.34,1.17,2.03*0E
19:24:54  $GPGSV,3,1,12,04,47,205,46,07,28,301,29,08,43,184,36,09,51,267,33*77
19:24:54  $GPGSV,3,2,12,16,60,054,31,18,13,051,30,20,00,325,,21,04,326,18*7A
19:24:54  $GPGSV,3,3,12,26,25,070,28,27,63,134,38,30,01,299,,31,16,116,29*71
19:24:54  $GPGLL,4532.43055,N,07337.24869,W,192454.00,A,A*72
19:24:55  $GPRMC,192455.00,A,4532.43050,N,07337.24868,W,0.026,,271125,,,A*68
19:24:55  $GPVTG,,T,,M,0.026,N,0.048,K,A*2B
19:24:55  $GPGGA,192455.00,4532.43050,N,07337.24868,W,1,09,1.00,95.8,M,-32.7,M,,*55
19:24:55  $GPGSA,A,3,16,27,09,04,08,26,07,31,18,,,,1.94,1.00,1.66*01
19:24:55  $GPGSV,3,1,12,04,47,205,46,07,28,301,28,08,43,184,36,09,51,267,33*76
19:24:55  $GPGSV,3,2,12,16,60,054,29,18,13,051,30,20,00,325,,21,04,326,*7A
19:24:55  $GPGSV,3,3,12,26,25,070,28,27,63,134,39,30,01,299,,31,16,116,28*71
19:24:55  $GPGLL,4532.43050,N,07337.24868,W,192455.00,A,A*77
19:24:56  $GPRMC,192456.00,A,4532.43043,N,07337.24871,W,0.073,,271125,,,A*61
19:24:56  $GPVTG,,T,,M,0.073,N,0.135,K,A*20
19:24:56  $GPGGA,192456.00,4532.43043,N,07337.24871,W,1,09,1.00,96.1,M,-32.7,M,,*56
19:24:56  $GPGSA,A,3,16,27,09,04,08,26,07,31,18,,,,1.94,1.00,1.66*01
19:24:56  $GPGSV,3,1,12,04,47,205,46,07,28,301,26,08,43,184,36,09,51,267,33*78
19:24:56  $GPGSV,3,2,12,16,60,054,31,18,13,051,28,20,00,325,,21,04,326,*7A
19:24:56  $GPGSV,3,3,12,26,25,070,28,27,63,134,38,30,01,299,,31,16,116,28*70
19:24:56  $GPGLL,4532.43043,N,07337.24871,W,192456.00,A,A*7E
19:24:57  $GPRMC,192457.00,A,4532.43037,N,07337.24874,W,0.047,,271125,,,A*61
19:24:57  $GPVTG,,T,,M,0.047,N,0.087,K,A*2F
19:24:57  $GPGGA,192457.00,4532.43037,N,07337.24874,W,1,09,1.00,96.3,M,-32.7,M,,*53
19:24:57  $GPGSA,A,3,16,27,09,04,08,26,07,31,18,,,,1.94,1.00,1.66*01
19:24:57  $GPGSV,3,1,12,04,47,205,46,07,28,301,26,08,43,184,36,09,51,267,32*79
19:24:57  $GPGSV,3,2,12,16,60,054,30,18,13,051,30,20,00,325,,21,04,326,*72
19:24:57  $GPGSV,3,3,12,26,25,070,28,27,63,134,38,30,01,299,,31,16,116,27*7F
19:24:57  $GPGLL,4532.43037,N,07337.24874,W,192457.00,A,A*79
19:24:58  $GPRMC,192458.00,A,4532.43030,N,07337.24874,W,0.042,,271125,,,A*6C
19:24:58  $GPVTG,,T,,M,0.042,N,0.078,K,A*2A
19:24:58  $GPGGA,192458.00,4532.43030,N,07337.24874,W,1,09,1.00,96.6,M,-32.7,M,,*5E
19:24:58  $GPGSA,A,3,16,27,09,04,08,26,07,31,18,,,,1.94,1.00,1.66*01
19:24:58  $GPGSV,4,1,13,04,47,205,46,07,28,301,24,08,43,184,37,09,51,267,33*7D
19:24:58  $GPGSV,4,2,13,16,60,054,32,18,13,051,30,20,00,325,,21,04,326,18*7F
19:24:58  $GPGSV,4,3,13,26,25,070,28,27,63,134,38,30,01,299,,31,16,116,27*79
19:24:58  $GPGSV,4,4,13,46,32,212,32*48
19:24:58  $GPGLL,4532.43030,N,07337.24874,W,192458.00,A,A*71
19:24:59  $GPRMC,192459.00,A,4532.43023,N,07337.24871,W,0.043,,271125,,,A*6B
19:24:59  $GPVTG,,T,,M,0.043,N,0.079,K,A*2A
19:24:59  $GPGGA,192459.00,4532.43023,N,07337.24871,W,1,09,1.00,96.7,M,-32.7,M,,*59
19:24:59  $GPGSA,A,3,16,27,09,04,08,26,07,31,18,,,,1.94,1.00,1.66*01
19:24:59  $GPGSV,4,1,13,04,47,205,46,07,28,301,23,08,43,184,38,09,51,267,32*74
19:24:59  $GPGSV,4,2,13,16,60,054,32,18,13,051,30,20,00,325,,21,04,326,19*7E
19:24:59  $GPGSV,4,3,13,26,25,070,28,27,63,134,38,30,01,299,,31,16,116,26*78
19:24:59  $GPGSV,4,4,13,46,32,212,32*48
19:24:59  $GPGLL,4532.43023,N,07337.24871,W,192459.00,A,A*77
19:25:00  $GPRMC,192500.00,A,4532.43014,N,07337.24870,W,0.032,,271125,,,A*65
19:25:00  $GPVTG,,T,,M,0.032,N,0.060,K,A*24
19:25:00  $GPGGA,192500.00,4532.43014,N,07337.24870,W,1,09,1.00,96.9,M,-32.7,M,,*5F
19:25:00  $GPGSA,A,3,16,27,09,04,08,26,07,31,18,,,,1.94,1.00,1.66*01
19:25:00  $GPGSV,4,1,13,04,47,205,46,07,28,301,22,08,43,184,38,09,51,267,32*75
19:25:00  $GPGSV,4,2,13,16,60,054,33,18,13,051,30,20,00,325,,21,04,326,19*7F
19:25:00  $GPGSV,4,3,13,26,25,070,30,27,63,134,38,30,01,299,,31,16,116,25*72
19:25:00  $GPGSV,4,4,13,46,32,212,34*4E
19:25:00  $GPGLL,4532.43014,N,07337.24870,W,192500.00,A,A*7F
19:25:01  $GPRMC,192501.00,A,4532.43004,N,07337.24863,W,0.119,,271125,,,A*6F
19:25:01  $GPVTG,,T,,M,0.119,N,0.220,K,A*2A
19:25:01  $GPGGA,192501.00,4532.43004,N,07337.24863,W,1,09,1.00,96.9,M,-32.7,M,,*5D
19:25:01  $GPGSA,A,3,16,27,09,04,08,26,07,31,18,,,,1.94,1.00,1.66*01
19:25:01  $GPGSV,4,1,13,04,47,205,46,07,28,301,20,08,43,184,37,09,51,267,32*78
19:25:01  $GPGSV,4,2,13,16,60,054,33,18,13,051,32,20,00,325,,21,04,326,18*7C
19:25:01  $GPGSV,4,3,13,26,25,070,30,27,63,134,37,30,01,299,,31,16,116,23*7B
19:25:01  $GPGSV,4,4,13,46,32,212,33*49
19:25:01  $GPGLL,4532.43004,N,07337.24863,W,192501.00,A,A*7D
19:25:02  $GPRMC,192502.00,A,4532.42995,N,07337.24855,W,0.082,,271125,,,A*6A
19:25:02  $GPVTG,,T,,M,0.082,N,0.152,K,A*2F
19:25:02  $GPGGA,192502.00,4532.42995,N,07337.24855,W,1,09,1.00,97.0,M,-32.7,M,,*53
19:25:02  $GPGSA,A,3,16,27,09,04,08,26,07,31,18,,,,1.94,1.00,1.66*01
19:25:02  $GPGSV,4,1,13,04,47,205,46,07,28,301,16,08,43,184,38,09,51,267,32*72
19:25:02  $GPGSV,4,2,13,16,60,054,33,18,13,051,33,20,00,325,,21,04,326,*74
19:25:02  $GPGSV,4,3,13,26,25,070,30,27,63,134,39,30,01,299,,31,16,116,23*75
19:25:02  $GPGSV,4,4,13,46,32,212,32*48
19:25:02  $GPGLL,4532.42995,N,07337.24855,W,192502.00,A,A*7B
19:25:03  $GPRMC,192503.00,A,4532.42986,N,07337.24847,W,0.061,,271125,,,A*67
19:25:03  $GPVTG,,T,,M,0.061,N,0.113,K,A*27
19:25:03  $GPGGA,192503.00,4532.42986,N,07337.24847,W,1,09,1.00,96.8,M,-32.7,M,,*5A
19:25:03  $GPGSA,A,3,16,27,09,04,08,26,07,31,18,,,,1.94,1.00,1.66*01
19:25:03  $GPGSV,4,1,13,04,47,205,46,07,28,301,15,08,43,184,38,09,51,267,32*71
19:25:03  $GPGSV,4,2,13,16,60,054,33,18,13,051,34,20,00,325,,21,04,326,*73
19:25:03  $GPGSV,4,3,13,26,25,070,30,27,63,134,39,30,01,299,,31,16,116,21*77
19:25:03  $GPGSV,4,4,13,46,32,212,33*49
19:25:03  $GPGLL,4532.42986,N,07337.24847,W,192503.00,A,A*7B
19:25:04  $GPRMC,192504.00,A,4532.42982,N,07337.24847,W,0.119,,271125,,,A*6A
19:25:04  $GPVTG,,T,,M,0.119,N,0.220,K,A*2A
19:25:04  $GPGGA,192504.00,4532.42982,N,07337.24847,W,1,09,1.00,96.7,M,-32.7,M,,*56
19:25:04  $GPGSA,A,3,16,27,09,04,08,26,07,31,18,,,,1.94,1.00,1.66*01
19:25:04  $GPGSV,4,1,13,04,47,205,46,07,28,301,26,08,43,184,38,09,51,267,32*71
19:25:04  $GPGSV,4,2,13,16,60,054,32,18,13,051,35,20,00,325,,21,04,326,*73
19:25:04  $GPGSV,4,3,13,26,25,070,27,27,63,134,39,30,01,299,,31,16,116,21*71
19:25:04  $GPGSV,4,4,13,46,32,212,32*48
19:25:04  $GPGLL,4532.42982,N,07337.24847,W,192504.00,A,A*78
19:25:05  $GPRMC,192505.00,A,4532.42975,N,07337.24843,W,0.045,,271125,,,A*6F
19:25:05  $GPVTG,,T,,M,0.045,N,0.082,K,A*28
19:25:05  $GPGGA,192505.00,4532.42975,N,07337.24843,W,1,09,1.00,96.6,M,-32.7,M,,*5A
19:25:05  $GPGSA,A,3,16,27,09,04,08,26,07,31,18,,,,1.94,1.00,1.66*01
19:25:05  $GPGSV,4,1,13,04,47,205,45,07,28,301,26,08,43,184,38,09,51,267,33*73
19:25:05  $GPGSV,4,2,13,16,60,054,32,18,13,051,35,20,00,325,,21,04,326,21*70
19:25:05  $GPGSV,4,3,13,26,25,070,31,27,63,134,38,30,01,299,,31,16,116,23*75
19:25:05  $GPGSV,4,4,13,46,32,212,32*48
19:25:05  $GPGLL,4532.42975,N,07337.24843,W,192505.00,A,A*75
19:25:06  $GPRMC,192506.00,A,4532.42970,N,07337.24840,W,0.015,,271125,,,A*6F
19:25:06  $GPVTG,,T,,M,0.015,N,0.028,K,A*2D
19:25:06  $GPGGA,192506.00,4532.42970,N,07337.24840,W,1,09,1.00,96.3,M,-32.7,M,,*5A
19:25:06  $GPGSA,A,3,16,27,09,04,08,26,07,31,18,,,,1.94,1.00,1.66*01
19:25:06  $GPGSV,4,1,13,04,47,205,46,07,28,301,27,08,43,184,37,09,51,267,30*7D
19:25:06  $GPGSV,4,2,13,16,60,054,33,18,13,051,34,20,00,325,,21,04,326,18*7A
19:25:06  $GPGSV,4,3,13,26,25,070,31,27,63,134,37,30,01,299,,31,16,116,22*7B
19:25:06  $GPGSV,4,4,13,46,32,212,28*43
19:25:06  $GPGLL,4532.42970,N,07337.24840,W,192506.00,A,A*70
19:25:07  $GPRMC,192507.00,A,4532.42966,N,07337.24839,W,0.110,,271125,,,A*63
19:25:07  $GPVTG,,T,,M,0.110,N,0.204,K,A*25
19:25:07  $GPGGA,192507.00,4532.42966,N,07337.24839,W,1,09,1.00,96.1,M,-32.7,M,,*50
19:25:07  $GPGSA,A,3,16,27,09,04,08,26,07,31,18,,,,1.94,1.00,1.66*01
19:25:07  $GPGSV,4,1,13,04,47,205,45,07,28,301,28,08,43,184,37,09,51,267,32*73
19:25:07  $GPGSV,4,2,13,16,60,054,32,18,13,051,35,20,00,325,,21,04,326,16*74
19:25:07  $GPGSV,4,3,13,26,25,070,22,27,63,134,36,30,01,299,,31,16,116,22*78
19:25:07  $GPGSV,4,4,13,46,32,212,30*4A
19:25:07  $GPGLL,4532.42966,N,07337.24839,W,192507.00,A,A*78
19:25:08  $GPRMC,192508.00,A,4532.42964,N,07337.24841,W,0.097,,271125,,,A*6F
19:25:08  $GPVTG,,T,,M,0.097,N,0.180,K,A*24
19:25:08  $GPGGA,192508.00,4532.42964,N,07337.24841,W,1,09,1.00,96.0,M,-32.7,M,,*53
19:25:08  $GPGSA,A,3,16,27,09,04,08,26,07,31,18,,,,1.94,1.00,1.66*01
19:25:08  $GPGSV,4,1,13,04,47,205,45,07,28,301,28,08,43,184,39,09,51,267,31*7E
19:25:08  $GPGSV,4,2,13,16,60,054,28,18,13,051,34,20,00,325,,21,04,326,16*7E
19:25:08  $GPGSV,4,3,13,26,25,070,20,27,63,134,33,30,01,299,,31,16,116,20*7D
19:25:08  $GPGSV,4,4,13,46,32,212,29*42
19:25:08  $GPGLL,4532.42964,N,07337.24841,W,192508.00,A,A*7A
19:25:09  $GPRMC,192509.00,A,4532.42965,N,07337.24844,W,0.050,,271125,,,A*61
19:25:09  $GPVTG,,T,,M,0.050,N,0.093,K,A*2C
19:25:09  $GPGGA,192509.00,4532.42965,N,07337.24844,W,1,09,1.00,95.9,M,-32.7,M,,*5C
19:25:09  $GPGSA,A,3,16,27,09,04,08,26,07,31,18,,,,1.94,1.00,1.66*01
19:25:09  $GPGSV,4,1,13,04,47,205,45,07,28,301,29,08,43,184,36,09,51,267,25*75
19:25:09  $GPGSV,4,2,13,16,60,054,31,18,13,051,34,20,00,325,,21,04,326,14*74
19:25:09  $GPGSV,4,3,13,26,25,070,20,27,63,134,36,30,01,299,,31,16,116,20*78
19:25:09  $GPGSV,4,4,13,46,32,212,28*43
19:25:09  $GPGLL,4532.42965,N,07337.24844,W,192509.00,A,A*7F
19:25:10  $GPRMC,192510.00,A,4532.42959,N,07337.24837,W,0.183,,271125,,,A*6D
19:25:10  $GPVTG,,T,,M,0.183,N,0.340,K,A*2E
19:25:10  $GPGGA,192510.00,4532.42959,N,07337.24837,W,1,09,1.00,95.9,M,-32.7,M,,*5F
19:25:10  $GPGSA,A,3,16,27,09,04,08,26,07,31,18,,,,1.94,1.00,1.66*01
19:25:10  $GPGSV,4,1,13,04,47,205,45,07,28,301,19,08,43,184,37,09,51,267,27*75
19:25:10  $GPGSV,4,2,13,16,60,054,31,18,13,051,33,20,00,325,,21,04,326,15*72
19:25:10  $GPGSV,4,3,13,26,25,070,27,27,63,134,37,30,01,299,,31,16,116,21*7F
19:25:10  $GPGSV,4,4,13,46,32,212,30*4A
19:25:10  $GPGLL,4532.42959,N,07337.24837,W,192510.00,A,A*7C
19:25:11  $GPRMC,192511.00,A,4532.42956,N,07337.24834,W,0.040,,271125,,,A*6E
19:25:11  $GPVTG,,T,,M,0.040,N,0.075,K,A*25
19:25:11  $GPGGA,192511.00,4532.42956,N,07337.24834,W,1,09,1.00,95.9,M,-32.7,M,,*52
19:25:11  $GPGSA,A,3,16,27,09,04,08,26,07,31,18,,,,1.94,1.00,1.66*01
19:25:11  $GPGSV,4,1,13,04,47,205,45,07,28,301,28,08,43,184,37,09,51,267,27*77
19:25:11  $GPGSV,4,2,13,16,60,054,31,18,13,051,33,20,00,325,,21,04,326,14*73
19:25:11  $GPGSV,4,3,13,26,25,070,27,27,63,134,36,30,01,299,,31,16,116,20*7F
19:25:11  $GPGSV,4,4,13,46,32,212,30*4A
19:25:11  $GPGLL,4532.42956,N,07337.24834,W,192511.00,A,A*71
19:25:12  $GPRMC,192512.00,A,4532.42946,N,07337.24825,W,0.207,,271125,,,A*6D
19:25:12  $GPVTG,,T,,M,0.207,N,0.383,K,A*2E
19:25:12  $GPGGA,192512.00,4532.42946,N,07337.24825,W,1,09,1.00,95.7,M,-32.7,M,,*5E
19:25:12  $GPGSA,A,3,16,27,09,04,08,26,07,31,18,,,,1.94,1.00,1.66*01
19:25:12  $GPGSV,4,1,13,04,47,205,45,07,28,301,25,08,43,184,38,09,51,267,29*7B
19:25:12  $GPGSV,4,2,13,16,60,054,32,18,13,051,33,20,00,325,,21,04,326,15*71
19:25:12  $GPGSV,4,3,13,26,25,070,25,27,63,134,36,30,01,299,,31,16,116,21*7C
19:25:12  $GPGSV,4,4,13,46,32,212,29*42
19:25:12  $GPGLL,4532.42946,N,07337.24825,W,192512.00,A,A*73
19:25:13  $GPRMC,192513.00,A,4532.42940,N,07337.24822,W,0.054,,271125,,,A*69
19:25:13  $GPVTG,,T,,M,0.054,N,0.099,K,A*22
19:25:13  $GPGGA,192513.00,4532.42940,N,07337.24822,W,1,09,1.00,95.7,M,-32.7,M,,*5E
19:25:13  $GPGSA,A,3,16,27,09,04,08,26,07,31,18,,,,1.94,1.00,1.66*01
19:25:13  $GPGSV,4,1,13,04,47,205,45,07,28,301,25,08,43,184,38,09,51,267,29*7B
19:25:13  $GPGSV,4,2,13,16,60,054,31,18,13,051,31,20,00,325,,21,04,326,14*71
19:25:13  $GPGSV,4,3,13,26,25,070,27,27,63,134,36,30,01,299,,31,16,116,21*7E
19:25:13  $GPGSV,4,4,13,46,32,212,31*4B
19:25:13  $GPGLL,4532.42940,N,07337.24822,W,192513.00,A,A*73
19:25:14  $GPRMC,192514.00,A,4532.42934,N,07337.24817,W,0.182,,271125,,,A*61
19:25:14  $GPVTG,,T,,M,0.182,N,0.337,K,A*2F
19:25:14  $GPGGA,192514.00,4532.42934,N,07337.24817,W,1,09,1.00,95.5,M,-32.7,M,,*5E
19:25:14  $GPGSA,A,3,16,27,09,04,08,26,07,31,18,,,,1.94,1.00,1.66*01
19:25:14  $GPGSV,4,1,13,04,47,205,45,07,28,301,27,08,43,184,38,09,51,267,27*77
19:25:14  $GPGSV,4,2,13,16,60,054,32,18,13,051,29,20,00,325,,21,04,326,13*7C
19:25:14  $GPGSV,4,3,13,26,25,070,24,27,63,134,34,30,01,299,,31,16,116,21*7F
19:25:14  $GPGSV,4,4,13,46,32,212,30*4A
19:25:14  $GPGLL,4532.42934,N,07337.24817,W,192514.00,A,A*71
19:25:15  $GPRMC,192515.00,A,4532.42931,N,07337.24818,W,0.042,,271125,,,A*67
19:25:15  $GPVTG,,T,,M,0.042,N,0.077,K,A*25
19:25:15  $GPGGA,192515.00,4532.42931,N,07337.24818,W,1,09,1.00,95.4,M,-32.7,M,,*54
19:25:15  $GPGSA,A,3,16,27,09,04,08,26,07,31,18,,,,1.94,1.00,1.66*01
19:25:15  $GPGSV,4,1,13,04,47,205,45,07,28,301,28,08,43,184,39,09,51,267,27*79
19:25:15  $GPGSV,4,2,13,16,60,054,32,18,13,051,30,20,00,325,,21,04,326,13*74
19:25:15  $GPGSV,4,3,13,26,25,070,21,27,63,134,35,30,01,299,,31,16,116,18*71
19:25:15  $GPGSV,4,4,13,46,32,212,29*42
19:25:15  $GPGLL,4532.42931,N,07337.24818,W,192515.00,A,A*7A
19:25:16  $GPRMC,192516.00,A,4532.42928,N,07337.24822,W,0.159,,271125,,,A*6E
19:25:16  $GPVTG,,T,,M,0.159,N,0.294,K,A*21
19:25:16  $GPGGA,192516.00,4532.42928,N,07337.24822,W,1,09,1.00,95.3,M,-32.7,M,,*51
19:25:16  $GPGSA,A,3,16,27,09,04,08,26,07,31,18,,,,1.94,1.00,1.66*01
19:25:16  $GPGSV,4,1,13,04,47,205,45,07,28,301,26,08,43,184,39,09,51,267,28*78
19:25:16  $GPGSV,4,2,13,16,60,054,33,18,13,051,30,20,00,325,,21,04,326,*77
19:25:16  $GPGSV,4,3,13,26,25,070,14,27,63,134,37,30,01,299,,31,16,116,17*7A
19:25:16  $GPGSV,4,4,13,46,32,212,31*4B
19:25:16  $GPGLL,4532.42928,N,07337.24822,W,192516.00,A,A*78
19:25:17  $GPRMC,192517.00,A,4532.42925,N,07337.24824,W,0.070,,271125,,,A*6E
19:25:17  $GPVTG,,T,,M,0.070,N,0.130,K,A*26
19:25:17  $GPGGA,192517.00,4532.42925,N,07337.24824,W,1,09,1.00,95.2,M,-32.7,M,,*5A
19:25:17  $GPGSA,A,3,16,27,09,04,08,26,07,31,18,,,,1.94,1.00,1.66*01
19:25:17  $GPGSV,4,1,13,04,47,205,45,07,28,301,25,08,43,184,39,09,51,267,29*7A
19:25:17  $GPGSV,4,2,13,16,60,054,33,18,13,051,30,20,00,325,,21,04,326,19*7F
19:25:17  $GPGSV,4,3,13,26,25,070,19,27,63,134,37,30,01,299,,31,16,116,20*73
19:25:17  $GPGSV,4,4,13,46,32,212,31*4B
19:25:17  $GPGLL,4532.42925,N,07337.24824,W,192517.00,A,A*72
19:25:18  $GPRMC,192518.00,A,4532.42923,N,07337.24823,W,0.056,,271125,,,A*64
19:25:18  $GPVTG,,T,,M,0.056,N,0.105,K,A*24
19:25:18  $GPGGA,192518.00,4532.42923,N,07337.24823,W,1,09,1.00,95.2,M,-32.7,M,,*54
19:25:18  $GPGSA,A,3,16,27,09,04,08,26,07,31,18,,,,1.94,1.00,1.66*01
19:25:18  $GPGSV,4,1,13,04,47,205,45,07,28,301,23,08,43,184,39,09,51,267,29*7C
19:25:18  $GPGSV,4,2,13,16,60,054,33,18,13,051,29,20,00,325,,21,04,326,16*78
19:25:18  $GPGSV,4,3,13,26,25,070,20,27,63,134,37,30,01,299,17,31,16,116,21*7E
19:25:18  $GPGSV,4,4,13,46,32,212,30*4A
19:25:18  $GPGLL,4532.42923,N,07337.24823,W,192518.00,A,A*7C
19:25:19  $GPRMC,192519.00,A,4532.42915,N,07337.24811,W,0.205,,271125,,,A*65
19:25:19  $GPVTG,,T,,M,0.205,N,0.379,K,A*29
19:25:19  $GPGGA,192519.00,4532.42915,N,07337.24811,W,1,09,1.00,95.1,M,-32.7,M,,*52
19:25:19  $GPGSA,A,3,16,27,09,04,08,26,07,31,18,,,,1.94,1.00,1.66*01
19:25:19  $GPGSV,4,1,13,04,47,205,45,07,28,301,21,08,43,184,39,09,51,267,29*7E
19:25:19  $GPGSV,4,2,13,16,60,054,32,18,13,051,31,20,00,325,,21,04,326,16*70
19:25:19  $GPGSV,4,3,13,26,25,070,24,27,63,134,37,30,01,299,16,31,16,116,21*7B
19:25:19  $GPGSV,4,4,13,46,32,212,31*4B
19:25:19  $GPGLL,4532.42915,N,07337.24811,W,192519.00,A,A*79
19:25:20  $GPRMC,192520.00,A,4532.42908,N,07337.24801,W,0.076,,271125,,,A*64
19:25:20  $GPVTG,,T,,M,0.076,N,0.141,K,A*26
19:25:20  $GPGGA,192520.00,4532.42908,N,07337.24801,W,1,09,1.00,95.0,M,-32.7,M,,*54
19:25:20  $GPGSA,A,3,16,27,09,04,08,26,07,31,18,,,,1.94,1.00,1.66*01
19:25:20  $GPGSV,4,1,13,04,47,205,45,07,28,301,21,08,43,184,39,09,51,267,28*7F
19:25:20  $GPGSV,4,2,13,16,60,054,30,18,13,051,32,20,00,325,,21,04,326,17*70
19:25:20  $GPGSV,4,3,13,26,25,070,25,27,63,134,36,30,01,299,13,31,16,116,20*7F
19:25:20  $GPGSV,4,4,13,46,32,212,32*48
19:25:20  $GPGLL,4532.42908,N,07337.24801,W,192520.00,A,A*7E
19:25:21  $GPRMC,192521.00,A,4532.42907,N,07337.24799,W,0.094,,271125,,,A*68
19:25:21  $GPVTG,,T,,M,0.094,N,0.175,K,A*2D
19:25:21  $GPGGA,192521.00,4532.42907,N,07337.24799,W,1,09,1.00,94.9,M,-32.7,M,,*5C
19:25:21  $GPGSA,A,3,16,27,09,04,08,26,07,31,18,,,,1.94,1.00,1.66*01
19:25:21  $GPGSV,4,1,13,04,47,205,45,07,28,301,30,08,43,184,39,09,51,267,29*7E
19:25:21  $GPGSV,4,2,13,16,60,054,30,18,13,051,31,20,00,325,,21,04,326,17*73
19:25:21  $GPGSV,4,3,13,26,25,070,25,27,63,134,36,30,01,299,12,31,16,116,20*7E
19:25:21  $GPGSV,4,4,13,46,32,212,31*4B
19:25:21  $GPGLL,4532.42907,N,07337.24799,W,192521.00,A,A*7E
19:25:22  $GPRMC,192522.00,A,4532.42910,N,07337.24799,W,0.036,,271125,,,A*65
19:25:22  $GPVTG,,T,,M,0.036,N,0.066,K,A*26
19:25:22  $GPGGA,192522.00,4532.42910,N,07337.24799,W,1,09,1.00,95.0,M,-32.7,M,,*51
19:25:22  $GPGSA,A,3,16,27,09,04,08,26,07,31,18,,,,1.94,1.00,1.66*01
19:25:22  $GPGSV,4,1,13,04,47,205,45,07,28,301,29,08,43,184,40,09,51,267,28*79
19:25:22  $GPGSV,4,2,13,16,60,054,31,18,13,051,31,20,00,325,,21,04,326,16*73
19:25:22  $GPGSV,4,3,13,26,25,070,26,27,63,134,36,30,01,299,10,31,16,116,22*7D
19:25:22  $GPGSV,4,4,13,46,32,212,29*42
19:25:22  $GPGLL,4532.42910,N,07337.24799,W,192522.00,A,A*7B
19:25:23  $GPRMC,192523.00,A,4532.42917,N,07337.24803,W,0.228,,271125,,,A*62
19:25:23  $GPVTG,,T,,M,0.228,N,0.422,K,A*2F
19:25:23  $GPGGA,192523.00,4532.42917,N,07337.24803,W,1,09,1.00,95.1,M,-32.7,M,,*5A
19:25:23  $GPGSA,A,3,16,27,09,04,08,26,07,31,18,,,,1.94,1.00,1.66*01
19:25:23  $GPGSV,4,1,13,04,47,205,45,07,28,301,28,08,43,184,40,09,51,267,28*78
19:25:23  $GPGSV,4,2,13,16,60,054,30,18,13,051,32,20,00,325,,21,04,326,17*70
19:25:23  $GPGSV,4,3,13,26,25,070,23,27,63,134,35,30,01,299,08,31,16,116,21*71
19:25:23  $GPGSV,4,4,13,46,32,212,29*42
19:25:23  $GPGLL,4532.42917,N,07337.24803,W,192523.00,A,A*71
19:25:24  $GPRMC,192524.00,A,4532.42920,N,07337.24804,W,0.129,,271125,,,A*64
19:25:24  $GPVTG,,T,,M,0.129,N,0.238,K,A*20
19:25:24  $GPGGA,192524.00,4532.42920,N,07337.24804,W,1,09,1.00,95.0,M,-32.7,M,,*5F
19:25:24  $GPGSA,A,3,16,27,09,04,08,26,07,31,18,,,,1.94,1.00,1.66*01
19:25:24  $GPGSV,4,1,13,04,47,205,45,07,28,301,27,08,43,184,40,09,51,267,28*77
19:25:24  $GPGSV,4,2,13,16,60,054,31,18,13,051,32,20,00,325,,21,04,326,16*70
19:25:24  $GPGSV,4,3,13,26,25,070,21,27,63,134,34,30,01,299,08,31,16,116,19*79
19:25:24  $GPGSV,4,4,13,46,32,212,29*42
19:25:24  $GPGLL,4532.42920,N,07337.24804,W,192524.00,A,A*75
19:25:25  $GPRMC,192525.00,A,4532.42924,N,07337.24807,W,0.096,,271125,,,A*67
19:25:25  $GPVTG,,T,,M,0.096,N,0.177,K,A*2D
19:25:25  $GPGGA,192525.00,4532.42924,N,07337.24807,W,1,09,1.00,95.1,M,-32.7,M,,*58
19:25:25  $GPGSA,A,3,16,27,09,04,08,26,07,31,18,,,,1.94,1.00,1.66*01
19:25:25  $GPGSV,4,1,13,04,47,205,45,07,28,301,27,08,43,184,40,09,51,267,27*78
19:25:25  $GPGSV,4,2,13,16,60,054,30,18,13,051,25,20,00,325,,21,04,326,15*74
19:25:25  $GPGSV,4,3,13,26,25,070,20,27,63,134,35,30,01,299,08,31,16,116,18*78
19:25:25  $GPGSV,4,4,13,46,32,212,30*4A
19:25:25  $GPGLL,4532.42924,N,07337.24807,W,192525.00,A,A*73
19:25:26  $GPRMC,192526.00,A,4532.42923,N,07337.24809,W,0.145,,271125,,,A*62
19:25:26  $GPVTG,,T,,M,0.145,N,0.268,K,A*2F
19:25:26  $GPGGA,192526.00,4532.42923,N,07337.24809,W,1,09,1.00,95.1,M,-32.7,M,,*52
19:25:26  $GPGSA,A,3,16,27,09,04,08,26,07,31,18,,,,1.94,1.00,1.66*01
19:25:26  $GPGSV,4,1,13,04,47,205,45,07,28,301,27,08,43,184,40,09,51,267,28*77
19:25:26  $GPGSV,4,2,13,16,60,054,29,18,13,051,28,20,00,325,,21,04,326,13*77
19:25:26  $GPGSV,4,3,13,26,25,070,19,27,63,134,37,30,01,299,,31,16,116,18*78
19:25:26  $GPGSV,4,4,13,46,32,212,30*4A
19:25:26  $GPGLL,4532.42923,N,07337.24809,W,192526.00,A,A*79
19:25:27  $GPRMC,192527.00,A,4532.42925,N,07337.24813,W,0.248,,271125,,,A*60
19:25:27  $GPVTG,,T,,M,0.248,N,0.459,K,A*25
19:25:27  $GPGGA,192527.00,4532.42925,N,07337.24813,W,1,09,1.00,95.1,M,-32.7,M,,*5E
19:25:27  $GPGSA,A,3,16,27,09,04,08,26,07,31,18,,,,1.94,1.00,1.66*01
19:25:27  $GPGSV,4,1,13,04,47,205,45,07,28,301,25,08,43,184,40,09,51,267,24*79
19:25:27  $GPGSV,4,2,13,16,60,054,29,18,13,051,26,20,00,325,,21,04,326,12*78
19:25:27  $GPGSV,4,3,13,26,25,070,18,27,63,134,31,30,01,299,,31,16,116,18*7F
19:25:27  $GPGSV,4,4,13,46,32,212,30*4A
19:25:27  $GPGLL,4532.42925,N,07337.24813,W,192527.00,A,A*75
19:25:28  $GPRMC,192528.00,A,4532.42924,N,07337.24816,W,0.078,,271125,,,A*6A
19:25:28  $GPVTG,,T,,M,0.078,N,0.145,K,A*2C
19:25:28  $GPGGA,192528.00,4532.42924,N,07337.24816,W,1,09,1.00,95.3,M,-32.7,M,,*57
19:25:28  $GPGSA,A,3,16,27,09,04,08,26,07,31,18,,,,1.94,1.00,1.66*01
19:25:28  $GPGSV,4,1,13,04,47,205,44,07,28,301,25,08,43,184,41,09,51,267,22*7F
19:25:28  $GPGSV,4,2,13,16,60,054,30,18,13,051,26,20,00,325,,21,04,326,12*70
19:25:28  $GPGSV,4,3,13,26,25,070,17,27,63,134,35,30,01,299,,31,16,116,19*75
19:25:28  $GPGSV,4,4,13,46,32,212,29*42
19:25:28  $GPGLL,4532.42924,N,07337.24816,W,192528.00,A,A*7E
19:25:29  $GPRMC,192529.00,A,4532.42921,N,07337.24807,W,0.142,,271125,,,A*66
19:25:29  $GPVTG,,T,,M,0.142,N,0.263,K,A*23
19:25:29  $GPGGA,192529.00,4532.42921,N,07337.24807,W,1,09,1.00,95.4,M,-32.7,M,,*54
19:25:29  $GPGSA,A,3,16,27,09,04,08,26,07,31,18,,,,1.94,1.00,1.66*01
19:25:29  $GPGSV,4,1,13,04,47,205,45,07,28,301,24,08,43,184,40,09,51,267,28*74
19:25:29  $GPGSV,4,2,13,16,60,054,30,18,13,051,26,20,00,325,,21,04,326,12*70
19:25:29  $GPGSV,4,3,13,26,25,070,21,27,63,134,33,30,01,299,,31,16,116,20*7C
19:25:29  $GPGSV,4,4,13,46,32,212,29*42
19:25:29  $GPGLL,4532.42921,N,07337.24807,W,192529.00,A,A*7A
19:25:30  $GPRMC,192530.00,A,4532.42910,N,07337.24781,W,0.825,,271125,,,A*65
19:25:30  $GPVTG,,T,,M,0.825,N,1.528,K,A*22
19:25:30  $GPGGA,192530.00,4532.42910,N,07337.24781,W,1,09,1.00,95.4,M,-32.7,M,,*5F
19:25:30  $GPGSA,A,3,16,27,09,04,08,26,07,31,18,,,,1.94,1.00,1.66*01
19:25:30  $GPGSV,4,1,13,04,47,205,45,07,28,301,23,08,43,184,42,09,51,267,27*7E
19:25:30  $GPGSV,4,2,13,16,60,054,29,18,13,051,26,20,00,325,,21,04,326,12*78
19:25:30  $GPGSV,4,3,13,26,25,070,22,27,63,134,27,30,01,299,,31,16,116,19*70
19:25:30  $GPGSV,4,4,13,46,32,212,30*4A
19:25:30  $GPGLL,4532.42910,N,07337.24781,W,192530.00,A,A*71
19:25:31  $GPRMC,192531.00,A,4532.42902,N,07337.24758,W,0.739,,271125,,,A*61
19:25:31  $GPVTG,,T,,M,0.739,N,1.368,K,A*22
19:25:31  $GPGGA,192531.00,4532.42902,N,07337.24758,W,1,09,1.00,95.2,M,-32.7,M,,*5F
19:25:31  $GPGSA,A,3,16,27,09,04,08,26,07,31,18,,,,1.94,1.00,1.66*01
19:25:31  $GPGSV,4,1,13,04,47,205,45,07,28,301,29,08,43,184,40,09,51,267,27*76
19:25:31  $GPGSV,4,2,13,16,60,054,27,18,13,051,29,20,00,325,,21,04,326,18*73
19:25:31  $GPGSV,4,3,13,26,25,070,25,27,63,134,27,30,01,299,,31,16,116,21*7C
19:25:31  $GPGSV,4,4,13,46,32,212,31*4B
19:25:31  $GPGLL,4532.42902,N,07337.24758,W,192531.00,A,A*77
19:25:32  $GPRMC,192532.00,A,4532.42907,N,07337.24747,W,0.194,,271125,,,A*68
19:25:32  $GPVTG,,T,,M,0.194,N,0.359,K,A*20
19:25:32  $GPGGA,192532.00,4532.42907,N,07337.24747,W,1,09,1.00,95.0,M,-32.7,M,,*55
19:25:32  $GPGSA,A,3,16,27,09,04,08,26,07,31,18,,,,1.94,1.00,1.66*01
19:25:32  $GPGSV,4,1,13,04,47,205,45,07,28,301,29,08,43,184,41,09,51,267,32*73
19:25:32  $GPGSV,4,2,13,16,60,054,27,18,13,051,28,20,00,325,,21,04,326,21*78
19:25:32  $GPGSV,4,3,13,26,25,070,26,27,63,134,29,30,01,299,,31,16,116,20*70
19:25:32  $GPGSV,4,4,13,46,32,212,29*42
19:25:32  $GPGLL,4532.42907,N,07337.24747,W,192532.00,A,A*7F
19:25:33  $GPRMC,192533.00,A,4532.42932,N,07337.24760,W,0.229,,271125,,,A*6F
19:25:33  $GPVTG,,T,,M,0.229,N,0.423,K,A*2F
19:25:33  $GPGGA,192533.00,4532.42932,N,07337.24760,W,1,09,1.00,94.8,M,-32.7,M,,*5E
19:25:33  $GPGSA,A,3,16,27,09,04,08,26,07,31,18,,,,1.94,1.00,1.66*01
19:25:33  $GPGSV,4,1,13,04,47,205,45,07,28,301,34,08,43,184,40,09,51,267,27*7A
19:25:33  $GPGSV,4,2,13,16,60,054,27,18,13,051,29,20,00,325,,21,04,326,20*78
19:25:33  $GPGSV,4,3,13,26,25,070,27,27,63,134,29,30,01,299,,31,16,116,20*71
19:25:33  $GPGSV,4,4,13,46,32,212,30*4A
19:25:33  $GPGLL,4532.42932,N,07337.24760,W,192533.00,A,A*7D
19:25:34  $GPRMC,192534.00,A,4532.42934,N,07337.24751,W,0.138,,271125,,,A*6F
19:25:34  $GPVTG,,T,,M,0.138,N,0.255,K,A*2B
19:25:34  $GPGGA,192534.00,4532.42934,N,07337.24751,W,1,09,1.00,94.4,M,-32.7,M,,*51
19:25:34  $GPGSA,A,3,16,27,09,04,08,26,07,31,18,,,,1.94,1.00,1.66*01
19:25:34  $GPGSV,4,1,13,04,46,205,45,07,28,301,22,08,43,184,41,09,51,267,32*79
19:25:34  $GPGSV,4,2,13,16,60,054,28,18,13,051,28,20,00,325,,21,04,326,19*7C
19:25:34  $GPGSV,4,3,13,26,25,070,25,27,63,134,30,30,01,299,,31,16,116,19*71
19:25:34  $GPGSV,4,4,13,46,32,212,29*42
19:25:34  $GPGLL,4532.42934,N,07337.24751,W,192534.00,A,A*7E
19:25:35  $GPRMC,192535.00,A,4532.42943,N,07337.24762,W,0.233,,271125,,,A*66
19:25:35  $GPVTG,,T,,M,0.233,N,0.432,K,A*24
19:25:35  $GPGGA,192535.00,4532.42943,N,07337.24762,W,1,09,1.00,94.3,M,-32.7,M,,*57
19:25:35  $GPGSA,A,3,16,27,09,04,08,26,07,31,18,,,,1.94,1.00,1.66*01
19:25:35  $GPGSV,4,1,13,04,46,205,45,07,28,301,30,08,43,184,40,09,51,267,28*70
19:25:35  $GPGSV,4,2,13,16,60,054,28,18,13,051,28,20,00,325,,21,04,326,19*7C
19:25:35  $GPGSV,4,3,13,26,25,070,23,27,63,134,29,30,01,299,,31,16,116,18*7E
19:25:35  $GPGSV,4,4,13,46,32,212,29*42
19:25:35  $GPGLL,4532.42943,N,07337.24762,W,192535.00,A,A*7F
19:25:36  $GPRMC,192536.00,A,4532.42959,N,07337.24772,W,0.155,,271125,,,A*6C
19:25:36  $GPVTG,,T,,M,0.155,N,0.286,K,A*2E
19:25:36  $GPGGA,192536.00,4532.42959,N,07337.24772,W,1,09,1.00,94.1,M,-32.7,M,,*5C
19:25:36  $GPGSA,A,3,16,27,09,04,08,26,07,31,18,,,,1.94,1.00,1.66*01
19:25:36  $GPGSV,4,1,13,04,46,205,45,07,28,301,30,08,43,184,40,09,51,267,28*70
19:25:36  $GPGSV,4,2,13,16,60,054,29,18,13,051,29,20,00,325,,21,04,326,17*72
19:25:36  $GPGSV,4,3,13,26,25,070,22,27,63,134,30,30,01,299,,31,16,116,18*77
19:25:36  $GPGSV,4,4,13,46,32,212,30*4A
19:25:36  $GPGLL,4532.42959,N,07337.24772,W,192536.00,A,A*76
19:25:37  $GPRMC,192537.00,A,4532.42975,N,07337.24778,W,0.125,,271125,,,A*6E
19:25:37  $GPVTG,,T,,M,0.125,N,0.231,K,A*25
19:25:37  $GPGGA,192537.00,4532.42975,N,07337.24778,W,1,09,1.00,94.0,M,-32.7,M,,*58
19:25:37  $GPGSA,A,3,16,27,09,04,08,26,07,31,18,,,,1.94,1.00,1.66*01
19:25:37  $GPGSV,4,1,13,04,46,205,44,07,28,301,30,08,43,184,41,09,51,267,29*71
19:25:37  $GPGSV,4,2,13,16,60,054,29,18,13,051,29,20,00,325,,21,04,326,15*70
19:25:37  $GPGSV,4,3,13,26,25,070,22,27,63,134,28,30,01,299,,31,16,116,16*70
19:25:37  $GPGSV,4,4,13,46,32,212,30*4A
19:25:37  $GPGLL,4532.42975,N,07337.24778,W,192537.00,A,A*73
19:25:38  $GPRMC,192538.00,A,4532.42989,N,07337.24781,W,0.098,,271125,,,A*63
19:25:38  $GPVTG,,T,,M,0.098,N,0.182,K,A*29
19:25:38  $GPGGA,192538.00,4532.42989,N,07337.24781,W,1,09,1.00,94.1,M,-32.7,M,,*53
19:25:38  $GPGSA,A,3,16,27,09,04,08,26,07,31,18,,,,1.94,1.00,1.66*01
19:25:38  $GPGSV,4,1,13,04,46,205,44,07,28,301,29,08,44,183,40,09,51,267,28*79
19:25:38  $GPGSV,4,2,13,16,60,054,29,18,13,051,29,20,00,325,,21,04,326,14*71
19:25:38  $GPGSV,4,3,13,26,25,070,20,27,63,134,28,30,01,299,,31,16,116,14*70
19:25:38  $GPGSV,4,4,13,46,32,212,30*4A
19:25:38  $GPGLL,4532.42989,N,07337.24781,W,192538.00,A,A*79
19:25:39  $GPRMC,192539.00,A,4532.42998,N,07337.24786,W,0.034,,271125,,,A*63
19:25:39  $GPVTG,,T,,M,0.034,N,0.063,K,A*21
19:25:39  $GPGGA,192539.00,4532.42998,N,07337.24786,W,1,09,1.00,94.1,M,-32.7,M,,*55
19:25:39  $GPGSA,A,3,16,27,09,04,08,26,07,31,18,,,,1.94,1.00,1.66*01
19:25:39  $GPGSV,4,1,13,04,46,205,44,07,28,301,28,08,44,183,41,09,51,266,30*71
19:25:39  $GPGSV,4,2,13,16,60,054,31,18,13,051,29,20,00,325,,21,04,326,12*7E
19:25:39  $GPGSV,4,3,13,26,25,070,20,27,63,134,25,30,01,299,,31,16,116,15*7C
19:25:39  $GPGSV,4,4,13,46,32,212,29*42
19:25:39  $GPGLL,4532.42998,N,07337.24786,W,192539.00,A,A*7F
19:25:40  $GPRMC,192540.00,A,4532.43000,N,07337.24785,W,0.054,,271125,,,A*61
19:25:40  $GPVTG,,T,,M,0.054,N,0.100,K,A*23
19:25:40  $GPGGA,192540.00,4532.43000,N,07337.24785,W,1,09,1.00,94.0,M,-32.7,M,,*50
19:25:40  $GPGSA,A,3,16,27,09,04,08,26,07,31,18,,,,1.94,1.00,1.66*01
19:25:40  $GPGSV,4,1,13,04,46,205,45,07,28,301,25,08,44,183,41,09,51,266,30*7D
19:25:40  $GPGSV,4,2,13,16,60,054,33,18,13,051,29,20,00,325,,21,04,326,11*7F
19:25:40  $GPGSV,4,3,13,26,25,070,17,27,63,134,27,30,01,299,,31,16,116,16*79
19:25:40  $GPGSV,4,4,13,46,32,212,31*4B
19:25:40  $GPGLL,4532.43000,N,07337.24785,W,192540.00,A,A*7B
19:25:41  $GPRMC,192541.00,A,4532.43011,N,07337.24785,W,0.084,,271125,,,A*6D
19:25:41  $GPVTG,,T,,M,0.084,N,0.155,K,A*2E
19:25:41  $GPGGA,192541.00,4532.43011,N,07337.24785,W,1,09,1.00,94.1,M,-32.7,M,,*50
19:25:41  $GPGSA,A,3,16,27,09,04,08,26,07,31,18,,,,1.94,1.00,1.66*01
19:25:41  $GPGSV,4,1,13,04,46,205,45,07,28,301,26,08,44,183,41,09,51,266,29*76
19:25:41  $GPGSV,4,2,13,16,60,054,33,18,13,051,27,20,00,325,,21,04,326,11*71
19:25:41  $GPGSV,4,3,13,26,25,070,15,27,63,134,25,30,01,299,,31,16,116,17*78
19:25:41  $GPGSV,4,4,13,46,32,212,30*4A
19:25:41  $GPGLL,4532.43011,N,07337.24785,W,192541.00,A,A*7A
19:25:42  $GPRMC,192542.00,A,4532.43019,N,07337.24792,W,0.044,,271125,,,A*6C
19:25:42  $GPVTG,,T,,M,0.044,N,0.081,K,A*2A
19:25:42  $GPGGA,192542.00,4532.43019,N,07337.24792,W,1,09,1.00,94.3,M,-32.7,M,,*5F
19:25:42  $GPGSA,A,3,16,27,09,04,08,26,07,31,18,,,,1.94,1.00,1.66*01
19:25:42  $GPGSV,4,1,13,04,46,205,45,07,28,301,27,08,44,183,41,09,51,266,29*77
19:25:42  $GPGSV,4,2,13,16,60,054,33,18,13,051,27,20,00,325,,21,04,326,11*71
19:25:42  $GPGSV,4,3,13,26,25,070,13,27,63,134,26,30,01,299,,31,16,116,17*7D
19:25:42  $GPGSV,4,4,13,46,32,212,30*4A
19:25:42  $GPGLL,4532.43019,N,07337.24792,W,192542.00,A,A*77
19:25:43  $GPRMC,192543.00,A,4532.43028,N,07337.24799,W,0.039,,271125,,,A*6E
19:25:43  $GPVTG,,T,,M,0.039,N,0.071,K,A*2F
19:25:43  $GPGGA,192543.00,4532.43028,N,07337.24799,W,1,09,1.00,94.7,M,-32.7,M,,*53
19:25:43  $GPGSA,A,3,16,27,09,04,08,26,07,31,18,,,,1.94,1.00,1.66*01
19:25:43  $GPGSV,4,1,13,04,46,205,44,07,28,301,25,08,44,183,39,09,51,266,29*7B
19:25:43  $GPGSV,4,2,13,16,60,054,33,18,13,051,26,20,00,325,,21,04,326,11*70
19:25:43  $GPGSV,4,3,13,26,25,070,11,27,63,134,26,30,01,299,,31,16,116,16*7E
19:25:43  $GPGSV,4,4,13,46,32,212,31*4B
19:25:43  $GPGLL,4532.43028,N,07337.24799,W,192543.00,A,A*7F
19:25:44  $GPRMC,192544.00,A,4532.43035,N,07337.24805,W,0.038,,271125,,,A*6E
19:25:44  $GPVTG,,T,,M,0.038,N,0.070,K,A*2F
19:25:44  $GPGGA,192544.00,4532.43035,N,07337.24805,W,1,09,1.00,95.1,M,-32.7,M,,*55
19:25:44  $GPGSA,A,3,16,27,09,04,08,26,07,31,18,,,,1.94,1.00,1.66*01
19:25:44  $GPGSV,4,1,13,04,46,205,44,07,28,301,25,08,44,183,41,09,51,266,29*74
19:25:44  $GPGSV,4,2,13,16,60,054,32,18,13,051,25,20,00,325,,21,04,326,*72
19:25:44  $GPGSV,4,3,13,26,25,070,15,27,63,134,26,30,01,299,,31,16,116,16*7A
19:25:44  $GPGSV,4,4,13,46,32,212,31*4B
19:25:44  $GPGLL,4532.43035,N,07337.24805,W,192544.00,A,A*7E
19:25:45  $GPRMC,192545.00,A,4532.43043,N,07337.24813,W,0.125,,271125,,,A*64
19:25:45  $GPVTG,,T,,M,0.125,N,0.232,K,A*26
19:25:45  $GPGGA,192545.00,4532.43043,N,07337.24813,W,1,09,1.00,95.7,M,-32.7,M,,*54
19:25:45  $GPGSA,A,3,16,27,09,04,08,26,07,31,18,,,,1.94,1.00,1.66*01
19:25:45  $GPGSV,4,1,13,04,46,205,44,07,28,301,26,08,44,183,40,09,51,266,29*76
19:25:45  $GPGSV,4,2,13,16,60,054,32,18,13,051,24,20,00,325,,21,04,326,*73
19:25:45  $GPGSV,4,3,13,26,25,070,17,27,63,134,26,30,01,299,,31,16,116,16*78
19:25:45  $GPGSV,4,4,13,46,32,212,31*4B
19:25:45  $GPGLL,4532.43043,N,07337.24813,W,192545.00,A,A*79
19:25:46  $GPRMC,192546.00,A,4532.43049,N,07337.24818,W,0.070,,271125,,,A*67
19:25:46  $GPVTG,,T,,M,0.070,N,0.130,K,A*26
19:25:46  $GPGGA,192546.00,4532.43049,N,07337.24818,W,1,09,1.00,96.1,M,-32.7,M,,*53
19:25:46  $GPGSA,A,3,16,27,09,04,08,26,07,31,18,,,,1.94,1.00,1.66*01
19:25:46  $GPGSV,4,1,13,04,46,205,45,07,28,301,27,08,44,183,41,09,51,266,28*76
19:25:46  $GPGSV,4,2,13,16,59,054,33,18,13,051,26,20,00,325,,21,04,326,*7A
19:25:46  $GPGSV,4,3,13,26,25,070,17,27,63,134,27,30,01,299,,31,16,116,19*76
19:25:46  $GPGSV,4,4,13,46,32,212,31*4B
19:25:46  $GPGLL,4532.43049,N,07337.24818,W,192546.00,A,A*7B
19:25:47  $GPRMC,192547.00,A,4532.43054,N,07337.24818,W,0.131,,271125,,,A*6E
19:25:47  $GPVTG,,T,,M,0.131,N,0.242,K,A*24
19:25:47  $GPGGA,192547.00,4532.43054,N,07337.24818,W,1,09,1.00,96.3,M,-32.7,M,,*5C
19:25:47  $GPGSA,A,3,16,27,09,04,08,26,07,31,18,,,,1.94,1.00,1.66*01
19:25:47  $GPGSV,4,1,13,04,46,205,45,07,28,301,28,08,44,183,41,09,51,266,28*79
19:25:47  $GPGSV,4,2,13,16,59,054,32,18,13,051,25,20,00,325,,21,04,326,*78
19:25:47  $GPGSV,4,3,13,26,25,070,17,27,63,134,26,30,01,299,,31,16,116,17*79
19:25:47  $GPGSV,4,4,13,46,32,212,30*4A
19:25:47  $GPGLL,4532.43054,N,07337.24818,W,192547.00,A,A*76
19:25:48  $GPRMC,192548.00,A,4532.43059,N,07337.24817,W,0.123,,271125,,,A*60
19:25:48  $GPVTG,,T,,M,0.123,N,0.228,K,A*2B
19:25:48  $GPGGA,192548.00,4532.43059,N,07337.24817,W,1,09,1.00,96.4,M,-32.7,M,,*56
19:25:48  $GPGSA,A,3,16,27,09,04,08,26,07,31,18,,,,1.94,1.00,1.66*01
19:25:48  $GPGSV,4,1,13,04,46,205,45,07,28,301,28,08,44,183,41,09,51,266,29*78
19:25:48  $GPGSV,4,2,13,16,59,054,33,18,13,050,25,20,00,325,,21,04,326,*78
19:25:48  $GPGSV,4,3,13,26,25,070,16,27,63,134,27,30,01,299,,31,16,116,17*79
19:25:48  $GPGSV,4,4,13,46,32,212,30*4A
19:25:48  $GPGLL,4532.43059,N,07337.24817,W,192548.00,A,A*7B
19:25:49  $GPRMC,192549.00,A,4532.43060,N,07337.24820,W,0.122,,271125,,,A*6E
19:25:49  $GPVTG,,T,,M,0.122,N,0.226,K,A*24
19:25:49  $GPGGA,192549.00,4532.43060,N,07337.24820,W,1,09,1.00,97.2,M,-32.7,M,,*5E
19:25:49  $GPGSA,A,3,16,27,09,04,08,26,07,31,18,,,,1.94,1.00,1.66*01
19:25:49  $GPGSV,4,1,13,04,46,205,45,07,28,301,28,08,44,183,41,09,51,266,30*70
19:25:49  $GPGSV,4,2,13,16,59,054,32,18,13,050,25,20,00,325,,21,04,326,12*7A
19:25:49  $GPGSV,4,3,13,26,25,070,15,27,63,134,26,30,01,299,,31,16,116,17*7B
19:25:49  $GPGSV,4,4,13,46,32,212,29*42
19:25:49  $GPGLL,4532.43060,N,07337.24820,W,192549.00,A,A*74
19:25:50  $GPRMC,192550.00,A,4532.43061,N,07337.24823,W,0.178,,271125,,,A*6B
19:25:50  $GPVTG,,T,,M,0.178,N,0.330,K,A*2D
19:25:50  $GPGGA,192550.00,4532.43061,N,07337.24823,W,1,09,1.00,97.6,M,-32.7,M,,*50
19:25:50  $GPGSA,A,3,16,27,09,04,08,26,07,31,18,,,,1.94,1.00,1.66*01
19:25:50  $GPGSV,4,1,13,04,46,205,44,07,28,301,18,08,44,183,41,09,51,266,31*73
19:25:50  $GPGSV,4,2,13,16,59,054,33,18,13,050,24,20,00,325,,21,04,326,12*7A
19:25:50  $GPGSV,4,3,13,26,25,070,13,27,63,134,25,30,01,299,,31,16,116,20*7A
19:25:50  $GPGSV,4,4,13,46,32,212,29*42
19:25:50  $GPGLL,4532.43061,N,07337.24823,W,192550.00,A,A*7E
19:25:51  $GPRMC,192551.00,A,4532.43063,N,07337.24818,W,0.176,,271125,,,A*6E
19:25:51  $GPVTG,,T,,M,0.176,N,0.326,K,A*24
19:25:51  $GPGGA,192551.00,4532.43063,N,07337.24818,W,1,09,1.00,97.6,M,-32.7,M,,*5B
19:25:51  $GPGSA,A,3,16,27,09,04,08,26,07,31,18,,,,1.94,1.00,1.66*01
19:25:51  $GPGSV,4,1,13,04,46,205,44,07,28,301,16,08,44,183,40,09,51,266,30*7D
19:25:51  $GPGSV,4,2,13,16,59,054,33,18,13,050,22,20,00,325,,21,04,325,12*7F
19:25:51  $GPGSV,4,3,13,26,25,070,12,27,63,134,25,30,01,299,,31,16,116,22*79
19:25:51  $GPGSV,4,4,13,46,32,212,29*42
19:25:51  $GPGLL,4532.43063,N,07337.24818,W,192551.00,A,A*75
19:25:52  $GPRMC,192552.00,A,4532.43068,N,07337.24818,W,0.097,,271125,,,A*68
19:25:52  $GPVTG,,T,,M,0.097,N,0.179,K,A*22
19:25:52  $GPGGA,192552.00,4532.43068,N,07337.24818,W,1,09,1.00,97.6,M,-32.7,M,,*53
19:25:52  $GPGSA,A,3,16,27,09,04,08,26,07,31,18,,,,1.94,1.00,1.66*01
19:25:52  $GPGSV,4,1,13,04,46,205,44,07,28,301,19,08,44,183,40,09,51,266,31*73
19:25:52  $GPGSV,4,2,13,16,59,054,34,18,13,050,21,20,00,325,,21,04,325,15*7C
19:25:52  $GPGSV,4,3,13,26,25,070,16,27,63,134,25,30,01,299,,31,16,116,23*7C
19:25:52  $GPGSV,4,4,13,46,32,212,28*43
19:25:52  $GPGLL,4532.43068,N,07337.24818,W,192552.00,A,A*7D
19:25:53  $GPRMC,192553.00,A,4532.43076,N,07337.24814,W,0.161,,271125,,,A*62
19:25:53  $GPVTG,,T,,M,0.161,N,0.298,K,A*26
19:25:53  $GPGGA,192553.00,4532.43076,N,07337.24814,W,1,09,1.00,97.0,M,-32.7,M,,*57
19:25:53  $GPGSA,A,3,16,27,09,04,08,26,07,31,18,,,,1.94,1.00,1.66*01
19:25:53  $GPGSV,4,1,13,04,46,205,44,07,28,301,28,08,44,183,40,09,51,266,31*71
19:25:53  $GPGSV,4,2,13,16,59,054,33,18,13,050,19,20,00,325,,21,04,325,17*72
19:25:53  $GPGSV,4,3,13,26,25,070,18,27,63,134,25,30,01,299,,31,16,116,20*71
19:25:53  $GPGSV,4,4,13,46,32,212,29*42
19:25:53  $GPGLL,4532.43076,N,07337.24814,W,192553.00,A,A*7F
19:25:54  $GPRMC,192554.00,A,4532.43079,N,07337.24813,W,0.041,,271125,,,A*6E
19:25:54  $GPVTG,,T,,M,0.041,N,0.077,K,A*26
19:25:54  $GPGGA,192554.00,4532.43079,N,07337.24813,W,1,09,1.00,97.1,M,-32.7,M,,*59
19:25:54  $GPGSA,A,3,16,27,09,04,08,26,07,31,18,,,,1.94,1.00,1.66*01
19:25:54  $GPGSV,4,1,13,04,46,205,45,07,28,301,29,08,44,183,41,09,51,266,30*71
19:25:54  $GPGSV,4,2,13,16,59,054,33,18,13,050,16,20,00,325,,21,04,325,17*7D
19:25:54  $GPGSV,4,3,13,26,25,070,18,27,63,134,26,30,01,299,,31,16,116,17*76
19:25:54  $GPGSV,4,4,13,46,32,212,28*43
19:25:54  $GPGLL,4532.43079,N,07337.24813,W,192554.00,A,A*70
19:25:55  $GPRMC,192555.00,A,4532.43085,N,07337.24814,W,0.059,,271125,,,A*62
19:25:55  $GPVTG,,T,,M,0.059,N,0.110,K,A*2F
19:25:55  $GPGGA,192555.00,4532.43085,N,07337.24814,W,1,09,1.00,97.0,M,-32.7,M,,*5D
19:25:55  $GPGSA,A,3,16,27,09,04,08,26,07,31,18,,,,1.94,1.00,1.66*01
19:25:55  $GPGSV,4,1,13,04,46,205,45,07,28,301,29,08,44,183,41,09,51,266,30*71
19:25:55  $GPGSV,4,2,13,16,59,054,33,18,13,050,15,20,00,325,,21,04,325,18*71
19:25:55  $GPGSV,4,3,13,26,25,070,18,27,63,134,28,30,01,299,,31,16,116,15*7A
19:25:55  $GPGSV,4,4,13,46,32,212,29*42
19:25:55  $GPGLL,4532.43085,N,07337.24814,W,192555.00,A,A*75
19:25:56  $GPRMC,192556.00,A,4532.43092,N,07337.24811,W,0.223,,271125,,,A*6D
19:25:56  $GPVTG,,T,,M,0.223,N,0.413,K,A*26
19:25:56  $GPGGA,192556.00,4532.43092,N,07337.24811,W,1,09,1.00,96.3,M,-32.7,M,,*5F
19:25:56  $GPGSA,A,3,16,27,09,04,08,26,07,31,18,,,,1.94,1.00,1.66*01
19:25:56  $GPGSV,4,1,13,04,46,205,45,07,28,301,29,08,44,183,41,09,51,266,29*79
19:25:56  $GPGSV,4,2,13,16,59,054,33,18,13,050,14,20,00,325,,21,04,325,17*7F
19:25:56  $GPGSV,4,3,13,26,24,071,17,27,63,134,30,30,01,299,,31,16,116,14*7D
19:25:56  $GPGSV,4,4,13,46,32,212,31*4B
19:25:56  $GPGLL,4532.43092,N,07337.24811,W,192556.00,A,A*75
19:25:57  $GPRMC,192557.00,A,4532.43101,N,07337.24821,W,0.093,,271125,,,A*6D
19:25:57  $GPVTG,,T,,M,0.093,N,0.172,K,A*2D
19:25:57  $GPGGA,192557.00,4532.43101,N,07337.24821,W,1,09,1.00,96.2,M,-32.7,M,,*57
19:25:57  $GPGSA,A,3,16,27,09,04,08,26,07,31,18,,,,1.94,1.00,1.66*01
19:25:57  $GPGSV,4,1,13,04,46,205,45,07,28,301,30,08,44,183,41,09,51,266,30*79
19:25:57  $GPGSV,4,2,13,16,59,054,33,18,13,050,18,20,00,325,,21,04,325,16*72
19:25:57  $GPGSV,4,3,13,26,24,071,16,27,64,133,32,30,01,299,,31,16,116,14*7E
19:25:57  $GPGSV,4,4,13,46,32,212,32*48
19:25:57  $GPGLL,4532.43101,N,07337.24821,W,192557.00,A,A*7C
19:25:58  $GPRMC,192558.00,A,4532.43108,N,07337.24835,W,0.034,,271125,,,A*63
19:25:58  $GPVTG,,T,,M,0.034,N,0.063,K,A*21
19:25:58  $GPGGA,192558.00,4532.43108,N,07337.24835,W,1,09,1.00,96.3,M,-32.7,M,,*55
19:25:58  $GPGSA,A,3,16,27,09,04,08,26,07,31,18,,,,1.94,1.00,1.66*01
19:25:58  $GPGSV,4,1,13,04,46,205,45,07,28,301,30,08,44,183,41,09,51,266,29*71
19:25:58  $GPGSV,4,2,13,16,59,054,33,18,13,050,20,20,00,325,,21,04,325,14*7B
19:25:58  $GPGSV,4,3,13,26,24,071,15,27,64,133,31,30,01,299,,31,16,116,15*7F
19:25:58  $GPGSV,4,4,13,46,32,212,31*4B
19:25:58  $GPGLL,4532.43108,N,07337.24835,W,192558.00,A,A*7F
19:25:59  $GPRMC,192559.00,A,4532.43113,N,07337.24845,W,0.009,,271125,,,A*61
19:25:59  $GPVTG,,T,,M,0.009,N,0.017,K,A*2C
19:25:59  $GPGGA,192559.00,4532.43113,N,07337.24845,W,1,09,1.00,96.4,M,-32.7,M,,*5E
19:25:59  $GPGSA,A,3,16,27,09,04,08,26,07,31,18,,,,1.94,1.00,1.66*01
19:25:59  $GPGSV,4,1,13,04,46,205,45,07,28,301,30,08,44,183,41,09,51,266,30*79
19:25:59  $GPGSV,4,2,13,16,59,054,32,18,13,050,23,20,00,325,,21,04,325,12*7F
19:25:59  $GPGSV,4,3,13,26,24,071,15,27,64,133,30,30,01,299,,31,16,116,14*7F
19:25:59  $GPGSV,4,4,13,46,32,212,30*4A
19:25:59  $GPGLL,4532.43113,N,07337.24845,W,192559.00,A,A*73
19:26:00  $GPRMC,192600.00,A,4532.43122,N,07337.24857,W,0.249,,271125,,,A*69
19:26:00  $GPVTG,,T,,M,0.249,N,0.462,K,A*2C
19:26:00  $GPGGA,192600.00,4532.43122,N,07337.24857,W,1,09,1.04,96.4,M,-32.7,M,,*54
19:26:00  $GPGSA,A,3,16,27,09,04,08,26,07,31,18,,,,1.96,1.04,1.66*07
19:26:00  $GPGSV,4,1,13,04,46,205,45,07,28,301,30,08,44,183,41,09,51,266,32*7B
19:26:00  $GPGSV,4,2,13,16,59,054,32,18,13,050,23,20,00,325,,21,04,325,14*79
19:26:00  $GPGSV,4,3,13,26,24,071,21,27,64,133,29,30,02,299,,31,16,116,16*71
19:26:00  $GPGSV,4,4,13,46,32,212,30*4A
19:26:00  $GPGLL,4532.43122,N,07337.24857,W,192600.00,A,A*7D
19:26:01  $GPRMC,192601.00,A,4532.43131,N,07337.24874,W,0.266,,271125,,,A*66
19:26:01  $GPVTG,,T,,M,0.266,N,0.492,K,A*2E
19:26:01  $GPGGA,192601.00,4532.43131,N,07337.24874,W,1,09,1.04,96.5,M,-32.7,M,,*57
19:26:01  $GPGSA,A,3,16,27,09,04,08,26,07,31,18,,,,1.96,1.04,1.66*07
19:26:01  $GPGSV,4,1,13,04,46,205,44,07,28,301,22,08,44,183,41,09,51,266,32*79
19:26:01  $GPGSV,4,2,13,16,59,054,33,18,13,050,24,20,00,325,,21,04,325,15*7E
19:26:01  $GPGSV,4,3,13,26,24,071,20,27,64,133,30,30,02,299,,31,15,116,16*7B
19:26:01  $GPGSV,4,4,13,46,32,212,30*4A
19:26:01  $GPGLL,4532.43131,N,07337.24874,W,192601.00,A,A*7F
19:26:02  $GPRMC,192602.00,A,4532.43136,N,07337.24882,W,0.062,,271125,,,A*6D
19:26:02  $GPVTG,,T,,M,0.062,N,0.115,K,A*22
19:26:02  $GPGGA,192602.00,4532.43136,N,07337.24882,W,1,09,1.04,96.3,M,-32.7,M,,*5C
19:26:02  $GPGSA,A,3,16,27,09,04,08,26,07,31,18,,,,1.96,1.04,1.66*07
19:26:02  $GPGSV,4,1,13,04,46,205,45,07,28,301,26,08,44,183,41,09,51,266,31*7F
19:26:02  $GPGSV,4,2,13,16,59,054,32,18,13,050,24,20,00,325,18,21,04,325,17*74
19:26:02  $GPGSV,4,3,13,26,24,071,19,27,64,133,30,30,02,299,,31,15,116,13*74
19:26:02  $GPGSV,4,4,13,46,32,212,30*4A
19:26:02  $GPGLL,4532.43136,N,07337.24882,W,192602.00,A,A*72
19:26:03  $GPRMC,192603.00,A,4532.43138,N,07337.24883,W,0.119,,271125,,,A*6E
19:26:03  $GPVTG,,T,,M,0.119,N,0.221,K,A*2B
19:26:03  $GPGGA,192603.00,4532.43138,N,07337.24883,W,1,09,1.00,96.1,M,-32.7,M,,*54
19:26:03  $GPGSA,A,3,16,27,09,04,08,26,07,31,18,,,,1.94,1.00,1.66*01
19:26:03  $GPGSV,4,1,13,04,46,205,45,07,28,301,28,08,44,183,41,09,51,266,31*71
19:26:03  $GPGSV,4,2,13,16,59,054,32,18,13,050,25,20,00,325,18,21,04,325,18*7A
19:26:03  $GPGSV,4,3,13,26,24,071,19,27,64,133,31,30,02,299,,31,15,116,12*74
19:26:03  $GPGSV,4,4,13,46,32,212,29*42
19:26:03  $GPGLL,4532.43138,N,07337.24883,W,192603.00,A,A*7C
19:26:04  $GPRMC,192604.00,A,4532.43147,N,07337.24899,W,0.126,,271125,,,A*66
19:26:04  $GPVTG,,T,,M,0.126,N,0.234,K,A*23
19:26:04  $GPGGA,192604.00,4532.43147,N,07337.24899,W,1,08,1.17,96.0,M,-32.7,M,,*56
19:26:04  $GPGSA,A,3,16,27,09,04,08,26,07,18,,,,,2.35,1.17,2.04*0A
19:26:04  $GPGSV,4,1,13,04,46,205,45,07,28,301,30,08,44,183,41,09,51,266,30*79
19:26:04  $GPGSV,4,2,13,16,59,054,32,18,13,050,25,20,00,325,17,21,04,325,17*7A
19:26:04  $GPGSV,4,3,13,26,24,071,20,27,64,133,32,30,02,299,,31,15,116,09*77
19:26:04  $GPGSV,4,4,13,46,32,212,30*4A
19:26:04  $GPGLL,4532.43147,N,07337.24899,W,192604.00,A,A*78
19:26:05  $GPRMC,192605.00,A,4532.43154,N,07337.24912,W,0.120,,271125,,,A*61
19:26:05  $GPVTG,,T,,M,0.120,N,0.222,K,A*22
19:26:05  $GPGGA,192605.00,4532.43154,N,07337.24912,W,1,08,1.17,95.8,M,-32.7,M,,*5C
