19:24:26  0000  24 47 50 52 4D 43 2C 31 39 32 34 32 36 2E 30 30  $GPRMC,192426.00
          0010  2C 41 2C 34 35 33 32 2E 34 33 30 39 32 2C 4E 2C  ,A,4532.43092,N,
          0020  30 37 33 33 37 2E 32 34 37 35 30 2C 57 2C 30 2E  07337.24750,W,0.
          0030  30 35 39 2C 2C 32 37 31 31 32 35 2C 2C 2C 41 2A  059,,271125,,,A*
          0040  36 45 0D 0A                                      6E...
          
19:24:26  0000  24 47 50 56 54 47 2C 2C 54 2C 2C 4D 2C 30 2E 30  $GPVTG,,T,,M,0.0
          0010  35 39 2C 4E 2C 30 2E 31 30 39 2C 4B 2C 41 2A 32  59,N,0.109,K,A*2
          0020  37 0D 0A                                         7...
          
19:24:26  0000  24 47 50 47 47 41 2C 31 39 32 34 32 36 2E 30 30  $GPGGA,192426.00
          0010  2C 34 35 33 32 2E 34 33 30 39 32 2C 4E 2C 30 37  ,4532.43092,N,07
          0020  33 33 37 2E 32 34 37 35 30 2C 57 2C 31 2C 30 39  337.24750,W,1,09
          0030  2C 31 2E 30 30 2C 39 37 2E 33 2C 4D 2C 2D 33 32  ,1.00,97.3,M,-32
          0040  2E 37 2C 4D 2C 2C 2A 35 32 0D 0A                 .7,M,,*52...
          
19:24:26  0000  24 47 50 47 53 41 2C 41 2C 33 2C 31 36 2C 32 37  $GPGSA,A,3,16,27
          0010  2C 30 39 2C 30 34 2C 30 38 2C 32 36 2C 30 37 2C  ,09,04,08,26,07,
          0020  33 31 2C 31 38 2C 2C 2C 2C 31 2E 39 34 2C 31 2E  31,18,,,,1.94,1.
          0030  30 30 2C 31 2E 36 36 2A 30 31 0D 0A              00,1.66*01...
          
19:24:26  0000  24 47 50 47 53 56 2C 33 2C 31 2C 31 32 2C 30 34  $GPGSV,3,1,12,04
          0010  2C 34 37 2C 32 30 35 2C 34 37 2C 30 37 2C 32 38  ,47,205,47,07,28
          0020  2C 33 30 31 2C 32 36 2C 30 38 2C 34 33 2C 31 38  ,301,26,08,43,18
          0030  34 2C 33 35 2C 30 39 2C 35 31 2C 32 36 38 2C 33  4,35,09,51,268,3
          0040  34 2A 37 32 0D 0A                                4*72...
          
19:24:26  0000  24 47 50 47 53 56 2C 33 2C 32 2C 31 32 2C 31 36  $GPGSV,3,2,12,16
          0010  2C 36 30 2C 30 35 33 2C 33 32 2C 31 38 2C 31 32  ,60,053,32,18,12
          0020  2C 30 35 31 2C 31 38 2C 32 30 2C 30 30 2C 33 32  ,051,18,20,00,32
          0030  35 2C 2C 32 31 2C 30 34 2C 33 32 36 2C 2A 37 43  5,,21,04,326,*7C
          0040  0D 0A                                            ...
          
19:24:26  0000  24 47 50 47 53 56 2C 33 2C 33 2C 31 32 2C 32 36  $GPGSV,3,3,12,26
          0010  2C 32 35 2C 30 37 30 2C 32 39 2C 32 37 2C 36 33  ,25,070,29,27,63
          0020  2C 31 33 35 2C 34 32 2C 33 30 2C 30 31 2C 32 39  ,135,42,30,01,29
          0030  39 2C 2C 33 31 2C 31 36 2C 31 31 36 2C 32 34 2A  9,,31,16,116,24*
          0040  37 31 0D 0A                                      71...
          
19:24:26  0000  24 47 50 47 4C 4C 2C 34 35 33 32 2E 34 33 30 39  $GPGLL,4532.4309
          0010  32 2C 4E 2C 30 37 33 33 37 2E 32 34 37 35 30 2C  2,N,07337.24750,
          0020  57 2C 31 39 32 34 32 36 2E 30 30 2C 41 2C 41 2A  W,192426.00,A,A*
          0030  37 39 0D 0A                                      79...
          
19:24:27  0000  24 47 50 52 4D 43 2C 31 39 32 34 32 37 2E 30 30  $GPRMC,192427.00
          0010  2C 41 2C 34 35 33 32 2E 34 33 30 38 38 2C 4E 2C  ,A,4532.43088,N,
          0020  30 37 33 33 37 2E 32 34 37 34 37 2C 57 2C 30 2E  07337.24747,W,0.
          0030  30 39 37 2C 2C 32 37 31 31 32 35 2C 2C 2C 41 2A  097,,271125,,,A*
          0040  36 30 0D 0A                                      60...
          
19:24:27  0000  24 47 50 56 54 47 2C 2C 54 2C 2C 4D 2C 30 2E 30  $GPVTG,,T,,M,0.0
          0010  39 37 2C 4E 2C 30 2E 31 38 30 2C 4B 2C 41 2A 32  97,N,0.180,K,A*2
          0020  34 0D 0A                                         4...
          
19:24:27  0000  24 47 50 47 47 41 2C 31 39 32 34 32 37 2E 30 30  $GPGGA,192427.00
          0010  2C 34 35 33 32 2E 34 33 30 38 38 2C 4E 2C 30 37  ,4532.43088,N,07
          0020  33 33 37 2E 32 34 37 34 37 2C 57 2C 31 2C 30 39  337.24747,W,1,09
          0030  2C 31 2E 30 30 2C 39 36 2E 37 2C 4D 2C 2D 33 32  ,1.00,96.7,M,-32
          0040  2E 37 2C 4D 2C 2C 2A 35 42 0D 0A                 .7,M,,*5B...
          
19:24:27  0000  24 47 50 47 53 41 2C 41 2C 33 2C 31 36 2C 32 37  $GPGSA,A,3,16,27
          0010  2C 30 39 2C 30 34 2C 30 38 2C 32 36 2C 30 37 2C  ,09,04,08,26,07,
          0020  33 31 2C 31 38 2C 2C 2C 2C 31 2E 39 34 2C 31 2E  31,18,,,,1.94,1.
          0030  30 30 2C 31 2E 36 36 2A 30 31 0D 0A              00,1.66*01...
          
19:24:27  0000  24 47 50 47 53 56 2C 33 2C 31 2C 31 32 2C 30 34  $GPGSV,3,1,12,04
          0010  2C 34 37 2C 32 30 35 2C 34 37 2C 30 37 2C 32 38  ,47,205,47,07,28
          0020  2C 33 30 31 2C 32 36 2C 30 38 2C 34 33 2C 31 38  ,301,26,08,43,18
          0030  34 2C 33 34 2C 30 39 2C 35 31 2C 32 36 38 2C 33  4,34,09,51,268,3
          0040  35 2A 37 32 0D 0A                                5*72...
          
19:24:27  0000  24 47 50 47 53 56 2C 33 2C 32 2C 31 32 2C 31 36  $GPGSV,3,2,12,16
          0010  2C 36 30 2C 30 35 33 2C 33 32 2C 31 38 2C 31 32  ,60,053,32,18,12
          0020  2C 30 35 31 2C 32 31 2C 32 30 2C 30 30 2C 33 32  ,051,21,20,00,32
          0030  35 2C 2C 32 31 2C 30 34 2C 33 32 36 2C 2A 37 36  5,,21,04,326,*76
          0040  0D 0A                                            ...
          
19:24:27  0000  24 47 50 47 53 56 2C 33 2C 33 2C 31 32 2C 32 36  $GPGSV,3,3,12,26
          0010  2C 32 35 2C 30 37 30 2C 32 37 2C 32 37 2C 36 33  ,25,070,27,27,63
          0020  2C 31 33 35 2C 34 31 2C 33 30 2C 30 31 2C 32 39  ,135,41,30,01,29
          0030  39 2C 2C 33 31 2C 31 36 2C 31 31 36 2C 32 34 2A  9,,31,16,116,24*
          0040  37 43 0D 0A                                      7C...
          
19:24:27  0000  24 47 50 47 4C 4C 2C 34 35 33 32 2E 34 33 30 38  $GPGLL,4532.4308
          0010  38 2C 4E 2C 30 37 33 33 37 2E 32 34 37 34 37 2C  8,N,07337.24747,
          0020  57 2C 31 39 32 34 32 37 2E 30 30 2C 41 2C 41 2A  W,192427.00,A,A*
          0030  37 35 0D 0A                                      75...
          
19:24:28  0000  24 47 50 52 4D 43 2C 31 39 32 34 32 38 2E 30 30  $GPRMC,192428.00
          0010  2C 41 2C 34 35 33 32 2E 34 33 30 38 37 2C 4E 2C  ,A,4532.43087,N,
          0020  30 37 33 33 37 2E 32 34 37 35 30 2C 57 2C 30 2E  07337.24750,W,0.
          0030  30 32 37 2C 2C 32 37 31 31 32 35 2C 2C 2C 41 2A  027,,271125,,,A*
          0040  36 44 0D 0A                                      6D...
          
19:24:28  0000  24 47 50 56 54 47 2C 2C 54 2C 2C 4D 2C 30 2E 30  $GPVTG,,T,,M,0.0
          0010  32 37 2C 4E 2C 30 2E 30 35 30 2C 4B 2C 41 2A 32  27,N,0.050,K,A*2
          0020  33 0D 0A                                         3...
          
19:24:28  0000  24 47 50 47 47 41 2C 31 39 32 34 32 38 2E 30 30  $GPGGA,192428.00
          0010  2C 34 35 33 32 2E 34 33 30 38 37 2C 4E 2C 30 37  ,4532.43087,N,07
          0020  33 33 37 2E 32 34 37 35 30 2C 57 2C 31 2C 30 39  337.24750,W,1,09
          0030  2C 31 2E 30 30 2C 39 36 2E 35 2C 4D 2C 2D 33 32  ,1.00,96.5,M,-32
          0040  2E 37 2C 4D 2C 2C 2A 35 46 0D 0A                 .7,M,,*5F...
          
19:24:28  0000  24 47 50 47 53 41 2C 41 2C 33 2C 31 36 2C 32 37  $GPGSA,A,3,16,27
          0010  2C 30 39 2C 30 34 2C 30 38 2C 32 36 2C 30 37 2C  ,09,04,08,26,07,
          0020  33 31 2C 31 38 2C 2C 2C 2C 31 2E 39 34 2C 31 2E  31,18,,,,1.94,1.
          0030  30 30 2C 31 2E 36 36 2A 30 31 0D 0A              00,1.66*01...
          
19:24:28  0000  24 47 50 47 53 56 2C 33 2C 31 2C 31 32 2C 30 34  $GPGSV,3,1,12,04
          0010  2C 34 37 2C 32 30 35 2C 34 37 2C 30 37 2C 32 38  ,47,205,47,07,28
          0020  2C 33 30 31 2C 32 37 2C 30 38 2C 34 33 2C 31 38  ,301,27,08,43,18
          0030  34 2C 33 34 2C 30 39 2C 35 31 2C 32 36 37 2C 33  4,34,09,51,267,3
          0040  35 2A 37 43 0D 0A                                5*7C...
          
19:24:28  0000  24 47 50 47 53 56 2C 33 2C 32 2C 31 32 2C 31 36  $GPGSV,3,2,12,16
          0010  2C 36 30 2C 30 35 33 2C 33 31 2C 31 38 2C 31 32  ,60,053,31,18,12
          0020  2C 30 35 31 2C 32 30 2C 32 30 2C 30 30 2C 33 32  ,051,20,20,00,32
          0030  35 2C 2C 32 31 2C 30 34 2C 33 32 36 2C 2A 37 34  5,,21,04,326,*74
          0040  0D 0A                                            ...
          
19:24:28  0000  24 47 50 47 53 56 2C 33 2C 33 2C 31 32 2C 32 36  $GPGSV,3,3,12,26
          0010  2C 32 35 2C 30 37 30 2C 32 36 2C 32 37 2C 36 33  ,25,070,26,27,63
          0020  2C 31 33 35 2C 34 31 2C 33 30 2C 30 31 2C 32 39  ,135,41,30,01,29
          0030  39 2C 2C 33 31 2C 31 36 2C 31 31 36 2C 32 36 2A  9,,31,16,116,26*
          0040  37 46 0D 0A                                      7F...
          
19:24:28  0000  24 47 50 47 4C 4C 2C 34 35 33 32 2E 34 33 30 38  $GPGLL,4532.4308
          0010  37 2C 4E 2C 30 37 33 33 37 2E 32 34 37 35 30 2C  7,N,07337.24750,
          0020  57 2C 31 39 32 34 32 38 2E 30 30 2C 41 2C 41 2A  W,192428.00,A,A*
          0030  37 33 0D 0A                                      73...
          
19:24:29  0000  24 47 50 52 4D 43 2C 31 39 32 34 32 39 2E 30 30  $GPRMC,192429.00
          0010  2C 41 2C 34 35 33 32 2E 34 33 30 38 39 2C 4E 2C  ,A,4532.43089,N,
          0020  30 37 33 33 37 2E 32 34 37 35 30 2C 57 2C 30 2E  07337.24750,W,0.
          0030  30 34 38 2C 2C 32 37 31 31 32 35 2C 2C 2C 41 2A  048,,271125,,,A*
          0040  36 42 0D 0A                                      6B...
          
19:24:29  0000  24 47 50 56 54 47 2C 2C 54 2C 2C 4D 2C 30 2E 30  $GPVTG,,T,,M,0.0
          0010  34 38 2C 4E 2C 30 2E 30 38 39 2C 4B 2C 41 2A 32  48,N,0.089,K,A*2
          0020  45 0D 0A                                         E...
          
19:24:29  0000  24 47 50 47 47 41 2C 31 39 32 34 32 39 2E 30 30  $GPGGA,192429.00
          0010  2C 34 35 33 32 2E 34 33 30 38 39 2C 4E 2C 30 37  ,4532.43089,N,07
          0020  33 33 37 2E 32 34 37 35 30 2C 57 2C 31 2C 30 39  337.24750,W,1,09
          0030  2C 31 2E 30 30 2C 39 36 2E 31 2C 4D 2C 2D 33 32  ,1.00,96.1,M,-32
          0040  2E 37 2C 4D 2C 2C 2A 35 34 0D 0A                 .7,M,,*54...
          
19:24:29  0000  24 47 50 47 53 41 2C 41 2C 33 2C 31 36 2C 32 37  $GPGSA,A,3,16,27
          0010  2C 30 39 2C 30 34 2C 30 38 2C 32 36 2C 30 37 2C  ,09,04,08,26,07,
          0020  33 31 2C 31 38 2C 2C 2C 2C 31 2E 39 34 2C 31 2E  31,18,,,,1.94,1.
          0030  30 30 2C 31 2E 36 36 2A 30 31 0D 0A              00,1.66*01...
          
19:24:29  0000  24 47 50 47 53 56 2C 33 2C 31 2C 31 32 2C 30 34  $GPGSV,3,1,12,04
          0010  2C 34 37 2C 32 30 35 2C 34 37 2C 30 37 2C 32 38  ,47,205,47,07,28
          0020  2C 33 30 31 2C 32 39 2C 30 38 2C 34 33 2C 31 38  ,301,29,08,43,18
          0030  34 2C 33 34 2C 30 39 2C 35 31 2C 32 36 37 2C 33  4,34,09,51,267,3
          0040  34 2A 37 33 0D 0A                                4*73...
          
19:24:29  0000  24 47 50 47 53 56 2C 33 2C 32 2C 31 32 2C 31 36  $GPGSV,3,2,12,16
          0010  2C 36 30 2C 30 35 33 2C 33 30 2C 31 38 2C 31 32  ,60,053,30,18,12
          0020  2C 30 35 31 2C 32 30 2C 32 30 2C 30 30 2C 33 32  ,051,20,20,00,32
          0030  35 2C 2C 32 31 2C 30 34 2C 33 32 36 2C 2A 37 35  5,,21,04,326,*75
          0040  0D 0A                                            ...
          
19:24:29  0000  24 47 50 47 53 56 2C 33 2C 33 2C 31 32 2C 32 36  $GPGSV,3,3,12,26
          0010  2C 32 35 2C 30 37 30 2C 32 36 2C 32 37 2C 36 33  ,25,070,26,27,63
          0020  2C 31 33 35 2C 34 31 2C 33 30 2C 30 31 2C 32 39  ,135,41,30,01,29
          0030  39 2C 2C 33 31 2C 31 36 2C 31 31 36 2C 32 38 2A  9,,31,16,116,28*
          0040  37 31 0D 0A                                      71...
          
19:24:29  0000  24 47 50 47 4C 4C 2C 34 35 33 32 2E 34 33 30 38  $GPGLL,4532.4308
          0010  39 2C 4E 2C 30 37 33 33 37 2E 32 34 37 35 30 2C  9,N,07337.24750,
          0020  57 2C 31 39 32 34 32 39 2E 30 30 2C 41 2C 41 2A  W,192429.00,A,A*
          0030  37 43 0D 0A                                      7C...
          
19:24:30  0000  24 47 50 52 4D 43 2C 31 39 32 34 33 30 2E 30 30  $GPRMC,192430.00
          0010  2C 41 2C 34 35 33 32 2E 34 33 30 38 38 2C 4E 2C  ,A,4532.43088,N,
          0020  30 37 33 33 37 2E 32 34 37 34 38 2C 57 2C 30 2E  07337.24748,W,0.
          0030  30 35 36 2C 2C 32 37 31 31 32 35 2C 2C 2C 41 2A  056,,271125,,,A*
          0040  36 34 0D 0A                                      64...
          
19:24:30  0000  24 47 50 56 54 47 2C 2C 54 2C 2C 4D 2C 30 2E 30  $GPVTG,,T,,M,0.0
          0010  35 36 2C 4E 2C 30 2E 31 30 33 2C 4B 2C 41 2A 32  56,N,0.103,K,A*2
          0020  32 0D 0A                                         2...
          
19:24:30  0000  24 47 50 47 47 41 2C 31 39 32 34 33 30 2E 30 30  $GPGGA,192430.00
          0010  2C 34 35 33 32 2E 34 33 30 38 38 2C 4E 2C 30 37  ,4532.43088,N,07
          0020  33 33 37 2E 32 34 37 34 38 2C 57 2C 31 2C 30 39  337.24748,W,1,09
          0030  2C 31 2E 30 30 2C 39 35 2E 38 2C 4D 2C 2D 33 32  ,1.00,95.8,M,-32
          0040  2E 37 2C 4D 2C 2C 2A 35 45 0D 0A                 .7,M,,*5E...
          
19:24:30  0000  24 47 50 47 53 41 2C 41 2C 33 2C 31 36 2C 32 37  $GPGSA,A,3,16,27
          0010  2C 30 39 2C 30 34 2C 30 38 2C 32 36 2C 30 37 2C  ,09,04,08,26,07,
          0020  33 31 2C 31 38 2C 2C 2C 2C 31 2E 39 34 2C 31 2E  31,18,,,,1.94,1.
          0030  30 30 2C 31 2E 36 36 2A 30 31 0D 0A              00,1.66*01...
          
19:24:30  0000  24 47 50 47 53 56 2C 33 2C 31 2C 31 32 2C 30 34  $GPGSV,3,1,12,04
          0010  2C 34 37 2C 32 30 35 2C 34 37 2C 30 37 2C 32 38  ,47,205,47,07,28
          0020  2C 33 30 31 2C 31 37 2C 30 38 2C 34 33 2C 31 38  ,301,17,08,43,18
          0030  34 2C 33 34 2C 30 39 2C 35 31 2C 32 36 37 2C 33  4,34,09,51,267,3
          0040  34 2A 37 45 0D 0A                                4*7E...
          
19:24:30  0000  24 47 50 47 53 56 2C 33 2C 32 2C 31 32 2C 31 36  $GPGSV,3,2,12,16
          0010  2C 36 30 2C 30 35 33 2C 33 31 2C 31 38 2C 31 32  ,60,053,31,18,12
          0020  2C 30 35 31 2C 31 39 2C 32 30 2C 30 30 2C 33 32  ,051,19,20,00,32
          0030  35 2C 2C 32 31 2C 30 34 2C 33 32 36 2C 2A 37 45  5,,21,04,326,*7E
          0040  0D 0A                                            ...
          
19:24:30  0000  24 47 50 47 53 56 2C 33 2C 33 2C 31 32 2C 32 36  $GPGSV,3,3,12,26
          0010  2C 32 35 2C 30 37 30 2C 32 35 2C 32 37 2C 36 33  ,25,070,25,27,63
          0020  2C 31 33 35 2C 34 30 2C 33 30 2C 30 31 2C 32 39  ,135,40,30,01,29
          0030  39 2C 2C 33 31 2C 31 36 2C 31 31 36 2C 32 37 2A  9,,31,16,116,27*
          0040  37 43 0D 0A                                      7C...
          
19:24:30  0000  24 47 50 47 4C 4C 2C 34 35 33 32 2E 34 33 30 38  $GPGLL,4532.4308
          0010  38 2C 4E 2C 30 37 33 33 37 2E 32 34 37 34 38 2C  8,N,07337.24748,
          0020  57 2C 31 39 32 34 33 30 2E 30 30 2C 41 2C 41 2A  W,192430.00,A,A*
          0030  37 43 0D 0A                                      7C...
          
19:24:31  0000  24 47 50 52 4D 43 2C 31 39 32 34 33 31 2E 30 30  $GPRMC,192431.00
          0010  2C 41 2C 34 35 33 32 2E 34 33 30 38 39 2C 4E 2C  ,A,4532.43089,N,
          0020  30 37 33 33 37 2E 32 34 37 34 38 2C 57 2C 30 2E  07337.24748,W,0.
          0030  30 36 36 2C 2C 32 37 31 31 32 35 2C 2C 2C 41 2A  066,,271125,,,A*
          0040  36 37 0D 0A                                      67...
          
19:24:31  0000  24 47 50 56 54 47 2C 2C 54 2C 2C 4D 2C 30 2E 30  $GPVTG,,T,,M,0.0
          0010  36 36 2C 4E 2C 30 2E 31 32 32 2C 4B 2C 41 2A 32  66,N,0.122,K,A*2
          0020  32 0D 0A                                         2...
          
19:24:31  0000  24 47 50 47 47 41 2C 31 39 32 34 33 31 2E 30 30  $GPGGA,192431.00
          0010  2C 34 35 33 32 2E 34 33 30 38 39 2C 4E 2C 30 37  ,4532.43089,N,07
          0020  33 33 37 2E 32 34 37 34 38 2C 57 2C 31 2C 30 39  337.24748,W,1,09
          0030  2C 31 2E 30 30 2C 39 35 2E 35 2C 4D 2C 2D 33 32  ,1.00,95.5,M,-32
          0040  2E 37 2C 4D 2C 2C 2A 35 33 0D 0A                 .7,M,,*53...
          
19:24:31  0000  24 47 50 47 53 41 2C 41 2C 33 2C 31 36 2C 32 37  $GPGSA,A,3,16,27
          0010  2C 30 39 2C 30 34 2C 30 38 2C 32 36 2C 30 37 2C  ,09,04,08,26,07,
          0020  33 31 2C 31 38 2C 2C 2C 2C 31 2E 39 34 2C 31 2E  31,18,,,,1.94,1.
          0030  30 30 2C 31 2E 36 36 2A 30 31 0D 0A              00,1.66*01...
          
19:24:31  0000  24 47 50 47 53 56 2C 33 2C 31 2C 31 32 2C 30 34  $GPGSV,3,1,12,04
          0010  2C 34 37 2C 32 30 35 2C 34 37 2C 30 37 2C 32 38  ,47,205,47,07,28
          0020  2C 33 30 31 2C 32 39 2C 30 38 2C 34 33 2C 31 38  ,301,29,08,43,18
          0030  34 2C 33 34 2C 30 39 2C 35 31 2C 32 36 37 2C 33  4,34,09,51,267,3
          0040  34 2A 37 33 0D 0A                                4*73...
          
19:24:31  0000  24 47 50 47 53 56 2C 33 2C 32 2C 31 32 2C 31 36  $GPGSV,3,2,12,16
          0010  2C 36 30 2C 30 35 33 2C 33 30 2C 31 38 2C 31 32  ,60,053,30,18,12
          0020  2C 30 35 31 2C 31 37 2C 32 30 2C 30 30 2C 33 32  ,051,17,20,00,32
          0030  35 2C 2C 32 31 2C 30 34 2C 33 32 36 2C 2A 37 31  5,,21,04,326,*71
          0040  0D 0A                                            ...
          
19:24:31  0000  24 47 50 47 53 56 2C 33 2C 33 2C 31 32 2C 32 36  $GPGSV,3,3,12,26
          0010  2C 32 35 2C 30 37 30 2C 32 35 2C 32 37 2C 36 33  ,25,070,25,27,63
          0020  2C 31 33 35 2C 34 31 2C 33 30 2C 30 31 2C 32 39  ,135,41,30,01,29
          0030  39 2C 2C 33 31 2C 31 36 2C 31 31 36 2C 32 38 2A  9,,31,16,116,28*
          0040  37 32 0D 0A                                      72...
          
19:24:31  0000  24 47 50 47 4C 4C 2C 34 35 33 32 2E 34 33 30 38  $GPGLL,4532.4308
          0010  39 2C 4E 2C 30 37 33 33 37 2E 32 34 37 34 38 2C  9,N,07337.24748,
          0020  57 2C 31 39 32 34 33 31 2E 30 30 2C 41 2C 41 2A  W,192431.00,A,A*
          0030  37 43 0D 0A                                      7C...
          
19:24:32  0000  24 47 50 52 4D 43 2C 31 39 32 34 33 32 2E 30 30  $GPRMC,192432.00
          0010  2C 41 2C 34 35 33 32 2E 34 33 30 38 37 2C 4E 2C  ,A,4532.43087,N,
          0020  30 37 33 33 37 2E 32 34 37 35 32 2C 57 2C 30 2E  07337.24752,W,0.
          0030  30 34 30 2C 2C 32 37 31 31 32 35 2C 2C 2C 41 2A  040,,271125,,,A*
          0040  36 35 0D 0A                                      65...
          
19:24:32  0000  24 47 50 56 54 47 2C 2C 54 2C 2C 4D 2C 30 2E 30  $GPVTG,,T,,M,0.0
          0010  34 30 2C 4E 2C 30 2E 30 37 34 2C 4B 2C 41 2A 32  40,N,0.074,K,A*2
          0020  34 0D 0A                                         4...
          
19:24:32  0000  24 47 50 47 47 41 2C 31 39 32 34 33 32 2E 30 30  $GPGGA,192432.00
          0010  2C 34 35 33 32 2E 34 33 30 38 37 2C 4E 2C 30 37  ,4532.43087,N,07
          0020  33 33 37 2E 32 34 37 35 32 2C 57 2C 31 2C 30 39  337.24752,W,1,09
          0030  2C 31 2E 30 30 2C 39 35 2E 35 2C 4D 2C 2D 33 32  ,1.00,95.5,M,-32
          0040  2E 37 2C 4D 2C 2C 2A 35 35 0D 0A                 .7,M,,*55...
          
19:24:32  0000  24 47 50 47 53 41 2C 41 2C 33 2C 31 36 2C 32 37  $GPGSA,A,3,16,27
          0010  2C 30 39 2C 30 34 2C 30 38 2C 32 36 2C 30 37 2C  ,09,04,08,26,07,
          0020  33 31 2C 31 38 2C 2C 2C 2C 31 2E 39 34 2C 31 2E  31,18,,,,1.94,1.
          0030  30 30 2C 31 2E 36 36 2A 30 31 0D 0A              00,1.66*01...
          
19:24:32  0000  24 47 50 47 53 56 2C 33 2C 31 2C 31 32 2C 30 34  $GPGSV,3,1,12,04
          0010  2C 34 37 2C 32 30 35 2C 34 37 2C 30 37 2C 32 38  ,47,205,47,07,28
          0020  2C 33 30 31 2C 32 31 2C 30 38 2C 34 33 2C 31 38  ,301,21,08,43,18
          0030  34 2C 33 35 2C 30 39 2C 35 31 2C 32 36 37 2C 33  4,35,09,51,267,3
          0040  34 2A 37 41 0D 0A                                4*7A...
          
19:24:32  0000  24 47 50 47 53 56 2C 33 2C 32 2C 31 32 2C 31 36  $GPGSV,3,2,12,16
          0010  2C 36 30 2C 30 35 33 2C 33 30 2C 31 38 2C 31 32  ,60,053,30,18,12
          0020  2C 30 35 31 2C 31 35 2C 32 30 2C 30 30 2C 33 32  ,051,15,20,00,32
          0030  35 2C 2C 32 31 2C 30 34 2C 33 32 36 2C 2A 37 33  5,,21,04,326,*73
          0040  0D 0A                                            ...
          
19:24:32  0000  24 47 50 47 53 56 2C 33 2C 33 2C 31 32 2C 32 36  $GPGSV,3,3,12,26
          0010  2C 32 35 2C 30 37 30 2C 32 35 2C 32 37 2C 36 33  ,25,070,25,27,63
          0020  2C 31 33 35 2C 34 31 2C 33 30 2C 30 31 2C 32 39  ,135,41,30,01,29
          0030  39 2C 2C 33 31 2C 31 36 2C 31 31 36 2C 32 38 2A  9,,31,16,116,28*
          0040  37 32 0D 0A                                      72...
          
19:24:32  0000  24 47 50 47 4C 4C 2C 34 35 33 32 2E 34 33 30 38  $GPGLL,4532.4308
          0010  37 2C 4E 2C 30 37 33 33 37 2E 32 34 37 35 32 2C  7,N,07337.24752,
          0020  57 2C 31 39 32 34 33 32 2E 30 30 2C 41 2C 41 2A  W,192432.00,A,A*
          0030  37 41 0D 0A                                      7A...
          
19:24:33  0000  24 47 50 52 4D 43 2C 31 39 32 34 33 33 2E 30 30  $GPRMC,192433.00
          0010  2C 41 2C 34 35 33 32 2E 34 33 30 38 34 2C 4E 2C  ,A,4532.43084,N,
          0020  30 37 33 33 37 2E 32 34 37 35 34 2C 57 2C 30 2E  07337.24754,W,0.
          0030  30 32 34 2C 2C 32 37 31 31 32 35 2C 2C 2C 41 2A  024,,271125,,,A*
          0040  36 33 0D 0A                                      63...
          
19:24:33  0000  24 47 50 56 54 47 2C 2C 54 2C 2C 4D 2C 30 2E 30  $GPVTG,,T,,M,0.0
          0010  32 34 2C 4E 2C 30 2E 30 34 35 2C 4B 2C 41 2A 32  24,N,0.045,K,A*2
          0020  34 0D 0A                                         4...
          
19:24:33  0000  24 47 50 47 47 41 2C 31 39 32 34 33 33 2E 30 30  $GPGGA,192433.00
          0010  2C 34 35 33 32 2E 34 33 30 38 34 2C 4E 2C 30 37  ,4532.43084,N,07
          0020  33 33 37 2E 32 34 37 35 34 2C 57 2C 31 2C 30 39  337.24754,W,1,09
          0030  2C 31 2E 30 30 2C 39 35 2E 34 2C 4D 2C 2D 33 32  ,1.00,95.4,M,-32
          0040  2E 37 2C 4D 2C 2C 2A 35 30 0D 0A                 .7,M,,*50...
          
19:24:33  0000  24 47 50 47 53 41 2C 41 2C 33 2C 31 36 2C 32 37  $GPGSA,A,3,16,27
          0010  2C 30 39 2C 30 34 2C 30 38 2C 32 36 2C 30 37 2C  ,09,04,08,26,07,
          0020  33 31 2C 31 38 2C 2C 2C 2C 31 2E 39 34 2C 31 2E  31,18,,,,1.94,1.
          0030  30 30 2C 31 2E 36 36 2A 30 31 0D 0A              00,1.66*01...
          
19:24:33  0000  24 47 50 47 53 56 2C 33 2C 31 2C 31 32 2C 30 34  $GPGSV,3,1,12,04
          0010  2C 34 37 2C 32 30 35 2C 34 37 2C 30 37 2C 32 38  ,47,205,47,07,28
          0020  2C 33 30 31 2C 32 35 2C 30 38 2C 34 33 2C 31 38  ,301,25,08,43,18
          0030  34 2C 33 35 2C 30 39 2C 35 31 2C 32 36 37 2C 33  4,35,09,51,267,3
          0040  34 2A 37 45 0D 0A                                4*7E...
          
19:24:33  0000  24 47 50 47 53 56 2C 33 2C 32 2C 31 32 2C 31 36  $GPGSV,3,2,12,16
          0010  2C 36 30 2C 30 35 33 2C 33 30 2C 31 38 2C 31 32  ,60,053,30,18,12
          0020  2C 30 35 31 2C 31 34 2C 32 30 2C 30 30 2C 33 32  ,051,14,20,00,32
          0030  35 2C 2C 32 31 2C 30 34 2C 33 32 36 2C 2A 37 32  5,,21,04,326,*72
          0040  0D 0A                                            ...
          
19:24:33  0000  24 47 50 47 53 56 2C 33 2C 33 2C 31 32 2C 32 36  $GPGSV,3,3,12,26
          0010  2C 32 35 2C 30 37 30 2C 32 37 2C 32 37 2C 36 33  ,25,070,27,27,63
          0020  2C 31 33 35 2C 34 30 2C 33 30 2C 30 31 2C 32 39  ,135,40,30,01,29
          0030  39 2C 2C 33 31 2C 31 36 2C 31 31 36 2C 32 38 2A  9,,31,16,116,28*
          0040  37 31 0D 0A                                      71...
          
19:24:33  0000  24 47 50 47 4C 4C 2C 34 35 33 32 2E 34 33 30 38  $GPGLL,4532.4308
          0010  34 2C 4E 2C 30 37 33 33 37 2E 32 34 37 35 34 2C  4,N,07337.24754,
          0020  57 2C 31 39 32 34 33 33 2E 30 30 2C 41 2C 41 2A  W,192433.00,A,A*
          0030  37 45 0D 0A                                      7E...
          
19:24:34  0000  24 47 50 52 4D 43 2C 31 39 32 34 33 34 2E 30 30  $GPRMC,192434.00
          0010  2C 41 2C 34 35 33 32 2E 34 33 30 38 33 2C 4E 2C  ,A,4532.43083,N,
          0020  30 37 33 33 37 2E 32 34 37 35 37 2C 57 2C 30 2E  07337.24757,W,0.
          0030  30 37 36 2C 2C 32 37 31 31 32 35 2C 2C 2C 41 2A  076,,271125,,,A*
          0040  36 37 0D 0A                                      67...
          
19:24:34  0000  24 47 50 56 54 47 2C 2C 54 2C 2C 4D 2C 30 2E 30  $GPVTG,,T,,M,0.0
          0010  37 36 2C 4E 2C 30 2E 31 34 31 2C 4B 2C 41 2A 32  76,N,0.141,K,A*2
          0020  36 0D 0A                                         6...
          
19:24:34  0000  24 47 50 47 47 41 2C 31 39 32 34 33 34 2E 30 30  $GPGGA,192434.00
          0010  2C 34 35 33 32 2E 34 33 30 38 33 2C 4E 2C 30 37  ,4532.43083,N,07
          0020  33 33 37 2E 32 34 37 35 37 2C 57 2C 31 2C 30 39  337.24757,W,1,09
          0030  2C 31 2E 30 30 2C 39 35 2E 33 2C 4D 2C 2D 33 32  ,1.00,95.3,M,-32
          0040  2E 37 2C 4D 2C 2C 2A 35 34 0D 0A                 .7,M,,*54...
          
19:24:34  0000  24 47 50 47 53 41 2C 41 2C 33 2C 31 36 2C 32 37  $GPGSA,A,3,16,27
          0010  2C 30 39 2C 30 34 2C 30 38 2C 32 36 2C 30 37 2C  ,09,04,08,26,07,
          0020  33 31 2C 31 38 2C 2C 2C 2C 31 2E 39 34 2C 31 2E  31,18,,,,1.94,1.
          0030  30 30 2C 31 2E 36 36 2A 30 31 0D 0A              00,1.66*01...
          
19:24:34  0000  24 47 50 47 53 56 2C 33 2C 31 2C 31 32 2C 30 34  $GPGSV,3,1,12,04
          0010  2C 34 37 2C 32 30 35 2C 34 37 2C 30 37 2C 32 38  ,47,205,47,07,28
          0020  2C 33 30 31 2C 32 35 2C 30 38 2C 34 33 2C 31 38  ,301,25,08,43,18
          0030  34 2C 33 35 2C 30 39 2C 35 31 2C 32 36 37 2C 33  4,35,09,51,267,3
          0040  34 2A 37 45 0D 0A                                4*7E...
          
19:24:34  0000  24 47 50 47 53 56 2C 33 2C 32 2C 31 32 2C 31 36  $GPGSV,3,2,12,16
          0010  2C 36 30 2C 30 35 33 2C 33 30 2C 31 38 2C 31 32  ,60,053,30,18,12
          0020  2C 30 35 31 2C 31 37 2C 32 30 2C 30 30 2C 33 32  ,051,17,20,00,32
          0030  35 2C 2C 32 31 2C 30 34 2C 33 32 36 2C 2A 37 31  5,,21,04,326,*71
          0040  0D 0A                                            ...
          
19:24:34  0000  24 47 50 47 53 56 2C 33 2C 33 2C 31 32 2C 32 36  $GPGSV,3,3,12,26
          0010  2C 32 35 2C 30 37 30 2C 32 37 2C 32 37 2C 36 33  ,25,070,27,27,63
          0020  2C 31 33 35 2C 34 31 2C 33 30 2C 30 31 2C 32 39  ,135,41,30,01,29
          0030  39 2C 2C 33 31 2C 31 36 2C 31 31 36 2C 32 37 2A  9,,31,16,116,27*
          0040  37 46 0D 0A                                      7F...
          
19:24:34  0000  24 47 50 47 4C 4C 2C 34 35 33 32 2E 34 33 30 38  $GPGLL,4532.4308
          0010  33 2C 4E 2C 30 37 33 33 37 2E 32 34 37 35 37 2C  3,N,07337.24757,
          0020  57 2C 31 39 32 34 33 34 2E 30 30 2C 41 2C 41 2A  W,192434.00,A,A*
          0030  37 44 0D 0A                                      7D...
          
19:24:34  0000  B5 62 0A 04 00 00 0E 34                          µb.....4.
          
19:24:35  0000  24 47 50 52 4D 43 2C 31 39 32 34 33 35 2E 30 30  $GPRMC,192435.00
          0010  2C 41 2C 34 35 33 32 2E 34 33 30 38 33 2C 4E 2C  ,A,4532.43083,N,
          0020  30 37 33 33 37 2E 32 34 37 36 31 2C 57 2C 30 2E  07337.24761,W,0.
          0030  30 35 33 2C 2C 32 37 31 31 32 35 2C 2C 2C 41 2A  053,,271125,,,A*
          0040  36 34 0D 0A                                      64...
          
19:24:35  0000  24 47 50 56 54 47 2C 2C 54 2C 2C 4D 2C 30 2E 30  $GPVTG,,T,,M,0.0
          0010  35 33 2C 4E 2C 30 2E 30 39 38 2C 4B 2C 41 2A 32  53,N,0.098,K,A*2
          0020  34 0D 0A                                         4...
          
19:24:35  0000  24 47 50 47 47 41 2C 31 39 32 34 33 35 2E 30 30  $GPGGA,192435.00
          0010  2C 34 35 33 32 2E 34 33 30 38 33 2C 4E 2C 30 37  ,4532.43083,N,07
          0020  33 33 37 2E 32 34 37 36 31 2C 57 2C 31 2C 30 39  337.24761,W,1,09
          0030  2C 31 2E 30 30 2C 39 35 2E 32 2C 4D 2C 2D 33 32  ,1.00,95.2,M,-32
          0040  2E 37 2C 4D 2C 2C 2A 35 31 0D 0A                 .7,M,,*51...
          
19:24:35  0000  24 47 50 47 53 41 2C 41 2C 33 2C 31 36 2C 32 37  $GPGSA,A,3,16,27
          0010  2C 30 39 2C 30 34 2C 30 38 2C 32 36 2C 30 37 2C  ,09,04,08,26,07,
          0020  33 31 2C 31 38 2C 2C 2C 2C 31 2E 39 34 2C 31 2E  31,18,,,,1.94,1.
          0030  30 30 2C 31 2E 36 36 2A 30 31 0D 0A              00,1.66*01...
          
19:24:35  0000  24 47 50 47 53 56 2C 33 2C 31 2C 31 32 2C 30 34  $GPGSV,3,1,12,04
          0010  2C 34 37 2C 32 30 35 2C 34 37 2C 30 37 2C 32 38  ,47,205,47,07,28
          0020  2C 33 30 31 2C 32 36 2C 30 38 2C 34 33 2C 31 38  ,301,26,08,43,18
          0030  34 2C 33 35 2C 30 39 2C 35 31 2C 32 36 37 2C 33  4,35,09,51,267,3
          0040  34 2A 37 44 0D 0A                                4*7D...
          
19:24:35  0000  24 47 50 47 53 56 2C 33 2C 32 2C 31 32 2C 31 36  $GPGSV,3,2,12,16
          0010  2C 36 30 2C 30 35 34 2C 33 30 2C 31 38 2C 31 32  ,60,054,30,18,12
          0020  2C 30 35 31 2C 31 38 2C 32 30 2C 30 30 2C 33 32  ,051,18,20,00,32
          0030  35 2C 2C 32 31 2C 30 34 2C 33 32 36 2C 2A 37 39  5,,21,04,326,*79
          0040  0D 0A                                            ...
          
19:24:35  0000  24 47 50 47 53 56 2C 33 2C 33 2C 31 32 2C 32 36  $GPGSV,3,3,12,26
          0010  2C 32 35 2C 30 37 30 2C 32 39 2C 32 37 2C 36 33  ,25,070,29,27,63
          0020  2C 31 33 35 2C 34 31 2C 33 30 2C 30 31 2C 32 39  ,135,41,30,01,29
          0030  39 2C 2C 33 31 2C 31 36 2C 31 31 36 2C 32 37 2A  9,,31,16,116,27*
          0040  37 31 0D 0A                                      71...
          
19:24:35  0000  24 47 50 47 4C 4C 2C 34 35 33 32 2E 34 33 30 38  $GPGLL,4532.4308
          0010  33 2C 4E 2C 30 37 33 33 37 2E 32 34 37 36 31 2C  3,N,07337.24761,
          0020  57 2C 31 39 32 34 33 35 2E 30 30 2C 41 2C 41 2A  W,192435.00,A,A*
          0030  37 39 0D 0A                                      79...
          
19:24:35  0000  B5 62 0A 04 00 00 0E 34                          µb.....4.
          
19:24:36  0000  24 47 50 52 4D 43 2C 31 39 32 34 33 36 2E 30 30  $GPRMC,192436.00
          0010  2C 41 2C 34 35 33 32 2E 34 33 30 38 33 2C 4E 2C  ,A,4532.43083,N,
          0020  30 37 33 33 37 2E 32 34 37 36 36 2C 57 2C 30 2E  07337.24766,W,0.
          0030  30 35 38 2C 2C 32 37 31 31 32 35 2C 2C 2C 41 2A  058,,271125,,,A*
          0040  36 42 0D 0A                                      6B...
          
19:24:36  0000  24 47 50 56 54 47 2C 2C 54 2C 2C 4D 2C 30 2E 30  $GPVTG,,T,,M,0.0
          0010  35 38 2C 4E 2C 30 2E 31 30 38 2C 4B 2C 41 2A 32  58,N,0.108,K,A*2
          0020  37 0D 0A                                         7...
          
19:24:36  0000  24 47 50 47 47 41 2C 31 39 32 34 33 36 2E 30 30  $GPGGA,192436.00
          0010  2C 34 35 33 32 2E 34 33 30 38 33 2C 4E 2C 30 37  ,4532.43083,N,07
          0020  33 33 37 2E 32 34 37 36 36 2C 57 2C 31 2C 30 39  337.24766,W,1,09
          0030  2C 31 2E 30 30 2C 39 35 2E 32 2C 4D 2C 2D 33 32  ,1.00,95.2,M,-32
          0040  2E 37 2C 4D 2C 2C 2A 35 35 0D 0A                 .7,M,,*55...
          
19:24:36  0000  24 47 50 47 53 41 2C 41 2C 33 2C 31 36 2C 32 37  $GPGSA,A,3,16,27
          0010  2C 30 39 2C 30 34 2C 30 38 2C 32 36 2C 30 37 2C  ,09,04,08,26,07,
          0020  33 31 2C 31 38 2C 2C 2C 2C 31 2E 39 34 2C 31 2E  31,18,,,,1.94,1.
          0030  30 30 2C 31 2E 36 36 2A 30 31 0D 0A              00,1.66*01...
          
19:24:36  0000  24 47 50 47 53 56 2C 33 2C 31 2C 31 32 2C 30 34  $GPGSV,3,1,12,04
          0010  2C 34 37 2C 32 30 35 2C 34 37 2C 30 37 2C 32 38  ,47,205,47,07,28
          0020  2C 33 30 31 2C 32 37 2C 30 38 2C 34 33 2C 31 38  ,301,27,08,43,18
          0030  34 2C 33 35 2C 30 39 2C 35 31 2C 32 36 37 2C 33  4,35,09,51,267,3
          0040  34 2A 37 43 0D 0A                                4*7C...
          
19:24:36  0000  24 47 50 47 53 56 2C 33 2C 32 2C 31 32 2C 31 36  $GPGSV,3,2,12,16
          0010  2C 36 30 2C 30 35 34 2C 33 30 2C 31 38 2C 31 32  ,60,054,30,18,12
          0020  2C 30 35 31 2C 32 30 2C 32 30 2C 30 30 2C 33 32  ,051,20,20,00,32
          0030  35 2C 2C 32 31 2C 30 34 2C 33 32 36 2C 2A 37 32  5,,21,04,326,*72
          0040  0D 0A                                            ...
          
19:24:36  0000  24 47 50 47 53 56 2C 33 2C 33 2C 31 32 2C 32 36  $GPGSV,3,3,12,26
          0010  2C 32 35 2C 30 37 30 2C 32 39 2C 32 37 2C 36 33  ,25,070,29,27,63
          0020  2C 31 33 35 2C 34 31 2C 33 30 2C 30 31 2C 32 39  ,135,41,30,01,29
          0030  39 2C 2C 33 31 2C 31 36 2C 31 31 36 2C 32 38 2A  9,,31,16,116,28*
          0040  37 45 0D 0A                                      7E...
          
19:24:36  0000  24 47 50 47 4C 4C 2C 34 35 33 32 2E 34 33 30 38  $GPGLL,4532.4308
          0010  33 2C 4E 2C 30 37 33 33 37 2E 32 34 37 36 36 2C  3,N,07337.24766,
          0020  57 2C 31 39 32 34 33 36 2E 30 30 2C 41 2C 41 2A  W,192436.00,A,A*
          0030  37 44 0D 0A                                      7D...
          
19:24:36  0000  B5 62 06 13 00 00 19 51                          µb.....Q.
          
19:24:37  0000  24 47 50 52 4D 43 2C 31 39 32 34 33 37 2E 30 30  $GPRMC,192437.00
          0010  2C 41 2C 34 35 33 32 2E 34 33 30 38 36 2C 4E 2C  ,A,4532.43086,N,
          0020  30 37 33 33 37 2E 32 34 37 36 39 2C 57 2C 30 2E  07337.24769,W,0.
          0030  31 32 30 2C 2C 32 37 31 31 32 35 2C 2C 2C 41 2A  120,,271125,,,A*
          0040  36 45 0D 0A                                      6E...
          
19:24:37  0000  24 47 50 56 54 47 2C 2C 54 2C 2C 4D 2C 30 2E 31  $GPVTG,,T,,M,0.1
          0010  32 30 2C 4E 2C 30 2E 32 32 32 2C 4B 2C 41 2A 32  20,N,0.222,K,A*2
          0020  32 0D 0A                                         2...
          
19:24:37  0000  24 47 50 47 47 41 2C 31 39 32 34 33 37 2E 30 30  $GPGGA,192437.00
          0010  2C 34 35 33 32 2E 34 33 30 38 36 2C 4E 2C 30 37  ,4532.43086,N,07
          0020  33 33 37 2E 32 34 37 36 39 2C 57 2C 31 2C 30 39  337.24769,W,1,09
          0030  2C 31 2E 30 30 2C 39 35 2E 31 2C 4D 2C 2D 33 32  ,1.00,95.1,M,-32
          0040  2E 37 2C 4D 2C 2C 2A 35 44 0D 0A                 .7,M,,*5D...
          
19:24:37  0000  24 47 50 47 53 41 2C 41 2C 33 2C 31 36 2C 32 37  $GPGSA,A,3,16,27
          0010  2C 30 39 2C 30 34 2C 30 38 2C 32 36 2C 30 37 2C  ,09,04,08,26,07,
          0020  33 31 2C 31 38 2C 2C 2C 2C 31 2E 39 34 2C 31 2E  31,18,,,,1.94,1.
          0030  30 30 2C 31 2E 36 36 2A 30 31 0D 0A              00,1.66*01...
          
19:24:37  0000  24 47 50 47 53 56 2C 33 2C 31 2C 31 32 2C 30 34  $GPGSV,3,1,12,04
          0010  2C 34 37 2C 32 30 35 2C 34 37 2C 30 37 2C 32 38  ,47,205,47,07,28
          0020  2C 33 30 31 2C 32 38 2C 30 38 2C 34 33 2C 31 38  ,301,28,08,43,18
          0030  34 2C 33 35 2C 30 39 2C 35 31 2C 32 36 37 2C 33  4,35,09,51,267,3
          0040  34 2A 37 33 0D 0A                                4*73...
          
19:24:37  0000  24 47 50 47 53 56 2C 33 2C 32 2C 31 32 2C 31 36  $GPGSV,3,2,12,16
          0010  2C 36 30 2C 30 35 34 2C 33 30 2C 31 38 2C 31 33  ,60,054,30,18,13
          0020  2C 30 35 31 2C 32 31 2C 32 30 2C 30 30 2C 33 32  ,051,21,20,00,32
          0030  35 2C 2C 32 31 2C 30 34 2C 33 32 36 2C 2A 37 32  5,,21,04,326,*72
          0040  0D 0A                                            ...
          
19:24:37  0000  24 47 50 47 53 56 2C 33 2C 33 2C 31 32 2C 32 36  $GPGSV,3,3,12,26
          0010  2C 32 35 2C 30 37 30 2C 32 39 2C 32 37 2C 36 33  ,25,070,29,27,63
          0020  2C 31 33 35 2C 34 31 2C 33 30 2C 30 31 2C 32 39  ,135,41,30,01,29
          0030  39 2C 2C 33 31 2C 31 36 2C 31 31 36 2C 32 38 2A  9,,31,16,116,28*
          0040  37 45 0D 0A                                      7E...
          
19:24:37  0000  24 47 50 47 4C 4C 2C 34 35 33 32 2E 34 33 30 38  $GPGLL,4532.4308
          0010  36 2C 4E 2C 30 37 33 33 37 2E 32 34 37 36 39 2C  6,N,07337.24769,
          0020  57 2C 31 39 32 34 33 37 2E 30 30 2C 41 2C 41 2A  W,192437.00,A,A*
          0030  37 36 0D 0A                                      76...
          
19:24:38  0000  24 47 50 52 4D 43 2C 31 39 32 34 33 38 2E 30 30  $GPRMC,192438.00
          0010  2C 41 2C 34 35 33 32 2E 34 33 30 38 37 2C 4E 2C  ,A,4532.43087,N,
          0020  30 37 33 33 37 2E 32 34 37 37 32 2C 57 2C 30 2E  07337.24772,W,0.
          0030  30 32 32 2C 2C 32 37 31 31 32 35 2C 2C 2C 41 2A  022,,271125,,,A*
          0040  36 39 0D 0A                                      69...
          
19:24:38  0000  24 47 50 56 54 47 2C 2C 54 2C 2C 4D 2C 30 2E 30  $GPVTG,,T,,M,0.0
          0010  32 32 2C 4E 2C 30 2E 30 34 30 2C 4B 2C 41 2A 32  22,N,0.040,K,A*2
          0020  37 0D 0A                                         7...
          
19:24:38  0000  24 47 50 47 47 41 2C 31 39 32 34 33 38 2E 30 30  $GPGGA,192438.00
          0010  2C 34 35 33 32 2E 34 33 30 38 37 2C 4E 2C 30 37  ,4532.43087,N,07
          0020  33 33 37 2E 32 34 37 37 32 2C 57 2C 31 2C 30 39  337.24772,W,1,09
          0030  2C 31 2E 30 30 2C 39 35 2E 30 2C 4D 2C 2D 33 32  ,1.00,95.0,M,-32
          0040  2E 37 2C 4D 2C 2C 2A 35 38 0D 0A                 .7,M,,*58...
          
19:24:38  0000  24 47 50 47 53 41 2C 41 2C 33 2C 31 36 2C 32 37  $GPGSA,A,3,16,27
          0010  2C 30 39 2C 30 34 2C 30 38 2C 32 36 2C 30 37 2C  ,09,04,08,26,07,
          0020  33 31 2C 31 38 2C 2C 2C 2C 31 2E 39 34 2C 31 2E  31,18,,,,1.94,1.
          0030  30 30 2C 31 2E 36 36 2A 30 31 0D 0A              00,1.66*01...
          
19:24:38  0000  B5 62 06 13 00 00 19 51                          µb.....Q.
          
19:24:38  0000  24 47 50 47 53 56 2C 33 2C 31 2C 31 32 2C 30 34  $GPGSV,3,1,12,04
          0010  2C 34 37 2C 32 30 35 2C 34 37 2C 30 37 2C 32 38  ,47,205,47,07,28
          0020  2C 33 30 31 2C 32 38 2C 30 38 2C 34 33 2C 31 38  ,301,28,08,43,18
          0030  34 2C 33 34 2C 30 39 2C 35 31 2C 32 36 37 2C 33  4,34,09,51,267,3
          0040  33 2A 37 35 0D 0A                                3*75...
          
19:24:38  0000  24 47 50 47 53 56 2C 33 2C 32 2C 31 32 2C 31 36  $GPGSV,3,2,12,16
          0010  2C 36 30 2C 30 35 34 2C 33 30 2C 31 38 2C 31 33  ,60,054,30,18,13
          0020  2C 30 35 31 2C 31 39 2C 32 30 2C 30 30 2C 33 32  ,051,19,20,00,32
          0030  35 2C 2C 32 31 2C 30 34 2C 33 32 36 2C 2A 37 39  5,,21,04,326,*79
          0040  0D 0A                                            ...
          
19:24:38  0000  24 47 50 47 53 56 2C 33 2C 33 2C 31 32 2C 32 36  $GPGSV,3,3,12,26
          0010  2C 32 35 2C 30 37 30 2C 32 37 2C 32 37 2C 36 33  ,25,070,27,27,63
          0020  2C 31 33 35 2C 34 31 2C 33 30 2C 30 31 2C 32 39  ,135,41,30,01,29
          0030  39 2C 2C 33 31 2C 31 36 2C 31 31 36 2C 32 37 2A  9,,31,16,116,27*
          0040  37 46 0D 0A                                      7F...
          
19:24:38  0000  24 47 50 47 4C 4C 2C 34 35 33 32 2E 34 33 30 38  $GPGLL,4532.4308
          0010  37 2C 4E 2C 30 37 33 33 37 2E 32 34 37 37 32 2C  7,N,07337.24772,
          0020  57 2C 31 39 32 34 33 38 2E 30 30 2C 41 2C 41 2A  W,192438.00,A,A*
          0030  37 32 0D 0A                                      72...
          
19:24:39  0000  24 47 50 52 4D 43 2C 31 39 32 34 33 39 2E 30 30  $GPRMC,192439.00
          0010  2C 41 2C 34 35 33 32 2E 34 33 30 38 39 2C 4E 2C  ,A,4532.43089,N,
          0020  30 37 33 33 37 2E 32 34 37 38 30 2C 57 2C 30 2E  07337.24780,W,0.
          0030  30 33 33 2C 2C 32 37 31 31 32 35 2C 2C 2C 41 2A  033,,271125,,,A*
          0040  36 42 0D 0A                                      6B...
          
19:24:39  0000  24 47 50 56 54 47 2C 2C 54 2C 2C 4D 2C 30 2E 30  $GPVTG,,T,,M,0.0
          0010  33 33 2C 4E 2C 30 2E 30 36 32 2C 4B 2C 41 2A 32  33,N,0.062,K,A*2
          0020  37 0D 0A                                         7...
          
19:24:39  0000  24 47 50 47 47 41 2C 31 39 32 34 33 39 2E 30 30  $GPGGA,192439.00
          0010  2C 34 35 33 32 2E 34 33 30 38 39 2C 4E 2C 30 37  ,4532.43089,N,07
          0020  33 33 37 2E 32 34 37 38 30 2C 57 2C 31 2C 30 39  337.24780,W,1,09
          0030  2C 31 2E 30 30 2C 39 34 2E 39 2C 4D 2C 2D 33 32  ,1.00,94.9,M,-32
          0040  2E 37 2C 4D 2C 2C 2A 35 32 0D 0A                 .7,M,,*52...
          
19:24:39  0000  24 47 50 47 53 41 2C 41 2C 33 2C 31 36 2C 32 37  $GPGSA,A,3,16,27
          0010  2C 30 39 2C 30 34 2C 30 38 2C 32 36 2C 30 37 2C  ,09,04,08,26,07,
          0020  33 31 2C 31 38 2C 2C 2C 2C 31 2E 39 34 2C 31 2E  31,18,,,,1.94,1.
          0030  30 30 2C 31 2E 36 36 2A 30 31 0D 0A              00,1.66*01...
          
19:24:39  0000  24 47 50 47 53 56 2C 33 2C 31 2C 31 32 2C 30 34  $GPGSV,3,1,12,04
          0010  2C 34 37 2C 32 30 35 2C 34 37 2C 30 37 2C 32 38  ,47,205,47,07,28
          0020  2C 33 30 31 2C 32 39 2C 30 38 2C 34 33 2C 31 38  ,301,29,08,43,18
          0030  34 2C 33 34 2C 30 39 2C 35 31 2C 32 36 37 2C 33  4,34,09,51,267,3
          0040  34 2A 37 33 0D 0A                                4*73...
          
19:24:39  0000  24 47 50 47 53 56 2C 33 2C 32 2C 31 32 2C 31 36  $GPGSV,3,2,12,16
          0010  2C 36 30 2C 30 35 34 2C 33 30 2C 31 38 2C 31 33  ,60,054,30,18,13
          0020  2C 30 35 31 2C 31 38 2C 32 30 2C 30 30 2C 33 32  ,051,18,20,00,32
          0030  35 2C 2C 32 31 2C 30 34 2C 33 32 36 2C 2A 37 38  5,,21,04,326,*78
          0040  0D 0A                                            ...
          
19:24:39  0000  24 47 50 47 53 56 2C 33 2C 33 2C 31 32 2C 32 36  $GPGSV,3,3,12,26
          0010  2C 32 35 2C 30 37 30 2C 32 37 2C 32 37 2C 36 33  ,25,070,27,27,63
          0020  2C 31 33 35 2C 34 31 2C 33 30 2C 30 31 2C 32 39  ,135,41,30,01,29
          0030  39 2C 2C 33 31 2C 31 36 2C 31 31 36 2C 32 38 2A  9,,31,16,116,28*
          0040  37 30 0D 0A                                      70...
          
19:24:39  0000  24 47 50 47 4C 4C 2C 34 35 33 32 2E 34 33 30 38  $GPGLL,4532.4308
          0010  39 2C 4E 2C 30 37 33 33 37 2E 32 34 37 38 30 2C  9,N,07337.24780,
          0020  57 2C 31 39 32 34 33 39 2E 30 30 2C 41 2C 41 2A  W,192439.00,A,A*
          0030  37 30 0D 0A                                      70...
          
19:24:39  0000  B5 62 06 06 00 00 0C 2A                          µb.....*.
          
19:24:40  0000  24 47 50 52 4D 43 2C 31 39 32 34 34 30 2E 30 30  $GPRMC,192440.00
          0010  2C 41 2C 34 35 33 32 2E 34 33 30 38 38 2C 4E 2C  ,A,4532.43088,N,
          0020  30 37 33 33 37 2E 32 34 37 38 37 2C 57 2C 30 2E  07337.24787,W,0.
          0030  30 31 31 2C 2C 32 37 31 31 32 35 2C 2C 2C 41 2A  011,,271125,,,A*
          0040  36 33 0D 0A                                      63...
          
19:24:40  0000  24 47 50 56 54 47 2C 2C 54 2C 2C 4D 2C 30 2E 30  $GPVTG,,T,,M,0.0
          0010  31 31 2C 4E 2C 30 2E 30 32 31 2C 4B 2C 41 2A 32  11,N,0.021,K,A*2
          0020  30 0D 0A                                         0...
          
19:24:40  0000  24 47 50 47 47 41 2C 31 39 32 34 34 30 2E 30 30  $GPGGA,192440.00
          0010  2C 34 35 33 32 2E 34 33 30 38 38 2C 4E 2C 30 37  ,4532.43088,N,07
          0020  33 33 37 2E 32 34 37 38 37 2C 57 2C 31 2C 30 39  337.24787,W,1,09
          0030  2C 31 2E 30 30 2C 39 34 2E 39 2C 4D 2C 2D 33 32  ,1.00,94.9,M,-32
          0040  2E 37 2C 4D 2C 2C 2A 35 41 0D 0A                 .7,M,,*5A...
          
19:24:40  0000  24 47 50 47 53 41 2C 41 2C 33 2C 31 36 2C 32 37  $GPGSA,A,3,16,27
          0010  2C 30 39 2C 30 34 2C 30 38 2C 32 36 2C 30 37 2C  ,09,04,08,26,07,
          0020  33 31 2C 31 38 2C 2C 2C 2C 31 2E 39 34 2C 31 2E  31,18,,,,1.94,1.
          0030  30 30 2C 31 2E 36 36 2A 30 31 0D 0A              00,1.66*01...
          
19:24:40  0000  24 47 50 47 53 56 2C 33 2C 31 2C 31 32 2C 30 34  $GPGSV,3,1,12,04
          0010  2C 34 37 2C 32 30 35 2C 34 37 2C 30 37 2C 32 38  ,47,205,47,07,28
          0020  2C 33 30 31 2C 33 30 2C 30 38 2C 34 33 2C 31 38  ,301,30,08,43,18
          0030  34 2C 33 34 2C 30 39 2C 35 31 2C 32 36 37 2C 33  4,34,09,51,267,3
          0040  33 2A 37 43 0D 0A                                3*7C...
          
19:24:40  0000  24 47 50 47 53 56 2C 33 2C 32 2C 31 32 2C 31 36  $GPGSV,3,2,12,16
          0010  2C 36 30 2C 30 35 34 2C 33 30 2C 31 38 2C 31 33  ,60,054,30,18,13
          0020  2C 30 35 31 2C 32 30 2C 32 30 2C 30 30 2C 33 32  ,051,20,20,00,32
          0030  35 2C 2C 32 31 2C 30 34 2C 33 32 36 2C 2A 37 33  5,,21,04,326,*73
          0040  0D 0A                                            ...
          
19:24:40  0000  24 47 50 47 53 56 2C 33 2C 33 2C 31 32 2C 32 36  $GPGSV,3,3,12,26
          0010  2C 32 35 2C 30 37 30 2C 32 37 2C 32 37 2C 36 33  ,25,070,27,27,63
          0020  2C 31 33 35 2C 34 30 2C 33 30 2C 30 31 2C 32 39  ,135,40,30,01,29
          0030  39 2C 2C 33 31 2C 31 36 2C 31 31 36 2C 32 38 2A  9,,31,16,116,28*
          0040  37 31 0D 0A                                      71...
          
19:24:40  0000  24 47 50 47 4C 4C 2C 34 35 33 32 2E 34 33 30 38  $GPGLL,4532.4308
          0010  38 2C 4E 2C 30 37 33 33 37 2E 32 34 37 38 37 2C  8,N,07337.24787,
          0020  57 2C 31 39 32 34 34 30 2E 30 30 2C 41 2C 41 2A  W,192440.00,A,A*
          0030  37 38 0D 0A                                      78...
          
19:24:41  0000  24 47 50 52 4D 43 2C 31 39 32 34 34 31 2E 30 30  $GPRMC,192441.00
          0010  2C 41 2C 34 35 33 32 2E 34 33 30 38 34 2C 4E 2C  ,A,4532.43084,N,
          0020  30 37 33 33 37 2E 32 34 37 39 33 2C 57 2C 30 2E  07337.24793,W,0.
          0030  30 37 32 2C 2C 32 37 31 31 32 35 2C 2C 2C 41 2A  072,,271125,,,A*
          0040  36 45 0D 0A                                      6E...
          
19:24:41  0000  24 47 50 56 54 47 2C 2C 54 2C 2C 4D 2C 30 2E 30  $GPVTG,,T,,M,0.0
          0010  37 32 2C 4E 2C 30 2E 31 33 34 2C 4B 2C 41 2A 32  72,N,0.134,K,A*2
          0020  30 0D 0A                                         0...
          
19:24:41  0000  24 47 50 47 47 41 2C 31 39 32 34 34 31 2E 30 30  $GPGGA,192441.00
          0010  2C 34 35 33 32 2E 34 33 30 38 34 2C 4E 2C 30 37  ,4532.43084,N,07
          0020  33 33 37 2E 32 34 37 39 33 2C 57 2C 31 2C 30 39  337.24793,W,1,09
          0030  2C 31 2E 30 30 2C 39 35 2E 30 2C 4D 2C 2D 33 32  ,1.00,95.0,M,-32
          0040  2E 37 2C 4D 2C 2C 2A 35 41 0D 0A                 .7,M,,*5A...
          
19:24:41  0000  24 47 50 47 53 41 2C 41 2C 33 2C 31 36 2C 32 37  $GPGSA,A,3,16,27
          0010  2C 30 39 2C 30 34 2C 30 38 2C 32 36 2C 30 37 2C  ,09,04,08,26,07,
          0020  33 31 2C 31 38 2C 2C 2C 2C 31 2E 39 34 2C 31 2E  31,18,,,,1.94,1.
          0030  30 30 2C 31 2E 36 36 2A 30 31 0D 0A              00,1.66*01...
          
19:24:41  0000  B5 62 06 06 00 00 0C 2A                          µb.....*.
          
19:24:41  0000  24 47 50 47 53 56 2C 33 2C 31 2C 31 32 2C 30 34  $GPGSV,3,1,12,04
          0010  2C 34 37 2C 32 30 35 2C 34 37 2C 30 37 2C 32 38  ,47,205,47,07,28
          0020  2C 33 30 31 2C 32 39 2C 30 38 2C 34 33 2C 31 38  ,301,29,08,43,18
          0030  34 2C 33 35 2C 30 39 2C 35 31 2C 32 36 37 2C 33  4,35,09,51,267,3
          0040  33 2A 37 35 0D 0A                                3*75...
          
19:24:41  0000  24 47 50 47 53 56 2C 33 2C 32 2C 31 32 2C 31 36  $GPGSV,3,2,12,16
          0010  2C 36 30 2C 30 35 34 2C 33 30 2C 31 38 2C 31 33  ,60,054,30,18,13
          0020  2C 30 35 31 2C 32 31 2C 32 30 2C 30 30 2C 33 32  ,051,21,20,00,32
          0030  35 2C 2C 32 31 2C 30 34 2C 33 32 36 2C 2A 37 32  5,,21,04,326,*72
          0040  0D 0A                                            ...
          
19:24:41  0000  24 47 50 47 53 56 2C 33 2C 33 2C 31 32 2C 32 36  $GPGSV,3,3,12,26
          0010  2C 32 35 2C 30 37 30 2C 32 38 2C 32 37 2C 36 33  ,25,070,28,27,63
          0020  2C 31 33 35 2C 34 30 2C 33 30 2C 30 31 2C 32 39  ,135,40,30,01,29
          0030  39 2C 2C 33 31 2C 31 36 2C 31 31 36 2C 32 39 2A  9,,31,16,116,29*
          0040  37 46 0D 0A                                      7F...
          
19:24:41  0000  24 47 50 47 4C 4C 2C 34 35 33 32 2E 34 33 30 38  $GPGLL,4532.4308
          0010  34 2C 4E 2C 30 37 33 33 37 2E 32 34 37 39 33 2C  4,N,07337.24793,
          0020  57 2C 31 39 32 34 34 31 2E 30 30 2C 41 2C 41 2A  W,192441.00,A,A*
          0030  37 30 0D 0A                                      70...
          
19:24:42  0000  24 47 50 52 4D 43 2C 31 39 32 34 34 32 2E 30 30  $GPRMC,192442.00
          0010  2C 41 2C 34 35 33 32 2E 34 33 30 37 39 2C 4E 2C  ,A,4532.43079,N,
          0020  30 37 33 33 37 2E 32 34 37 39 38 2C 57 2C 30 2E  07337.24798,W,0.
          0030  31 34 32 2C 2C 32 37 31 31 32 35 2C 2C 2C 41 2A  142,,271125,,,A*
          0040  36 36 0D 0A                                      66...
          
19:24:42  0000  24 47 50 56 54 47 2C 2C 54 2C 2C 4D 2C 30 2E 31  $GPVTG,,T,,M,0.1
          0010  34 32 2C 4E 2C 30 2E 32 36 34 2C 4B 2C 41 2A 32  42,N,0.264,K,A*2
          0020  34 0D 0A                                         4...
          
19:24:42  0000  24 47 50 47 47 41 2C 31 39 32 34 34 32 2E 30 30  $GPGGA,192442.00
          0010  2C 34 35 33 32 2E 34 33 30 37 39 2C 4E 2C 30 37  ,4532.43079,N,07
          0020  33 33 37 2E 32 34 37 39 38 2C 57 2C 31 2C 30 39  337.24798,W,1,09
          0030  2C 31 2E 30 30 2C 39 35 2E 32 2C 4D 2C 2D 33 32  ,1.00,95.2,M,-32
          0040  2E 37 2C 4D 2C 2C 2A 35 32 0D 0A                 .7,M,,*52...
          
19:24:42  0000  24 47 50 47 53 41 2C 41 2C 33 2C 31 36 2C 32 37  $GPGSA,A,3,16,27
          0010  2C 30 39 2C 30 34 2C 30 38 2C 32 36 2C 30 37 2C  ,09,04,08,26,07,
          0020  33 31 2C 31 38 2C 2C 2C 2C 31 2E 39 34 2C 31 2E  31,18,,,,1.94,1.
          0030  30 30 2C 31 2E 36 36 2A 30 31 0D 0A              00,1.66*01...
          
19:24:42  0000  B5 62 06 70 00 00 76 68                          µb.p..vh.
          
19:24:42  0000  24 47 50 47 53 56 2C 33 2C 31 2C 31 32 2C 30 34  $GPGSV,3,1,12,04
          0010  2C 34 37 2C 32 30 35 2C 34 37 2C 30 37 2C 32 38  ,47,205,47,07,28
          0020  2C 33 30 31 2C 32 37 2C 30 38 2C 34 33 2C 31 38  ,301,27,08,43,18
          0030  34 2C 33 35 2C 30 39 2C 35 31 2C 32 36 37 2C 33  4,35,09,51,267,3
          0040  33 2A 37 42 0D 0A                                3*7B...
          
19:24:42  0000  24 47 50 47 53 56 2C 33 2C 32 2C 31 32 2C 31 36  $GPGSV,3,2,12,16
          0010  2C 36 30 2C 30 35 34 2C 33 30 2C 31 38 2C 31 33  ,60,054,30,18,13
          0020  2C 30 35 31 2C 32 31 2C 32 30 2C 30 30 2C 33 32  ,051,21,20,00,32
          0030  35 2C 2C 32 31 2C 30 34 2C 33 32 36 2C 2A 37 32  5,,21,04,326,*72
          0040  0D 0A                                            ...
          
19:24:42  0000  24 47 50 47 53 56 2C 33 2C 33 2C 31 32 2C 32 36  $GPGSV,3,3,12,26
          0010  2C 32 35 2C 30 37 30 2C 32 37 2C 32 37 2C 36 33  ,25,070,27,27,63
          0020  2C 31 33 35 2C 34 30 2C 33 30 2C 30 31 2C 32 39  ,135,40,30,01,29
          0030  39 2C 2C 33 31 2C 31 36 2C 31 31 36 2C 32 39 2A  9,,31,16,116,29*
          0040  37 30 0D 0A                                      70...
          
19:24:42  0000  24 47 50 47 4C 4C 2C 34 35 33 32 2E 34 33 30 37  $GPGLL,4532.4307
          0010  39 2C 4E 2C 30 37 33 33 37 2E 32 34 37 39 38 2C  9,N,07337.24798,
          0020  57 2C 31 39 32 34 34 32 2E 30 30 2C 41 2C 41 2A  W,192442.00,A,A*
          0030  37 41 0D 0A                                      7A...
          
19:24:43  0000  24 47 50 52 4D 43 2C 31 39 32 34 34 33 2E 30 30  $GPRMC,192443.00
          0010  2C 41 2C 34 35 33 32 2E 34 33 30 37 36 2C 4E 2C  ,A,4532.43076,N,
          0020  30 37 33 33 37 2E 32 34 38 30 35 2C 57 2C 30 2E  07337.24805,W,0.
          0030  30 36 38 2C 2C 32 37 31 31 32 35 2C 2C 2C 41 2A  068,,271125,,,A*
          0040  36 41 0D 0A                                      6A...
          
19:24:43  0000  24 47 50 56 54 47 2C 2C 54 2C 2C 4D 2C 30 2E 30  $GPVTG,,T,,M,0.0
          0010  36 38 2C 4E 2C 30 2E 31 32 36 2C 4B 2C 41 2A 32  68,N,0.126,K,A*2
          0020  38 0D 0A                                         8...
          
19:24:43  0000  24 47 50 47 47 41 2C 31 39 32 34 34 33 2E 30 30  $GPGGA,192443.00
          0010  2C 34 35 33 32 2E 34 33 30 37 36 2C 4E 2C 30 37  ,4532.43076,N,07
          0020  33 33 37 2E 32 34 38 30 35 2C 57 2C 31 2C 30 39  337.24805,W,1,09
          0030  2C 31 2E 30 30 2C 39 35 2E 35 2C 4D 2C 2D 33 32  ,1.00,95.5,M,-32
          0040  2E 37 2C 4D 2C 2C 2A 35 30 0D 0A                 .7,M,,*50...
          
19:24:43  0000  24 47 50 47 53 41 2C 41 2C 33 2C 31 36 2C 32 37  $GPGSA,A,3,16,27
          0010  2C 30 39 2C 30 34 2C 30 38 2C 32 36 2C 30 37 2C  ,09,04,08,26,07,
          0020  33 31 2C 31 38 2C 2C 2C 2C 31 2E 39 34 2C 31 2E  31,18,,,,1.94,1.
          0030  30 30 2C 31 2E 36 36 2A 30 31 0D 0A              00,1.66*01...
          
19:24:43  0000  24 47 50 47 53 56 2C 33 2C 31 2C 31 32 2C 30 34  $GPGSV,3,1,12,04
          0010  2C 34 37 2C 32 30 35 2C 34 37 2C 30 37 2C 32 38  ,47,205,47,07,28
          0020  2C 33 30 31 2C 32 38 2C 30 38 2C 34 33 2C 31 38  ,301,28,08,43,18
          0030  34 2C 33 35 2C 30 39 2C 35 31 2C 32 36 37 2C 33  4,35,09,51,267,3
          0040  33 2A 37 34 0D 0A                                3*74...
          
19:24:43  0000  B5 62 06 70 00 00 76 68                          µb.p..vh.
          
19:24:43  0000  24 47 50 47 53 56 2C 33 2C 32 2C 31 32 2C 31 36  $GPGSV,3,2,12,16
          0010  2C 36 30 2C 30 35 34 2C 32 39 2C 31 38 2C 31 33  ,60,054,29,18,13
          0020  2C 30 35 31 2C 32 34 2C 32 30 2C 30 30 2C 33 32  ,051,24,20,00,32
          0030  35 2C 2C 32 31 2C 30 34 2C 33 32 36 2C 2A 37 46  5,,21,04,326,*7F
          0040  0D 0A                                            ...
          
19:24:43  0000  24 47 50 47 53 56 2C 33 2C 33 2C 31 32 2C 32 36  $GPGSV,3,3,12,26
          0010  2C 32 35 2C 30 37 30 2C 32 37 2C 32 37 2C 36 33  ,25,070,27,27,63
          0020  2C 31 33 35 2C 34 30 2C 33 30 2C 30 31 2C 32 39  ,135,40,30,01,29
          0030  39 2C 2C 33 31 2C 31 36 2C 31 31 36 2C 32 38 2A  9,,31,16,116,28*
          0040  37 31 0D 0A                                      71...
          
19:24:43  0000  24 47 50 47 4C 4C 2C 34 35 33 32 2E 34 33 30 37  $GPGLL,4532.4307
          0010  36 2C 4E 2C 30 37 33 33 37 2E 32 34 38 30 35 2C  6,N,07337.24805,
          0020  57 2C 31 39 32 34 34 33 2E 30 30 2C 41 2C 41 2A  W,192443.00,A,A*
          0030  37 46 0D 0A                                      7F...
          
19:24:44  0000  24 47 50 52 4D 43 2C 31 39 32 34 34 34 2E 30 30  $GPRMC,192444.00
          0010  2C 41 2C 34 35 33 32 2E 34 33 30 37 37 2C 4E 2C  ,A,4532.43077,N,
          0020  30 37 33 33 37 2E 32 34 38 31 31 2C 57 2C 30 2E  07337.24811,W,0.
          0030  30 30 37 2C 2C 32 37 31 31 32 35 2C 2C 2C 41 2A  007,,271125,,,A*
          0040  36 30 0D 0A                                      60...
          
19:24:44  0000  24 47 50 56 54 47 2C 2C 54 2C 2C 4D 2C 30 2E 30  $GPVTG,,T,,M,0.0
          0010  30 37 2C 4E 2C 30 2E 30 31 32 2C 4B 2C 41 2A 32  07,N,0.012,K,A*2
          0020  37 0D 0A                                         7...
          
19:24:44  0000  24 47 50 47 47 41 2C 31 39 32 34 34 34 2E 30 30  $GPGGA,192444.00
          0010  2C 34 35 33 32 2E 34 33 30 37 37 2C 4E 2C 30 37  ,4532.43077,N,07
          0020  33 33 37 2E 32 34 38 31 31 2C 57 2C 31 2C 30 39  337.24811,W,1,09
          0030  2C 31 2E 30 30 2C 39 35 2E 35 2C 4D 2C 2D 33 32  ,1.00,95.5,M,-32
          0040  2E 37 2C 4D 2C 2C 2A 35 33 0D 0A                 .7,M,,*53...
          
19:24:44  0000  24 47 50 47 53 41 2C 41 2C 33 2C 31 36 2C 32 37  $GPGSA,A,3,16,27
          0010  2C 30 39 2C 30 34 2C 30 38 2C 32 36 2C 30 37 2C  ,09,04,08,26,07,
          0020  33 31 2C 31 38 2C 2C 2C 2C 31 2E 39 34 2C 31 2E  31,18,,,,1.94,1.
          0030  30 30 2C 31 2E 36 36 2A 30 31 0D 0A              00,1.66*01...
          
19:24:44  0000  24 47 50 47 53 56 2C 33 2C 31 2C 31 32 2C 30 34  $GPGSV,3,1,12,04
          0010  2C 34 37 2C 32 30 35 2C 34 36 2C 30 37 2C 32 38  ,47,205,46,07,28
          0020  2C 33 30 31 2C 33 30 2C 30 38 2C 34 33 2C 31 38  ,301,30,08,43,18
          0030  34 2C 33 36 2C 30 39 2C 35 31 2C 32 36 37 2C 33  4,36,09,51,267,3
          0040  34 2A 37 38 0D 0A                                4*78...
          
19:24:44  0000  24 47 50 47 53 56 2C 33 2C 32 2C 31 32 2C 31 36  $GPGSV,3,2,12,16
          0010  2C 36 30 2C 30 35 34 2C 32 38 2C 31 38 2C 31 33  ,60,054,28,18,13
          0020  2C 30 35 31 2C 32 35 2C 32 30 2C 30 30 2C 33 32  ,051,25,20,00,32
          0030  35 2C 2C 32 31 2C 30 34 2C 33 32 36 2C 2A 37 46  5,,21,04,326,*7F
          0040  0D 0A                                            ...
          
19:24:44  0000  B5 62 06 61 00 00 67 3B                          µb.a..g;.
          
19:24:44  0000  24 47 50 47 53 56 2C 33 2C 33 2C 31 32 2C 32 36  $GPGSV,3,3,12,26
          0010  2C 32 35 2C 30 37 30 2C 32 38 2C 32 37 2C 36 33  ,25,070,28,27,63
          0020  2C 31 33 35 2C 34 30 2C 33 30 2C 30 31 2C 32 39  ,135,40,30,01,29
          0030  39 2C 2C 33 31 2C 31 36 2C 31 31 36 2C 32 37 2A  9,,31,16,116,27*
          0040  37 31 0D 0A                                      71...
          
19:24:44  0000  24 47 50 47 4C 4C 2C 34 35 33 32 2E 34 33 30 37  $GPGLL,4532.4307
          0010  37 2C 4E 2C 30 37 33 33 37 2E 32 34 38 31 31 2C  7,N,07337.24811,
          0020  57 2C 31 39 32 34 34 34 2E 30 30 2C 41 2C 41 2A  W,192444.00,A,A*
          0030  37 43 0D 0A                                      7C...
          
19:24:45  0000  24 47 50 52 4D 43 2C 31 39 32 34 34 35 2E 30 30  $GPRMC,192445.00
          0010  2C 41 2C 34 35 33 32 2E 34 33 30 37 39 2C 4E 2C  ,A,4532.43079,N,
          0020  30 37 33 33 37 2E 32 34 38 31 38 2C 57 2C 30 2E  07337.24818,W,0.
          0030  30 34 32 2C 2C 32 37 31 31 32 35 2C 2C 2C 41 2A  042,,271125,,,A*
          0040  36 37 0D 0A                                      67...
          
19:24:45  0000  24 47 50 56 54 47 2C 2C 54 2C 2C 4D 2C 30 2E 30  $GPVTG,,T,,M,0.0
          0010  34 32 2C 4E 2C 30 2E 30 37 38 2C 4B 2C 41 2A 32  42,N,0.078,K,A*2
          0020  41 0D 0A                                         A...
          
19:24:45  0000  24 47 50 47 47 41 2C 31 39 32 34 34 35 2E 30 30  $GPGGA,192445.00
          0010  2C 34 35 33 32 2E 34 33 30 37 39 2C 4E 2C 30 37  ,4532.43079,N,07
          0020  33 33 37 2E 32 34 38 31 38 2C 57 2C 31 2C 30 39  337.24818,W,1,09
          0030  2C 31 2E 30 30 2C 39 35 2E 34 2C 4D 2C 2D 33 32  ,1.00,95.4,M,-32
          0040  2E 37 2C 4D 2C 2C 2A 35 34 0D 0A                 .7,M,,*54...
          
19:24:45  0000  24 47 50 47 53 41 2C 41 2C 33 2C 31 36 2C 32 37  $GPGSA,A,3,16,27
          0010  2C 30 39 2C 30 34 2C 30 38 2C 32 36 2C 30 37 2C  ,09,04,08,26,07,
          0020  33 31 2C 31 38 2C 2C 2C 2C 31 2E 39 34 2C 31 2E  31,18,,,,1.94,1.
          0030  30 30 2C 31 2E 36 36 2A 30 31 0D 0A              00,1.66*01...
          
19:24:45  0000  24 47 50 47 53 56 2C 33 2C 31 2C 31 32 2C 30 34  $GPGSV,3,1,12,04
          0010  2C 34 37 2C 32 30 35 2C 34 36 2C 30 37 2C 32 38  ,47,205,46,07,28
          0020  2C 33 30 31 2C 32 39 2C 30 38 2C 34 33 2C 31 38  ,301,29,08,43,18
          0030  34 2C 33 35 2C 30 39 2C 35 31 2C 32 36 37 2C 33  4,35,09,51,267,3
          0040  33 2A 37 34 0D 0A                                3*74...
          
19:24:45  0000  B5 62 06 61 00 00 67 3B                          µb.a..g;.
          
19:24:45  0000  24 47 50 47 53 56 2C 33 2C 32 2C 31 32 2C 31 36  $GPGSV,3,2,12,16
